[
  {
    "city": "Zouno Péna",
    "city_zh": "Zouno Péna",
    "country": "Republic of the Congo",
    "country_zh": "剛果共和國",
    "country_iso_code": "CG",
    "timezone": "Africa/Brazzaville",
    "latitude": -3.00194,
    "longitude": 16.18222
  },
  {
    "city": "Zouloumongo",
    "city_zh": "Zouloumongo",
    "country": "Republic of the Congo",
    "country_zh": "剛果共和國",
    "country_iso_code": "CG",
    "timezone": "Africa/Brazzaville",
    "latitude": -4.755,
    "longitude": 14.66861
  },
  {
    "city": "Zouloukabi",
    "city_zh": "Zouloukabi",
    "country": "Republic of the Congo",
    "country_zh": "剛果共和國",
    "country_iso_code": "CG",
    "timezone": "Africa/Brazzaville",
    "latitude": -4.4075,
    "longitude": 14.54333
  },
  {
    "city": "Zoulou",
    "city_zh": "Zoulou",
    "country": "Republic of the Congo",
    "country_zh": "剛果共和國",
    "country_iso_code": "CG",
    "timezone": "Africa/Brazzaville",
    "latitude": -3.80583,
    "longitude": 14.69972
  },
  {
    "city": "Zoulabout",
    "city_zh": "Zoulabout",
    "country": "Republic of the Congo",
    "country_zh": "剛果共和國",
    "country_iso_code": "CG",
    "timezone": "Africa/Brazzaville",
    "latitude": 1.7,
    "longitude": 14.52472
  },
  {
    "city": "Zoula",
    "city_zh": "Zoula",
    "country": "Republic of the Congo",
    "country_zh": "剛果共和國",
    "country_iso_code": "CG",
    "timezone": "Africa/Brazzaville",
    "latitude": 1.48472,
    "longitude": 14.20472
  },
  {
    "city": "Zoul",
    "city_zh": "Zoul",
    "country": "Republic of the Congo",
    "country_zh": "剛果共和國",
    "country_iso_code": "CG",
    "timezone": "Africa/Brazzaville",
    "latitude": 1.65,
    "longitude": 13.5
  },
  {
    "city": "Zoulabouth",
    "city_zh": "Zoulabouth",
    "country": "Republic of the Congo",
    "country_zh": "剛果共和國",
    "country_iso_code": "CG",
    "timezone": "Africa/Brazzaville",
    "latitude": 1.57306,
    "longitude": 15.5575
  },
  {
    "city": "Zou",
    "city_zh": "Zou",
    "country": "Republic of the Congo",
    "country_zh": "剛果共和國",
    "country_iso_code": "CG",
    "timezone": "Africa/Brazzaville",
    "latitude": -3.78361,
    "longitude": 14.43528
  },
  {
    "city": "Zonzo",
    "city_zh": "Zonzo",
    "country": "Republic of the Congo",
    "country_zh": "剛果共和國",
    "country_iso_code": "CG",
    "timezone": "Africa/Brazzaville",
    "latitude": -4.09139,
    "longitude": 13.92278
  },
  {
    "city": "Zondé",
    "city_zh": "Zondé",
    "country": "Republic of the Congo",
    "country_zh": "剛果共和國",
    "country_iso_code": "CG",
    "timezone": "Africa/Brazzaville",
    "latitude": -4.78111,
    "longitude": 12.26111
  },
  {
    "city": "Zalon",
    "city_zh": "Zalon",
    "country": "Republic of the Congo",
    "country_zh": "剛果共和國",
    "country_iso_code": "CG",
    "timezone": "Africa/Brazzaville",
    "latitude": 1.62611,
    "longitude": 13.5475
  },
  {
    "city": "Zolabantou",
    "city_zh": "Zolabantou",
    "country": "Republic of the Congo",
    "country_zh": "剛果共和國",
    "country_iso_code": "CG",
    "timezone": "Africa/Brazzaville",
    "latitude": -4.81778,
    "longitude": 14.68167
  },
  {
    "city": "Zingo",
    "city_zh": "Zingo",
    "country": "Republic of the Congo",
    "country_zh": "剛果共和國",
    "country_iso_code": "CG",
    "timezone": "Africa/Brazzaville",
    "latitude": 2.44556,
    "longitude": 17.42694
  },
  {
    "city": "Zinnga",
    "city_zh": "Zinnga",
    "country": "Republic of the Congo",
    "country_zh": "剛果共和國",
    "country_iso_code": "CG",
    "timezone": "Africa/Brazzaville",
    "latitude": -4.8425,
    "longitude": 14.72083
  },
  {
    "city": "Nziéto",
    "city_zh": "Nziéto",
    "country": "Republic of the Congo",
    "country_zh": "剛果共和國",
    "country_iso_code": "CG",
    "timezone": "Africa/Brazzaville",
    "latitude": -4.83806,
    "longitude": 14.62944
  },
  {
    "city": "Zialaba",
    "city_zh": "Zialaba",
    "country": "Republic of the Congo",
    "country_zh": "剛果共和國",
    "country_iso_code": "CG",
    "timezone": "Africa/Brazzaville",
    "latitude": 2.13333,
    "longitude": 14.05
  },
  {
    "city": "Zevengé",
    "city_zh": "Zevengé",
    "country": "Republic of the Congo",
    "country_zh": "剛果共和國",
    "country_iso_code": "CG",
    "timezone": "Africa/Brazzaville",
    "latitude": -4.13944,
    "longitude": 12.02639
  },
  {
    "city": "Zembé Tchécosso",
    "city_zh": "Zembé Tchécosso",
    "country": "Republic of the Congo",
    "country_zh": "剛果共和國",
    "country_iso_code": "CG",
    "timezone": "Africa/Brazzaville",
    "latitude": -4.73833,
    "longitude": 12.18889
  },
  {
    "city": "Zedimba",
    "city_zh": "Zedimba",
    "country": "Republic of the Congo",
    "country_zh": "剛果共和國",
    "country_iso_code": "CG",
    "timezone": "Africa/Brazzaville",
    "latitude": -4.79028,
    "longitude": 14.66944
  },
  {
    "city": "Zavanga I",
    "city_zh": "Zavanga I",
    "country": "Republic of the Congo",
    "country_zh": "剛果共和國",
    "country_iso_code": "CG",
    "timezone": "Africa/Brazzaville",
    "latitude": -4.15056,
    "longitude": 11.93417
  },
  {
    "city": "Zavanga II",
    "city_zh": "Zavanga II",
    "country": "Republic of the Congo",
    "country_zh": "剛果共和國",
    "country_iso_code": "CG",
    "timezone": "Africa/Brazzaville",
    "latitude": -4.10611,
    "longitude": 11.88444
  },
  {
    "city": "Zatchi",
    "city_zh": "Zatchi",
    "country": "Republic of the Congo",
    "country_zh": "剛果共和國",
    "country_iso_code": "CG",
    "timezone": "Africa/Brazzaville",
    "latitude": -4.25667,
    "longitude": 11.74667
  },
  {
    "city": "Zanzi",
    "city_zh": "Zanzi",
    "country": "Republic of the Congo",
    "country_zh": "剛果共和國",
    "country_iso_code": "CG",
    "timezone": "Africa/Brazzaville",
    "latitude": -2.9425,
    "longitude": 13.25806
  },
  {
    "city": "Zanaga",
    "city_zh": "Zanaga",
    "country": "Republic of the Congo",
    "country_zh": "剛果共和國",
    "country_iso_code": "CG",
    "timezone": "Africa/Brazzaville",
    "latitude": -2.85028,
    "longitude": 13.82611
  },
  {
    "city": "Zambi Sissi",
    "city_zh": "Zambi Sissi",
    "country": "Republic of the Congo",
    "country_zh": "剛果共和國",
    "country_iso_code": "CG",
    "timezone": "Africa/Brazzaville",
    "latitude": -3.71667,
    "longitude": 12.55
  },
  {
    "city": "Zambi-Kala",
    "city_zh": "Zambi-Kala",
    "country": "Republic of the Congo",
    "country_zh": "剛果共和國",
    "country_iso_code": "CG",
    "timezone": "Africa/Brazzaville",
    "latitude": -2.74472,
    "longitude": 12.18778
  },
  {
    "city": "Zamba",
    "city_zh": "Zamba",
    "country": "Republic of the Congo",
    "country_zh": "剛果共和國",
    "country_iso_code": "CG",
    "timezone": "Africa/Brazzaville",
    "latitude": -4.86389,
    "longitude": 14.59167
  },
  {
    "city": "Zalon",
    "city_zh": "Zalon",
    "country": "Republic of the Congo",
    "country_zh": "剛果共和國",
    "country_iso_code": "CG",
    "timezone": "Africa/Brazzaville",
    "latitude": 1.63972,
    "longitude": 13.65222
  },
  {
    "city": "Zalangoye",
    "city_zh": "Zalangoye",
    "country": "Republic of the Congo",
    "country_zh": "剛果共和國",
    "country_iso_code": "CG",
    "timezone": "Africa/Brazzaville",
    "latitude": 1.56444,
    "longitude": 15.48667
  },
  {
    "city": "Zalangoye",
    "city_zh": "Zalangoye",
    "country": "Republic of the Congo",
    "country_zh": "剛果共和國",
    "country_iso_code": "CG",
    "timezone": "Africa/Brazzaville",
    "latitude": 0.80667,
    "longitude": 15.38083
  },
  {
    "city": "Zabata",
    "city_zh": "Zabata",
    "country": "Republic of the Congo",
    "country_zh": "剛果共和國",
    "country_iso_code": "CG",
    "timezone": "Africa/Brazzaville",
    "latitude": -3.80722,
    "longitude": 14.09972
  },
  {
    "city": "Yuomi",
    "city_zh": "Yuomi",
    "country": "Republic of the Congo",
    "country_zh": "剛果共和國",
    "country_iso_code": "CG",
    "timezone": "Africa/Brazzaville",
    "latitude": -3.19972,
    "longitude": 14.02556
  },
  {
    "city": "Yoyo",
    "city_zh": "Yoyo",
    "country": "Republic of the Congo",
    "country_zh": "剛果共和國",
    "country_iso_code": "CG",
    "timezone": "Africa/Brazzaville",
    "latitude": -2.9,
    "longitude": 13.96667
  },
  {
    "city": "Youngou-Zassi",
    "city_zh": "Youngou-Zassi",
    "country": "Republic of the Congo",
    "country_zh": "剛果共和國",
    "country_iso_code": "CG",
    "timezone": "Africa/Brazzaville",
    "latitude": -4.63861,
    "longitude": 12.21639
  },
  {
    "city": "Youngou",
    "city_zh": "Youngou",
    "country": "Republic of the Congo",
    "country_zh": "剛果共和國",
    "country_iso_code": "CG",
    "timezone": "Africa/Brazzaville",
    "latitude": -4.26472,
    "longitude": 11.51361
  },
  {
    "city": "Yombé",
    "city_zh": "Yombé",
    "country": "Republic of the Congo",
    "country_zh": "剛果共和國",
    "country_iso_code": "CG",
    "timezone": "Africa/Brazzaville",
    "latitude": -0.085,
    "longitude": 15.57778
  },
  {
    "city": "Youmbé",
    "city_zh": "Youmbé",
    "country": "Republic of the Congo",
    "country_zh": "剛果共和國",
    "country_iso_code": "CG",
    "timezone": "Africa/Brazzaville",
    "latitude": 1.27083,
    "longitude": 17.94083
  },
  {
    "city": "Youmba",
    "city_zh": "Youmba",
    "country": "Republic of the Congo",
    "country_zh": "剛果共和國",
    "country_iso_code": "CG",
    "timezone": "Africa/Brazzaville",
    "latitude": -0.35417,
    "longitude": 17.36833
  },
  {
    "city": "Youloukoyé",
    "city_zh": "Youloukoyé",
    "country": "Republic of the Congo",
    "country_zh": "剛果共和國",
    "country_iso_code": "CG",
    "timezone": "Africa/Brazzaville",
    "latitude": -4.05972,
    "longitude": 13.08806
  },
  {
    "city": "Youlou Bièngué",
    "city_zh": "Youlou Bièngué",
    "country": "Republic of the Congo",
    "country_zh": "剛果共和國",
    "country_iso_code": "CG",
    "timezone": "Africa/Brazzaville",
    "latitude": -4.24722,
    "longitude": 14.3425
  },
  {
    "city": "Ilokoyo",
    "city_zh": "Ilokoyo",
    "country": "Republic of the Congo",
    "country_zh": "剛果共和國",
    "country_iso_code": "CG",
    "timezone": "Africa/Brazzaville",
    "latitude": -1.03083,
    "longitude": 14.69361
  },
  {
    "city": "Youlandziami",
    "city_zh": "Youlandziami",
    "country": "Republic of the Congo",
    "country_zh": "剛果共和國",
    "country_iso_code": "CG",
    "timezone": "Africa/Brazzaville",
    "latitude": -3.01667,
    "longitude": 12.86667
  },
  {
    "city": "Youlandzami",
    "city_zh": "Youlandzami",
    "country": "Republic of the Congo",
    "country_zh": "剛果共和國",
    "country_iso_code": "CG",
    "timezone": "Africa/Brazzaville",
    "latitude": -2.58361,
    "longitude": 12.73972
  },
  {
    "city": "Youlambali",
    "city_zh": "Youlambali",
    "country": "Republic of the Congo",
    "country_zh": "剛果共和國",
    "country_iso_code": "CG",
    "timezone": "Africa/Brazzaville",
    "latitude": -2.28389,
    "longitude": 14.51222
  },
  {
    "city": "Youiounkoye",
    "city_zh": "Youiounkoye",
    "country": "Republic of the Congo",
    "country_zh": "剛果共和國",
    "country_iso_code": "CG",
    "timezone": "Africa/Brazzaville",
    "latitude": -4.11194,
    "longitude": 13.29111
  },
  {
    "city": "Youbi",
    "city_zh": "Youbi",
    "country": "Republic of the Congo",
    "country_zh": "剛果共和國",
    "country_iso_code": "CG",
    "timezone": "Africa/Brazzaville",
    "latitude": -4.19,
    "longitude": 11.66778
  },
  {
    "city": "Yombo",
    "city_zh": "Yombo",
    "country": "Republic of the Congo",
    "country_zh": "剛果共和國",
    "country_iso_code": "CG",
    "timezone": "Africa/Brazzaville",
    "latitude": -2.94722,
    "longitude": 12.70417
  },
  {
    "city": "Yombé",
    "city_zh": "Yombé",
    "country": "Republic of the Congo",
    "country_zh": "剛果共和國",
    "country_iso_code": "CG",
    "timezone": "Africa/Brazzaville",
    "latitude": -0.01667,
    "longitude": 16.0
  },
  {
    "city": "Yoko",
    "city_zh": "Yoko",
    "country": "Republic of the Congo",
    "country_zh": "剛果共和國",
    "country_iso_code": "CG",
    "timezone": "Africa/Brazzaville",
    "latitude": -2.90056,
    "longitude": 13.60556
  },
  {
    "city": "Mokoko",
    "city_zh": "Mokoko",
    "country": "Republic of the Congo",
    "country_zh": "剛果共和國",
    "country_iso_code": "CG",
    "timezone": "Africa/Brazzaville",
    "latitude": 0.87667,
    "longitude": 15.58
  },
  {
    "city": "Yokama",
    "city_zh": "Yokama",
    "country": "Republic of the Congo",
    "country_zh": "剛果共和國",
    "country_iso_code": "CG",
    "timezone": "Africa/Brazzaville",
    "latitude": -4.29056,
    "longitude": 14.73806
  },
  {
    "city": "Yoka",
    "city_zh": "Yoka",
    "country": "Republic of the Congo",
    "country_zh": "剛果共和國",
    "country_iso_code": "CG",
    "timezone": "Africa/Brazzaville",
    "latitude": -2.95611,
    "longitude": 14.04139
  },
  {
    "city": "Yloumata",
    "city_zh": "Yloumata",
    "country": "Republic of the Congo",
    "country_zh": "剛果共和國",
    "country_iso_code": "CG",
    "timezone": "Africa/Brazzaville",
    "latitude": -4.33333,
    "longitude": 12.41667
  },
  {
    "city": "Yima",
    "city_zh": "Yima",
    "country": "Republic of the Congo",
    "country_zh": "剛果共和國",
    "country_iso_code": "CG",
    "timezone": "Africa/Brazzaville",
    "latitude": -2.30639,
    "longitude": 14.44694
  },
  {
    "city": "Yili",
    "city_zh": "Yili",
    "country": "Republic of the Congo",
    "country_zh": "剛果共和國",
    "country_iso_code": "CG",
    "timezone": "Africa/Brazzaville",
    "latitude": -2.64972,
    "longitude": 14.76611
  },
  {
    "city": "Yetila",
    "city_zh": "Yetila",
    "country": "Republic of the Congo",
    "country_zh": "剛果共和國",
    "country_iso_code": "CG",
    "timezone": "Africa/Brazzaville",
    "latitude": -4.15611,
    "longitude": 14.87028
  },
  {
    "city": "Yengo-Babinga",
    "city_zh": "Yengo-Babinga",
    "country": "Republic of the Congo",
    "country_zh": "剛果共和國",
    "country_iso_code": "CG",
    "timezone": "Africa/Brazzaville",
    "latitude": 1.94444,
    "longitude": 15.5575
  },
  {
    "city": "Yengo",
    "city_zh": "Yengo",
    "country": "Republic of the Congo",
    "country_zh": "剛果共和國",
    "country_iso_code": "CG",
    "timezone": "Africa/Brazzaville",
    "latitude": 0.36861,
    "longitude": 15.44583
  },
  {
    "city": "Yenga",
    "city_zh": "Yenga",
    "country": "Republic of the Congo",
    "country_zh": "剛果共和國",
    "country_iso_code": "CG",
    "timezone": "Africa/Brazzaville",
    "latitude": 1.66389,
    "longitude": 14.55722
  },
  {
    "city": "Yenenganou",
    "city_zh": "Yenenganou",
    "country": "Republic of the Congo",
    "country_zh": "剛果共和國",
    "country_iso_code": "CG",
    "timezone": "Africa/Brazzaville",
    "latitude": -3.74611,
    "longitude": 12.5375
  },
  {
    "city": "Yèndé",
    "city_zh": "Yèndé",
    "country": "Republic of the Congo",
    "country_zh": "剛果共和國",
    "country_iso_code": "CG",
    "timezone": "Africa/Brazzaville",
    "latitude": 3.08083,
    "longitude": 18.51611
  },
  {
    "city": "Yambo",
    "city_zh": "Yambo",
    "country": "Republic of the Congo",
    "country_zh": "剛果共和國",
    "country_iso_code": "CG",
    "timezone": "Africa/Brazzaville",
    "latitude": -4.10472,
    "longitude": 12.02583
  },
  {
    "city": "Yembélangoye",
    "city_zh": "Yembélangoye",
    "country": "Republic of the Congo",
    "country_zh": "剛果共和國",
    "country_iso_code": "CG",
    "timezone": "Africa/Brazzaville",
    "latitude": -0.19,
    "longitude": 14.34528
  },
  {
    "city": "Yembélangoy",
    "city_zh": "Yembélangoy",
    "country": "Republic of the Congo",
    "country_zh": "剛果共和國",
    "country_iso_code": "CG",
    "timezone": "Africa/Brazzaville",
    "latitude": 0.18194,
    "longitude": 14.19833
  },
  {
    "city": "Yelma",
    "city_zh": "Yelma",
    "country": "Republic of the Congo",
    "country_zh": "剛果共和國",
    "country_iso_code": "CG",
    "timezone": "Africa/Brazzaville",
    "latitude": -4.4225,
    "longitude": 11.69694
  },
  {
    "city": "Yédiké",
    "city_zh": "Yédiké",
    "country": "Republic of the Congo",
    "country_zh": "剛果共和國",
    "country_iso_code": "CG",
    "timezone": "Africa/Brazzaville",
    "latitude": -4.13694,
    "longitude": 13.03806
  },
  {
    "city": "Yédéké",
    "city_zh": "Yédéké",
    "country": "Republic of the Congo",
    "country_zh": "剛果共和國",
    "country_iso_code": "CG",
    "timezone": "Africa/Brazzaville",
    "latitude": -4.06806,
    "longitude": 13.07333
  },
  {
    "city": "Yé",
    "city_zh": "Yé",
    "country": "Republic of the Congo",
    "country_zh": "剛果共和國",
    "country_iso_code": "CG",
    "timezone": "Africa/Brazzaville",
    "latitude": -3.88361,
    "longitude": 15.40944
  },
  {
    "city": "Yaya",
    "city_zh": "Yaya",
    "country": "Republic of the Congo",
    "country_zh": "剛果共和國",
    "country_iso_code": "CG",
    "timezone": "Africa/Brazzaville",
    "latitude": -4.61556,
    "longitude": 12.0475
  },
  {
    "city": "Yaya",
    "city_zh": "Yaya",
    "country": "Republic of the Congo",
    "country_zh": "剛果共和國",
    "country_iso_code": "CG",
    "timezone": "Africa/Brazzaville",
    "latitude": -3.14222,
    "longitude": 12.91333
  },
  {
    "city": "Yanika",
    "city_zh": "Yanika",
    "country": "Republic of the Congo",
    "country_zh": "剛果共和國",
    "country_iso_code": "CG",
    "timezone": "Africa/Brazzaville",
    "latitude": -4.26778,
    "longitude": 11.58444
  },
  {
    "city": "Yangui",
    "city_zh": "Yangui",
    "country": "Republic of the Congo",
    "country_zh": "剛果共和國",
    "country_iso_code": "CG",
    "timezone": "Africa/Brazzaville",
    "latitude": -4.28833,
    "longitude": 14.65667
  },
  {
    "city": "Yanébout",
    "city_zh": "Yanébout",
    "country": "Republic of the Congo",
    "country_zh": "剛果共和國",
    "country_iso_code": "CG",
    "timezone": "Africa/Brazzaville",
    "latitude": 1.815,
    "longitude": 14.23389
  },
  {
    "city": "Yangala",
    "city_zh": "Yangala",
    "country": "Republic of the Congo",
    "country_zh": "剛果共和國",
    "country_iso_code": "CG",
    "timezone": "Africa/Brazzaville",
    "latitude": -4.19583,
    "longitude": 11.66778
  },
  {
    "city": "Yanga Dzala",
    "city_zh": "Yanga Dzala",
    "country": "Republic of the Congo",
    "country_zh": "剛果共和國",
    "country_iso_code": "CG",
    "timezone": "Africa/Brazzaville",
    "latitude": -4.745,
    "longitude": 14.64444
  },
  {
    "city": "Yanga",
    "city_zh": "Yanga",
    "country": "Republic of the Congo",
    "country_zh": "剛果共和國",
    "country_iso_code": "CG",
    "timezone": "Africa/Brazzaville",
    "latitude": -4.71417,
    "longitude": 14.64
  },
  {
    "city": "Yanga",
    "city_zh": "Yanga",
    "country": "Republic of the Congo",
    "country_zh": "剛果共和國",
    "country_iso_code": "CG",
    "timezone": "Africa/Brazzaville",
    "latitude": -4.55194,
    "longitude": 12.19111
  },
  {
    "city": "Yanga",
    "city_zh": "Yanga",
    "country": "Republic of the Congo",
    "country_zh": "剛果共和國",
    "country_iso_code": "CG",
    "timezone": "Africa/Brazzaville",
    "latitude": -4.37222,
    "longitude": 14.97528
  },
  {
    "city": "Yanga",
    "city_zh": "Yanga",
    "country": "Republic of the Congo",
    "country_zh": "剛果共和國",
    "country_iso_code": "CG",
    "timezone": "Africa/Brazzaville",
    "latitude": -4.34361,
    "longitude": 11.67556
  },
  {
    "city": "Yanga",
    "city_zh": "Yanga",
    "country": "Republic of the Congo",
    "country_zh": "剛果共和國",
    "country_iso_code": "CG",
    "timezone": "Africa/Brazzaville",
    "latitude": -4.18611,
    "longitude": 14.63167
  },
  {
    "city": "Yanga",
    "city_zh": "Yanga",
    "country": "Republic of the Congo",
    "country_zh": "剛果共和國",
    "country_iso_code": "CG",
    "timezone": "Africa/Brazzaville",
    "latitude": -4.15,
    "longitude": 12.76667
  },
  {
    "city": "Yanebout",
    "city_zh": "Yanebout",
    "country": "Republic of the Congo",
    "country_zh": "剛果共和國",
    "country_iso_code": "CG",
    "timezone": "Africa/Brazzaville",
    "latitude": 2.16667,
    "longitude": 14.06667
  },
  {
    "city": "Yanébout",
    "city_zh": "Yanébout",
    "country": "Republic of the Congo",
    "country_zh": "剛果共和國",
    "country_iso_code": "CG",
    "timezone": "Africa/Brazzaville",
    "latitude": 1.62778,
    "longitude": 14.55889
  },
  {
    "city": "Yanana",
    "city_zh": "Yanana",
    "country": "Republic of the Congo",
    "country_zh": "剛果共和國",
    "country_iso_code": "CG",
    "timezone": "Africa/Brazzaville",
    "latitude": -0.63944,
    "longitude": 16.09
  },
  {
    "city": "Yana",
    "city_zh": "Yana",
    "country": "Republic of the Congo",
    "country_zh": "剛果共和國",
    "country_iso_code": "CG",
    "timezone": "Africa/Brazzaville",
    "latitude": -4.77083,
    "longitude": 14.64306
  },
  {
    "city": "Yambiko",
    "city_zh": "Yambiko",
    "country": "Republic of the Congo",
    "country_zh": "剛果共和國",
    "country_iso_code": "CG",
    "timezone": "Africa/Brazzaville",
    "latitude": 3.43333,
    "longitude": 17.81667
  },
  {
    "city": "Yamba",
    "city_zh": "Yamba",
    "country": "Republic of the Congo",
    "country_zh": "剛果共和國",
    "country_iso_code": "CG",
    "timezone": "Africa/Brazzaville",
    "latitude": -4.15139,
    "longitude": 13.96861
  },
  {
    "city": "Yanba",
    "city_zh": "Yanba",
    "country": "Republic of the Congo",
    "country_zh": "剛果共和國",
    "country_iso_code": "CG",
    "timezone": "Africa/Brazzaville",
    "latitude": -2.48583,
    "longitude": 13.54
  },
  {
    "city": "Yamamba",
    "city_zh": "Yamamba",
    "country": "Republic of the Congo",
    "country_zh": "剛果共和國",
    "country_iso_code": "CG",
    "timezone": "Africa/Brazzaville",
    "latitude": 2.71667,
    "longitude": 18.26667
  },
  {
    "city": "Yamadjélé",
    "city_zh": "Yamadjélé",
    "country": "Republic of the Congo",
    "country_zh": "剛果共和國",
    "country_iso_code": "CG",
    "timezone": "Africa/Brazzaville",
    "latitude": -2.7,
    "longitude": 13.88333
  },
  {
    "city": "Yama",
    "city_zh": "Yama",
    "country": "Republic of the Congo",
    "country_zh": "剛果共和國",
    "country_iso_code": "CG",
    "timezone": "Africa/Brazzaville",
    "latitude": -3.60389,
    "longitude": 12.41639
  },
  {
    "city": "Yama",
    "city_zh": "Yama",
    "country": "Republic of the Congo",
    "country_zh": "剛果共和國",
    "country_iso_code": "CG",
    "timezone": "Africa/Brazzaville",
    "latitude": -1.45583,
    "longitude": 15.15889
  },
  {
    "city": "Yama",
    "city_zh": "Yama",
    "country": "Republic of the Congo",
    "country_zh": "剛果共和國",
    "country_iso_code": "CG",
    "timezone": "Africa/Brazzaville",
    "latitude": -0.93194,
    "longitude": 14.75667
  },
  {
    "city": "Yalavounga",
    "city_zh": "Yalavounga",
    "country": "Republic of the Congo",
    "country_zh": "剛果共和國",
    "country_iso_code": "CG",
    "timezone": "Africa/Brazzaville",
    "latitude": -4.41694,
    "longitude": 14.75722
  },
  {
    "city": "Yala",
    "city_zh": "Yala",
    "country": "Republic of the Congo",
    "country_zh": "剛果共和國",
    "country_iso_code": "CG",
    "timezone": "Africa/Brazzaville",
    "latitude": -1.59611,
    "longitude": 15.885
  },
  {
    "city": "Yakou",
    "city_zh": "Yakou",
    "country": "Republic of the Congo",
    "country_zh": "剛果共和國",
    "country_iso_code": "CG",
    "timezone": "Africa/Brazzaville",
    "latitude": -3.36667,
    "longitude": 14.19583
  },
  {
    "city": "Yabongo",
    "city_zh": "Yabongo",
    "country": "Republic of the Congo",
    "country_zh": "剛果共和國",
    "country_iso_code": "CG",
    "timezone": "Africa/Brazzaville",
    "latitude": -3.28333,
    "longitude": 16.18333
  },
  {
    "city": "Yaba Mbéti",
    "city_zh": "Yaba Mbéti",
    "country": "Republic of the Congo",
    "country_zh": "剛果共和國",
    "country_iso_code": "CG",
    "timezone": "Africa/Brazzaville",
    "latitude": -0.69111,
    "longitude": 14.56917
  },
  {
    "city": "Yaba",
    "city_zh": "Yaba",
    "country": "Republic of the Congo",
    "country_zh": "剛果共和國",
    "country_iso_code": "CG",
    "timezone": "Africa/Brazzaville",
    "latitude": -1.70694,
    "longitude": 15.7925
  },
  {
    "city": "Yaba",
    "city_zh": "Yaba",
    "country": "Republic of the Congo",
    "country_zh": "剛果共和國",
    "country_iso_code": "CG",
    "timezone": "Africa/Brazzaville",
    "latitude": -1.40083,
    "longitude": 16.28806
  },
  {
    "city": "Yaba",
    "city_zh": "Yaba",
    "country": "Republic of the Congo",
    "country_zh": "剛果共和國",
    "country_iso_code": "CG",
    "timezone": "Africa/Brazzaville",
    "latitude": -1.04611,
    "longitude": 15.73639
  },
  {
    "city": "Ouanda",
    "city_zh": "Ouanda",
    "country": "Republic of the Congo",
    "country_zh": "剛果共和國",
    "country_iso_code": "CG",
    "timezone": "Africa/Brazzaville",
    "latitude": -4.52194,
    "longitude": 14.71194
  },
  {
    "city": "Ouanda",
    "city_zh": "Ouanda",
    "country": "Republic of the Congo",
    "country_zh": "剛果共和國",
    "country_iso_code": "CG",
    "timezone": "Africa/Brazzaville",
    "latitude": -4.31083,
    "longitude": 14.67556
  },
  {
    "city": "Oualala",
    "city_zh": "Oualala",
    "country": "Republic of the Congo",
    "country_zh": "剛果共和國",
    "country_iso_code": "CG",
    "timezone": "Africa/Brazzaville",
    "latitude": -4.32028,
    "longitude": 14.45111
  },
  {
    "city": "Wala",
    "city_zh": "Wala",
    "country": "Republic of the Congo",
    "country_zh": "剛果共和國",
    "country_iso_code": "CG",
    "timezone": "Africa/Brazzaville",
    "latitude": -3.78472,
    "longitude": 14.11167
  },
  {
    "city": "Vouvou",
    "city_zh": "Vouvou",
    "country": "Republic of the Congo",
    "country_zh": "剛果共和國",
    "country_iso_code": "CG",
    "timezone": "Africa/Brazzaville",
    "latitude": -4.20444,
    "longitude": 14.96333
  },
  {
    "city": "Voungouta",
    "city_zh": "Voungouta",
    "country": "Republic of the Congo",
    "country_zh": "剛果共和國",
    "country_iso_code": "CG",
    "timezone": "Africa/Brazzaville",
    "latitude": -4.38694,
    "longitude": 14.56333
  },
  {
    "city": "Voundala",
    "city_zh": "Voundala",
    "country": "Republic of the Congo",
    "country_zh": "剛果共和國",
    "country_iso_code": "CG",
    "timezone": "Africa/Brazzaville",
    "latitude": -2.7925,
    "longitude": 11.86389
  },
  {
    "city": "Vounda II",
    "city_zh": "Vounda II",
    "country": "Republic of the Congo",
    "country_zh": "剛果共和國",
    "country_iso_code": "CG",
    "timezone": "Africa/Brazzaville",
    "latitude": -3.65222,
    "longitude": 12.23139
  },
  {
    "city": "Vounda I",
    "city_zh": "Vounda I",
    "country": "Republic of the Congo",
    "country_zh": "剛果共和國",
    "country_iso_code": "CG",
    "timezone": "Africa/Brazzaville",
    "latitude": -3.64278,
    "longitude": 12.16222
  },
  {
    "city": "Vouma",
    "city_zh": "Vouma",
    "country": "Republic of the Congo",
    "country_zh": "剛果共和國",
    "country_iso_code": "CG",
    "timezone": "Africa/Brazzaville",
    "latitude": 0.04222,
    "longitude": 15.66889
  },
  {
    "city": "Vouloumanba",
    "city_zh": "Vouloumanba",
    "country": "Republic of the Congo",
    "country_zh": "剛果共和國",
    "country_iso_code": "CG",
    "timezone": "Africa/Brazzaville",
    "latitude": -4.45222,
    "longitude": 14.83806
  },
  {
    "city": "Voulou",
    "city_zh": "Voulou",
    "country": "Republic of the Congo",
    "country_zh": "剛果共和國",
    "country_iso_code": "CG",
    "timezone": "Africa/Brazzaville",
    "latitude": -4.85667,
    "longitude": 14.65833
  },
  {
    "city": "Voulou",
    "city_zh": "Voulou",
    "country": "Republic of the Congo",
    "country_zh": "剛果共和國",
    "country_iso_code": "CG",
    "timezone": "Africa/Brazzaville",
    "latitude": -4.64778,
    "longitude": 14.7375
  },
  {
    "city": "Voulaniangou",
    "city_zh": "Voulaniangou",
    "country": "Republic of the Congo",
    "country_zh": "剛果共和國",
    "country_iso_code": "CG",
    "timezone": "Africa/Brazzaville",
    "latitude": -3.46556,
    "longitude": 12.33528
  },
  {
    "city": "Voulaniangou",
    "city_zh": "Voulaniangou",
    "country": "Republic of the Congo",
    "country_zh": "剛果共和國",
    "country_iso_code": "CG",
    "timezone": "Africa/Brazzaville",
    "latitude": -3.46056,
    "longitude": 12.28333
  },
  {
    "city": "Voula",
    "city_zh": "Voula",
    "country": "Republic of the Congo",
    "country_zh": "剛果共和國",
    "country_iso_code": "CG",
    "timezone": "Africa/Brazzaville",
    "latitude": -4.36028,
    "longitude": 14.84389
  },
  {
    "city": "Voula",
    "city_zh": "Voula",
    "country": "Republic of the Congo",
    "country_zh": "剛果共和國",
    "country_iso_code": "CG",
    "timezone": "Africa/Brazzaville",
    "latitude": -2.98333,
    "longitude": 13.26667
  },
  {
    "city": "Voula",
    "city_zh": "Voula",
    "country": "Republic of the Congo",
    "country_zh": "剛果共和國",
    "country_iso_code": "CG",
    "timezone": "Africa/Brazzaville",
    "latitude": -2.79833,
    "longitude": 13.83333
  },
  {
    "city": "Voula",
    "city_zh": "Voula",
    "country": "Republic of the Congo",
    "country_zh": "剛果共和國",
    "country_iso_code": "CG",
    "timezone": "Africa/Brazzaville",
    "latitude": -2.75694,
    "longitude": 13.83333
  },
  {
    "city": "Vouka",
    "city_zh": "Vouka",
    "country": "Republic of the Congo",
    "country_zh": "剛果共和國",
    "country_iso_code": "CG",
    "timezone": "Africa/Brazzaville",
    "latitude": -2.56889,
    "longitude": 12.74556
  },
  {
    "city": "Vouga Itounou",
    "city_zh": "Vouga Itounou",
    "country": "Republic of the Congo",
    "country_zh": "剛果共和國",
    "country_iso_code": "CG",
    "timezone": "Africa/Brazzaville",
    "latitude": -2.91167,
    "longitude": 13.93778
  },
  {
    "city": "Vouga",
    "city_zh": "Vouga",
    "country": "Republic of the Congo",
    "country_zh": "剛果共和國",
    "country_iso_code": "CG",
    "timezone": "Africa/Brazzaville",
    "latitude": -2.99556,
    "longitude": 13.87417
  },
  {
    "city": "Vouga",
    "city_zh": "Vouga",
    "country": "Republic of the Congo",
    "country_zh": "剛果共和國",
    "country_iso_code": "CG",
    "timezone": "Africa/Brazzaville",
    "latitude": -2.85,
    "longitude": 13.8
  },
  {
    "city": "Vouga",
    "city_zh": "Vouga",
    "country": "Republic of the Congo",
    "country_zh": "剛果共和國",
    "country_iso_code": "CG",
    "timezone": "Africa/Brazzaville",
    "latitude": -2.78389,
    "longitude": 12.65028
  },
  {
    "city": "Vouali",
    "city_zh": "Vouali",
    "country": "Republic of the Congo",
    "country_zh": "剛果共和國",
    "country_iso_code": "CG",
    "timezone": "Africa/Brazzaville",
    "latitude": -3.14667,
    "longitude": 14.10667
  },
  {
    "city": "Vondza",
    "city_zh": "Vondza",
    "country": "Republic of the Congo",
    "country_zh": "剛果共和國",
    "country_iso_code": "CG",
    "timezone": "Africa/Brazzaville",
    "latitude": -2.56667,
    "longitude": 12.27583
  },
  {
    "city": "Voka",
    "city_zh": "Voka",
    "country": "Republic of the Congo",
    "country_zh": "剛果共和國",
    "country_iso_code": "CG",
    "timezone": "Africa/Brazzaville",
    "latitude": -4.67111,
    "longitude": 14.67361
  },
  {
    "city": "Vivario",
    "city_zh": "Vivario",
    "country": "Republic of the Congo",
    "country_zh": "剛果共和國",
    "country_iso_code": "CG",
    "timezone": "Africa/Brazzaville",
    "latitude": 1.76639,
    "longitude": 14.41833
  },
  {
    "city": "Vista",
    "city_zh": "Vista",
    "country": "Republic of the Congo",
    "country_zh": "剛果共和國",
    "country_iso_code": "CG",
    "timezone": "Africa/Brazzaville",
    "latitude": -4.61667,
    "longitude": 11.83333
  },
  {
    "city": "Vinnza",
    "city_zh": "Vinnza",
    "country": "Republic of the Congo",
    "country_zh": "剛果共和國",
    "country_iso_code": "CG",
    "timezone": "Africa/Brazzaville",
    "latitude": -4.34056,
    "longitude": 14.76528
  },
  {
    "city": "Vinnza",
    "city_zh": "Vinnza",
    "country": "Republic of the Congo",
    "country_zh": "剛果共和國",
    "country_iso_code": "CG",
    "timezone": "Africa/Brazzaville",
    "latitude": -4.11972,
    "longitude": 14.45639
  },
  {
    "city": "Vinza",
    "city_zh": "Vinza",
    "country": "Republic of the Congo",
    "country_zh": "剛果共和國",
    "country_iso_code": "CG",
    "timezone": "Africa/Brazzaville",
    "latitude": -3.41806,
    "longitude": 14.55
  },
  {
    "city": "Vindoulou",
    "city_zh": "Vindoulou",
    "country": "Republic of the Congo",
    "country_zh": "剛果共和國",
    "country_iso_code": "CG",
    "timezone": "Africa/Brazzaville",
    "latitude": -4.70222,
    "longitude": 11.93333
  },
  {
    "city": "Vilikagni",
    "city_zh": "Vilikagni",
    "country": "Republic of the Congo",
    "country_zh": "剛果共和國",
    "country_iso_code": "CG",
    "timezone": "Africa/Brazzaville",
    "latitude": -4.67667,
    "longitude": 11.8275
  },
  {
    "city": "Vila",
    "city_zh": "Vila",
    "country": "Republic of the Congo",
    "country_zh": "剛果共和國",
    "country_iso_code": "CG",
    "timezone": "Africa/Brazzaville",
    "latitude": -2.3125,
    "longitude": 14.605
  },
  {
    "city": "Vouanza",
    "city_zh": "Vouanza",
    "country": "Republic of the Congo",
    "country_zh": "剛果共和國",
    "country_iso_code": "CG",
    "timezone": "Africa/Brazzaville",
    "latitude": -4.53167,
    "longitude": 14.76333
  },
  {
    "city": "Vanga",
    "city_zh": "Vanga",
    "country": "Republic of the Congo",
    "country_zh": "剛果共和國",
    "country_iso_code": "CG",
    "timezone": "Africa/Brazzaville",
    "latitude": -3.36667,
    "longitude": 12.46667
  },
  {
    "city": "Vandji",
    "city_zh": "Vandji",
    "country": "Republic of the Congo",
    "country_zh": "剛果共和國",
    "country_iso_code": "CG",
    "timezone": "Africa/Brazzaville",
    "latitude": -4.06417,
    "longitude": 11.32667
  },
  {
    "city": "Vaga",
    "city_zh": "Vaga",
    "country": "Republic of the Congo",
    "country_zh": "剛果共和國",
    "country_iso_code": "CG",
    "timezone": "Africa/Brazzaville",
    "latitude": -1.62556,
    "longitude": 14.64194
  },
  {
    "city": "Vaga",
    "city_zh": "Vaga",
    "country": "Republic of the Congo",
    "country_zh": "剛果共和國",
    "country_iso_code": "CG",
    "timezone": "Africa/Brazzaville",
    "latitude": -1.17972,
    "longitude": 14.58889
  },
  {
    "city": "Vaka",
    "city_zh": "Vaka",
    "country": "Republic of the Congo",
    "country_zh": "剛果共和國",
    "country_iso_code": "CG",
    "timezone": "Africa/Brazzaville",
    "latitude": -1.19417,
    "longitude": 14.96722
  },
  {
    "city": "Tzodzo",
    "city_zh": "Tzodzo",
    "country": "Republic of the Congo",
    "country_zh": "剛果共和國",
    "country_iso_code": "CG",
    "timezone": "Africa/Brazzaville",
    "latitude": -1.39056,
    "longitude": 16.14083
  },
  {
    "city": "Tzambisisi",
    "city_zh": "Tzambisisi",
    "country": "Republic of the Congo",
    "country_zh": "剛果共和國",
    "country_iso_code": "CG",
    "timezone": "Africa/Brazzaville",
    "latitude": -4.14472,
    "longitude": 13.03167
  },
  {
    "city": "Tsouo",
    "city_zh": "Tsouo",
    "country": "Republic of the Congo",
    "country_zh": "剛果共和國",
    "country_iso_code": "CG",
    "timezone": "Africa/Brazzaville",
    "latitude": -1.58444,
    "longitude": 15.88583
  },
  {
    "city": "Tsoundi",
    "city_zh": "Tsoundi",
    "country": "Republic of the Congo",
    "country_zh": "剛果共和國",
    "country_iso_code": "CG",
    "timezone": "Africa/Brazzaville",
    "latitude": -4.72417,
    "longitude": 13.27444
  },
  {
    "city": "Tsoumbou",
    "city_zh": "Tsoumbou",
    "country": "Republic of the Congo",
    "country_zh": "剛果共和國",
    "country_iso_code": "CG",
    "timezone": "Africa/Brazzaville",
    "latitude": -4.51417,
    "longitude": 12.56111
  },
  {
    "city": "Tsoumbou",
    "city_zh": "Tsoumbou",
    "country": "Republic of the Congo",
    "country_zh": "剛果共和國",
    "country_iso_code": "CG",
    "timezone": "Africa/Brazzaville",
    "latitude": -3.99167,
    "longitude": 14.01667
  },
  {
    "city": "Tsouma",
    "city_zh": "Tsouma",
    "country": "Republic of the Congo",
    "country_zh": "剛果共和國",
    "country_iso_code": "CG",
    "timezone": "Africa/Brazzaville",
    "latitude": -3.70833,
    "longitude": 14.57722
  },
  {
    "city": "Tsouengi",
    "city_zh": "Tsouengi",
    "country": "Republic of the Congo",
    "country_zh": "剛果共和國",
    "country_iso_code": "CG",
    "timezone": "Africa/Brazzaville",
    "latitude": -2.48111,
    "longitude": 12.05833
  },
  {
    "city": "Ntswankan",
    "city_zh": "Ntswankan",
    "country": "Republic of the Congo",
    "country_zh": "剛果共和國",
    "country_iso_code": "CG",
    "timezone": "Africa/Brazzaville",
    "latitude": -1.85361,
    "longitude": 16.05889
  },
  {
    "city": "Tsotsokoumou",
    "city_zh": "Tsotsokoumou",
    "country": "Republic of the Congo",
    "country_zh": "剛果共和國",
    "country_iso_code": "CG",
    "timezone": "Africa/Brazzaville",
    "latitude": -3.2,
    "longitude": 12.68333
  },
  {
    "city": "Tsongapa",
    "city_zh": "Tsongapa",
    "country": "Republic of the Congo",
    "country_zh": "剛果共和國",
    "country_iso_code": "CG",
    "timezone": "Africa/Brazzaville",
    "latitude": 0.16056,
    "longitude": 15.85306
  },
  {
    "city": "Tsongo",
    "city_zh": "Tsongo",
    "country": "Republic of the Congo",
    "country_zh": "剛果共和國",
    "country_iso_code": "CG",
    "timezone": "Africa/Brazzaville",
    "latitude": -0.88833,
    "longitude": 15.16917
  },
  {
    "city": "Songo",
    "city_zh": "Songo",
    "country": "Republic of the Congo",
    "country_zh": "剛果共和國",
    "country_iso_code": "CG",
    "timezone": "Africa/Brazzaville",
    "latitude": -0.45361,
    "longitude": 15.82389
  },
  {
    "city": "Tsongo-Otama",
    "city_zh": "Tsongo-Otama",
    "country": "Republic of the Congo",
    "country_zh": "剛果共和國",
    "country_iso_code": "CG",
    "timezone": "Africa/Brazzaville",
    "latitude": 0.08472,
    "longitude": 15.50056
  },
  {
    "city": "Tsomono",
    "city_zh": "Tsomono",
    "country": "Republic of the Congo",
    "country_zh": "剛果共和國",
    "country_iso_code": "CG",
    "timezone": "Africa/Brazzaville",
    "latitude": -3.62,
    "longitude": 13.83778
  },
  {
    "city": "Tsokia",
    "city_zh": "Tsokia",
    "country": "Republic of the Congo",
    "country_zh": "剛果共和國",
    "country_iso_code": "CG",
    "timezone": "Africa/Brazzaville",
    "latitude": -1.205,
    "longitude": 15.94306
  },
  {
    "city": "Tsiounanamoutsandou",
    "city_zh": "Tsiounanamoutsandou",
    "country": "Republic of the Congo",
    "country_zh": "剛果共和國",
    "country_iso_code": "CG",
    "timezone": "Africa/Brazzaville",
    "latitude": -3.68333,
    "longitude": 12.53333
  },
  {
    "city": "Tsinguidi",
    "city_zh": "Tsinguidi",
    "country": "Republic of the Congo",
    "country_zh": "剛果共和國",
    "country_iso_code": "CG",
    "timezone": "Africa/Brazzaville",
    "latitude": -2.42278,
    "longitude": 12.7275
  },
  {
    "city": "Tsiélelé",
    "city_zh": "Tsiélelé",
    "country": "Republic of the Congo",
    "country_zh": "剛果共和國",
    "country_iso_code": "CG",
    "timezone": "Africa/Brazzaville",
    "latitude": -3.15722,
    "longitude": 12.93028
  },
  {
    "city": "Tsiéké",
    "city_zh": "Tsiéké",
    "country": "Republic of the Congo",
    "country_zh": "剛果共和國",
    "country_iso_code": "CG",
    "timezone": "Africa/Brazzaville",
    "latitude": -3.15889,
    "longitude": 13.41889
  },
  {
    "city": "Tsimboukou",
    "city_zh": "Tsimboukou",
    "country": "Republic of the Congo",
    "country_zh": "剛果共和國",
    "country_iso_code": "CG",
    "timezone": "Africa/Brazzaville",
    "latitude": -4.18,
    "longitude": 12.88333
  },
  {
    "city": "Tsibakala",
    "city_zh": "Tsibakala",
    "country": "Republic of the Congo",
    "country_zh": "剛果共和國",
    "country_iso_code": "CG",
    "timezone": "Africa/Brazzaville",
    "latitude": -2.97389,
    "longitude": 12.86389
  },
  {
    "city": "Tsiangi I",
    "city_zh": "Tsiangi I",
    "country": "Republic of the Congo",
    "country_zh": "剛果共和國",
    "country_iso_code": "CG",
    "timezone": "Africa/Brazzaville",
    "latitude": -3.71167,
    "longitude": 13.86167
  },
  {
    "city": "Tsiako",
    "city_zh": "Tsiako",
    "country": "Republic of the Congo",
    "country_zh": "剛果共和國",
    "country_iso_code": "CG",
    "timezone": "Africa/Brazzaville",
    "latitude": 0.11889,
    "longitude": 15.56694
  },
  {
    "city": "Tsétséké",
    "city_zh": "Tsétséké",
    "country": "Republic of the Congo",
    "country_zh": "剛果共和國",
    "country_iso_code": "CG",
    "timezone": "Africa/Brazzaville",
    "latitude": -4.34361,
    "longitude": 14.90028
  },
  {
    "city": "Tsinéné",
    "city_zh": "Tsinéné",
    "country": "Republic of the Congo",
    "country_zh": "剛果共和國",
    "country_iso_code": "CG",
    "timezone": "Africa/Brazzaville",
    "latitude": -3.46778,
    "longitude": 12.29139
  },
  {
    "city": "Tséké-Mpembé",
    "city_zh": "Tséké-Mpembé",
    "country": "Republic of the Congo",
    "country_zh": "剛果共和國",
    "country_iso_code": "CG",
    "timezone": "Africa/Brazzaville",
    "latitude": -4.07528,
    "longitude": 13.51889
  },
  {
    "city": "Tséké-Mpembé",
    "city_zh": "Tséké-Mpembé",
    "country": "Republic of the Congo",
    "country_zh": "剛果共和國",
    "country_iso_code": "CG",
    "timezone": "Africa/Brazzaville",
    "latitude": -4.00611,
    "longitude": 13.63056
  },
  {
    "city": "Tséka",
    "city_zh": "Tséka",
    "country": "Republic of the Congo",
    "country_zh": "剛果共和國",
    "country_iso_code": "CG",
    "timezone": "Africa/Brazzaville",
    "latitude": -1.00639,
    "longitude": 15.14833
  },
  {
    "city": "Tsani",
    "city_zh": "Tsani",
    "country": "Republic of the Congo",
    "country_zh": "剛果共和國",
    "country_iso_code": "CG",
    "timezone": "Africa/Brazzaville",
    "latitude": -1.0675,
    "longitude": 15.51
  },
  {
    "city": "Tsangou",
    "city_zh": "Tsangou",
    "country": "Republic of the Congo",
    "country_zh": "剛果共和國",
    "country_iso_code": "CG",
    "timezone": "Africa/Brazzaville",
    "latitude": -4.01278,
    "longitude": 13.90361
  },
  {
    "city": "Tsangi",
    "city_zh": "Tsangi",
    "country": "Republic of the Congo",
    "country_zh": "剛果共和國",
    "country_iso_code": "CG",
    "timezone": "Africa/Brazzaville",
    "latitude": -4.72972,
    "longitude": 13.40333
  },
  {
    "city": "Tsanga",
    "city_zh": "Tsanga",
    "country": "Republic of the Congo",
    "country_zh": "剛果共和國",
    "country_iso_code": "CG",
    "timezone": "Africa/Brazzaville",
    "latitude": -4.17222,
    "longitude": 12.87417
  },
  {
    "city": "Tsampoko",
    "city_zh": "Tsampoko",
    "country": "Republic of the Congo",
    "country_zh": "剛果共和國",
    "country_iso_code": "CG",
    "timezone": "Africa/Brazzaville",
    "latitude": -1.84889,
    "longitude": 16.26222
  },
  {
    "city": "Tsampoko",
    "city_zh": "Tsampoko",
    "country": "Republic of the Congo",
    "country_zh": "剛果共和國",
    "country_iso_code": "CG",
    "timezone": "Africa/Brazzaville",
    "latitude": -1.80139,
    "longitude": 16.14472
  },
  {
    "city": "Tsama",
    "city_zh": "Tsama",
    "country": "Republic of the Congo",
    "country_zh": "剛果共和國",
    "country_iso_code": "CG",
    "timezone": "Africa/Brazzaville",
    "latitude": -2.60778,
    "longitude": 13.6125
  },
  {
    "city": "Tsama",
    "city_zh": "Tsama",
    "country": "Republic of the Congo",
    "country_zh": "剛果共和國",
    "country_iso_code": "CG",
    "timezone": "Africa/Brazzaville",
    "latitude": -1.07389,
    "longitude": 14.67889
  },
  {
    "city": "Tsabou-Tsabou",
    "city_zh": "Tsabou-Tsabou",
    "country": "Republic of the Congo",
    "country_zh": "剛果共和國",
    "country_iso_code": "CG",
    "timezone": "Africa/Brazzaville",
    "latitude": 0.18278,
    "longitude": 16.04389
  },
  {
    "city": "Tsaba",
    "city_zh": "Tsaba",
    "country": "Republic of the Congo",
    "country_zh": "剛果共和國",
    "country_iso_code": "CG",
    "timezone": "Africa/Brazzaville",
    "latitude": -3.49861,
    "longitude": 14.26861
  },
  {
    "city": "Traversbanc",
    "city_zh": "Traversbanc",
    "country": "Republic of the Congo",
    "country_zh": "剛果共和國",
    "country_iso_code": "CG",
    "timezone": "Africa/Brazzaville",
    "latitude": -4.27944,
    "longitude": 14.34917
  },
  {
    "city": "Touo",
    "city_zh": "Touo",
    "country": "Republic of the Congo",
    "country_zh": "剛果共和國",
    "country_iso_code": "CG",
    "timezone": "Africa/Brazzaville",
    "latitude": -3.84778,
    "longitude": 14.38167
  },
  {
    "city": "Toundou Siana",
    "city_zh": "Toundou Siana",
    "country": "Republic of the Congo",
    "country_zh": "剛果共和國",
    "country_iso_code": "CG",
    "timezone": "Africa/Brazzaville",
    "latitude": -4.33333,
    "longitude": 12.38333
  },
  {
    "city": "Tombi",
    "city_zh": "Tombi",
    "country": "Republic of the Congo",
    "country_zh": "剛果共和國",
    "country_iso_code": "CG",
    "timezone": "Africa/Brazzaville",
    "latitude": 0.86833,
    "longitude": 14.76639
  },
  {
    "city": "Toukoulaka",
    "city_zh": "Toukoulaka",
    "country": "Republic of the Congo",
    "country_zh": "剛果共和國",
    "country_iso_code": "CG",
    "timezone": "Africa/Brazzaville",
    "latitude": 1.68139,
    "longitude": 17.06056
  },
  {
    "city": "Toukakata",
    "city_zh": "Toukakata",
    "country": "Republic of the Congo",
    "country_zh": "剛果共和國",
    "country_iso_code": "CG",
    "timezone": "Africa/Brazzaville",
    "latitude": -4.71667,
    "longitude": 11.85
  },
  {
    "city": "Toukakata",
    "city_zh": "Toukakata",
    "country": "Republic of the Congo",
    "country_zh": "剛果共和國",
    "country_iso_code": "CG",
    "timezone": "Africa/Brazzaville",
    "latitude": -4.70639,
    "longitude": 11.85583
  },
  {
    "city": "Touboula",
    "city_zh": "Touboula",
    "country": "Republic of the Congo",
    "country_zh": "剛果共和國",
    "country_iso_code": "CG",
    "timezone": "Africa/Brazzaville",
    "latitude": -4.36944,
    "longitude": 15.13972
  },
  {
    "city": "Touakama",
    "city_zh": "Touakama",
    "country": "Republic of the Congo",
    "country_zh": "剛果共和國",
    "country_iso_code": "CG",
    "timezone": "Africa/Brazzaville",
    "latitude": 1.96083,
    "longitude": 14.19583
  },
  {
    "city": "Touala",
    "city_zh": "Touala",
    "country": "Republic of the Congo",
    "country_zh": "剛果共和國",
    "country_iso_code": "CG",
    "timezone": "Africa/Brazzaville",
    "latitude": -4.19028,
    "longitude": 14.15944
  },
  {
    "city": "Totodombi",
    "city_zh": "Totodombi",
    "country": "Republic of the Congo",
    "country_zh": "剛果共和國",
    "country_iso_code": "CG",
    "timezone": "Africa/Brazzaville",
    "latitude": -4.56833,
    "longitude": 14.42361
  },
  {
    "city": "Tonkama",
    "city_zh": "Tonkama",
    "country": "Republic of the Congo",
    "country_zh": "剛果共和國",
    "country_iso_code": "CG",
    "timezone": "Africa/Brazzaville",
    "latitude": -4.37472,
    "longitude": 15.00583
  },
  {
    "city": "Tondo",
    "city_zh": "Tondo",
    "country": "Republic of the Congo",
    "country_zh": "剛果共和國",
    "country_iso_code": "CG",
    "timezone": "Africa/Brazzaville",
    "latitude": -3.96667,
    "longitude": 12.33333
  },
  {
    "city": "Tombo Kolo",
    "city_zh": "Tombo Kolo",
    "country": "Republic of the Congo",
    "country_zh": "剛果共和國",
    "country_iso_code": "CG",
    "timezone": "Africa/Brazzaville",
    "latitude": -4.84444,
    "longitude": 14.43194
  },
  {
    "city": "Tombo Kolo",
    "city_zh": "Tombo Kolo",
    "country": "Republic of the Congo",
    "country_zh": "剛果共和國",
    "country_iso_code": "CG",
    "timezone": "Africa/Brazzaville",
    "latitude": -4.62639,
    "longitude": 14.55833
  },
  {
    "city": "Ntombo-Manyanga",
    "city_zh": "Ntombo-Manyanga",
    "country": "Republic of the Congo",
    "country_zh": "剛果共和國",
    "country_iso_code": "CG",
    "timezone": "Africa/Brazzaville",
    "latitude": -4.86389,
    "longitude": 14.43306
  },
  {
    "city": "Tombi",
    "city_zh": "Tombi",
    "country": "Republic of the Congo",
    "country_zh": "剛果共和國",
    "country_iso_code": "CG",
    "timezone": "Africa/Brazzaville",
    "latitude": -4.76806,
    "longitude": 14.57944
  },
  {
    "city": "Tomba",
    "city_zh": "Tomba",
    "country": "Republic of the Congo",
    "country_zh": "剛果共和國",
    "country_iso_code": "CG",
    "timezone": "Africa/Brazzaville",
    "latitude": -4.41667,
    "longitude": 12.4
  },
  {
    "city": "Tokou-Hola",
    "city_zh": "Tokou-Hola",
    "country": "Republic of the Congo",
    "country_zh": "剛果共和國",
    "country_iso_code": "CG",
    "timezone": "Africa/Brazzaville",
    "latitude": -4.7,
    "longitude": 12.31667
  },
  {
    "city": "Titi",
    "city_zh": "Titi",
    "country": "Republic of the Congo",
    "country_zh": "剛果共和國",
    "country_iso_code": "CG",
    "timezone": "Africa/Brazzaville",
    "latitude": -3.22444,
    "longitude": 12.65861
  },
  {
    "city": "Titi",
    "city_zh": "Titi",
    "country": "Republic of the Congo",
    "country_zh": "剛果共和國",
    "country_iso_code": "CG",
    "timezone": "Africa/Brazzaville",
    "latitude": -2.44417,
    "longitude": 12.31667
  },
  {
    "city": "Tipoy",
    "city_zh": "Tipoy",
    "country": "Republic of the Congo",
    "country_zh": "剛果共和國",
    "country_iso_code": "CG",
    "timezone": "Africa/Brazzaville",
    "latitude": 1.76528,
    "longitude": 14.39028
  },
  {
    "city": "Tionzo",
    "city_zh": "Tionzo",
    "country": "Republic of the Congo",
    "country_zh": "剛果共和國",
    "country_iso_code": "CG",
    "timezone": "Africa/Brazzaville",
    "latitude": -4.00583,
    "longitude": 11.735
  },
  {
    "city": "Tinkoussou",
    "city_zh": "Tinkoussou",
    "country": "Republic of the Congo",
    "country_zh": "剛果共和國",
    "country_iso_code": "CG",
    "timezone": "Africa/Brazzaville",
    "latitude": -4.0425,
    "longitude": 11.38361
  },
  {
    "city": "Timana",
    "city_zh": "Timana",
    "country": "Republic of the Congo",
    "country_zh": "剛果共和國",
    "country_iso_code": "CG",
    "timezone": "Africa/Brazzaville",
    "latitude": -4.6975,
    "longitude": 11.84028
  },
  {
    "city": "Tililou",
    "city_zh": "Tililou",
    "country": "Republic of the Congo",
    "country_zh": "剛果共和國",
    "country_iso_code": "CG",
    "timezone": "Africa/Brazzaville",
    "latitude": -4.79056,
    "longitude": 11.98306
  },
  {
    "city": "Tililou",
    "city_zh": "Tililou",
    "country": "Republic of the Congo",
    "country_zh": "剛果共和國",
    "country_iso_code": "CG",
    "timezone": "Africa/Brazzaville",
    "latitude": -4.78333,
    "longitude": 11.97028
  },
  {
    "city": "Tilala",
    "city_zh": "Tilala",
    "country": "Republic of the Congo",
    "country_zh": "剛果共和國",
    "country_iso_code": "CG",
    "timezone": "Africa/Brazzaville",
    "latitude": -4.86667,
    "longitude": 11.95
  },
  {
    "city": "Tienzolo",
    "city_zh": "Tienzolo",
    "country": "Republic of the Congo",
    "country_zh": "剛果共和國",
    "country_iso_code": "CG",
    "timezone": "Africa/Brazzaville",
    "latitude": -4.27722,
    "longitude": 11.56778
  },
  {
    "city": "Tiéli",
    "city_zh": "Tiéli",
    "country": "Republic of the Congo",
    "country_zh": "剛果共和國",
    "country_iso_code": "CG",
    "timezone": "Africa/Brazzaville",
    "latitude": -4.21667,
    "longitude": 11.45
  },
  {
    "city": "Tiamba",
    "city_zh": "Tiamba",
    "country": "Republic of the Congo",
    "country_zh": "剛果共和國",
    "country_iso_code": "CG",
    "timezone": "Africa/Brazzaville",
    "latitude": -4.97139,
    "longitude": 12.02972
  },
  {
    "city": "Tenta",
    "city_zh": "Tenta",
    "country": "Republic of the Congo",
    "country_zh": "剛果共和國",
    "country_iso_code": "CG",
    "timezone": "Africa/Brazzaville",
    "latitude": -4.81861,
    "longitude": 14.78972
  },
  {
    "city": "Tension",
    "city_zh": "Tension",
    "country": "Republic of the Congo",
    "country_zh": "剛果共和國",
    "country_iso_code": "CG",
    "timezone": "Africa/Brazzaville",
    "latitude": -3.66667,
    "longitude": 14.59972
  },
  {
    "city": "Tembele",
    "city_zh": "Tembele",
    "country": "Republic of the Congo",
    "country_zh": "剛果共和國",
    "country_iso_code": "CG",
    "timezone": "Africa/Brazzaville",
    "latitude": -4.15361,
    "longitude": 13.94944
  },
  {
    "city": "Tembé",
    "city_zh": "Tembé",
    "country": "Republic of the Congo",
    "country_zh": "剛果共和國",
    "country_iso_code": "CG",
    "timezone": "Africa/Brazzaville",
    "latitude": -4.15028,
    "longitude": 12.63722
  },
  {
    "city": "Tembe",
    "city_zh": "Tembe",
    "country": "Republic of the Congo",
    "country_zh": "剛果共和國",
    "country_iso_code": "CG",
    "timezone": "Africa/Brazzaville",
    "latitude": 1.985,
    "longitude": 15.08
  },
  {
    "city": "Télémono",
    "city_zh": "Télémono",
    "country": "Republic of the Congo",
    "country_zh": "剛果共和國",
    "country_iso_code": "CG",
    "timezone": "Africa/Brazzaville",
    "latitude": -4.17528,
    "longitude": 14.35444
  },
  {
    "city": "Tebele",
    "city_zh": "Tebele",
    "country": "Republic of the Congo",
    "country_zh": "剛果共和國",
    "country_iso_code": "CG",
    "timezone": "Africa/Brazzaville",
    "latitude": -4.08528,
    "longitude": 13.93222
  },
  {
    "city": "Tchizondi",
    "city_zh": "Tchizondi",
    "country": "Republic of the Congo",
    "country_zh": "剛果共和國",
    "country_iso_code": "CG",
    "timezone": "Africa/Brazzaville",
    "latitude": -4.38167,
    "longitude": 11.695
  },
  {
    "city": "Tchivoula",
    "city_zh": "Tchivoula",
    "country": "Republic of the Congo",
    "country_zh": "剛果共和國",
    "country_iso_code": "CG",
    "timezone": "Africa/Brazzaville",
    "latitude": -4.68333,
    "longitude": 12.15
  },
  {
    "city": "Kivoula",
    "city_zh": "Kivoula",
    "country": "Republic of the Congo",
    "country_zh": "剛果共和國",
    "country_iso_code": "CG",
    "timezone": "Africa/Brazzaville",
    "latitude": -4.65472,
    "longitude": 12.14417
  },
  {
    "city": "Tchitondi",
    "city_zh": "Tchitondi",
    "country": "Republic of the Congo",
    "country_zh": "剛果共和國",
    "country_iso_code": "CG",
    "timezone": "Africa/Brazzaville",
    "latitude": -4.53944,
    "longitude": 12.14722
  },
  {
    "city": "Tchitchounga",
    "city_zh": "Tchitchounga",
    "country": "Republic of the Congo",
    "country_zh": "剛果共和國",
    "country_iso_code": "CG",
    "timezone": "Africa/Brazzaville",
    "latitude": -2.98444,
    "longitude": 14.63222
  },
  {
    "city": "Tchisakata",
    "city_zh": "Tchisakata",
    "country": "Republic of the Congo",
    "country_zh": "剛果共和國",
    "country_iso_code": "CG",
    "timezone": "Africa/Brazzaville",
    "latitude": -4.74472,
    "longitude": 12.03083
  },
  {
    "city": "Tchisséka",
    "city_zh": "Tchisséka",
    "country": "Republic of the Congo",
    "country_zh": "剛果共和國",
    "country_iso_code": "CG",
    "timezone": "Africa/Brazzaville",
    "latitude": -4.195,
    "longitude": 11.81389
  },
  {
    "city": "Tchissanga",
    "city_zh": "Tchissanga",
    "country": "Republic of the Congo",
    "country_zh": "剛果共和國",
    "country_iso_code": "CG",
    "timezone": "Africa/Brazzaville",
    "latitude": -4.53972,
    "longitude": 11.80139
  },
  {
    "city": "Tchissanga",
    "city_zh": "Tchissanga",
    "country": "Republic of the Congo",
    "country_zh": "剛果共和國",
    "country_iso_code": "CG",
    "timezone": "Africa/Brazzaville",
    "latitude": -4.51667,
    "longitude": 11.8
  },
  {
    "city": "Tchissamanou",
    "city_zh": "Tchissamanou",
    "country": "Republic of the Congo",
    "country_zh": "剛果共和國",
    "country_iso_code": "CG",
    "timezone": "Africa/Brazzaville",
    "latitude": -4.19556,
    "longitude": 11.4275
  },
  {
    "city": "Tchisafou",
    "city_zh": "Tchisafou",
    "country": "Republic of the Congo",
    "country_zh": "剛果共和國",
    "country_iso_code": "CG",
    "timezone": "Africa/Brazzaville",
    "latitude": -4.1275,
    "longitude": 12.05556
  },
  {
    "city": "Taba",
    "city_zh": "Taba",
    "country": "Republic of the Congo",
    "country_zh": "剛果共和國",
    "country_iso_code": "CG",
    "timezone": "Africa/Brazzaville",
    "latitude": -4.35639,
    "longitude": 14.96917
  },
  {
    "city": "Tchinionzi",
    "city_zh": "Tchinionzi",
    "country": "Republic of the Congo",
    "country_zh": "剛果共和國",
    "country_iso_code": "CG",
    "timezone": "Africa/Brazzaville",
    "latitude": -4.12639,
    "longitude": 11.69556
  },
  {
    "city": "Tchinimi",
    "city_zh": "Tchinimi",
    "country": "Republic of the Congo",
    "country_zh": "剛果共和國",
    "country_iso_code": "CG",
    "timezone": "Africa/Brazzaville",
    "latitude": -4.06667,
    "longitude": 11.35
  },
  {
    "city": "Tchiniambiloémé",
    "city_zh": "Tchiniambiloémé",
    "country": "Republic of the Congo",
    "country_zh": "剛果共和國",
    "country_iso_code": "CG",
    "timezone": "Africa/Brazzaville",
    "latitude": -4.79167,
    "longitude": 11.94
  },
  {
    "city": "Tchinianmbiloémé",
    "city_zh": "Tchinianmbiloémé",
    "country": "Republic of the Congo",
    "country_zh": "剛果共和國",
    "country_iso_code": "CG",
    "timezone": "Africa/Brazzaville",
    "latitude": -4.76667,
    "longitude": 11.96667
  },
  {
    "city": "Tchiniambi-Loemé",
    "city_zh": "Tchiniambi-Loemé",
    "country": "Republic of the Congo",
    "country_zh": "剛果共和國",
    "country_iso_code": "CG",
    "timezone": "Africa/Brazzaville",
    "latitude": -4.81667,
    "longitude": 12.0
  },
  {
    "city": "Tchiniambi",
    "city_zh": "Tchiniambi",
    "country": "Republic of the Congo",
    "country_zh": "剛果共和國",
    "country_iso_code": "CG",
    "timezone": "Africa/Brazzaville",
    "latitude": -4.78333,
    "longitude": 11.9
  },
  {
    "city": "Tchingoli",
    "city_zh": "Tchingoli",
    "country": "Republic of the Congo",
    "country_zh": "剛果共和國",
    "country_iso_code": "CG",
    "timezone": "Africa/Brazzaville",
    "latitude": -4.49083,
    "longitude": 11.96472
  },
  {
    "city": "Tchimpassi",
    "city_zh": "Tchimpassi",
    "country": "Republic of the Congo",
    "country_zh": "剛果共和國",
    "country_iso_code": "CG",
    "timezone": "Africa/Brazzaville",
    "latitude": -4.53278,
    "longitude": 11.97361
  },
  {
    "city": "Tchimossi",
    "city_zh": "Tchimossi",
    "country": "Republic of the Congo",
    "country_zh": "剛果共和國",
    "country_iso_code": "CG",
    "timezone": "Africa/Brazzaville",
    "latitude": -3.71667,
    "longitude": 12.53333
  },
  {
    "city": "Tchimbanmbouka",
    "city_zh": "Tchimbanmbouka",
    "country": "Republic of the Congo",
    "country_zh": "剛果共和國",
    "country_iso_code": "CG",
    "timezone": "Africa/Brazzaville",
    "latitude": -4.83333,
    "longitude": 11.91667
  },
  {
    "city": "Tchimbanbouka",
    "city_zh": "Tchimbanbouka",
    "country": "Republic of the Congo",
    "country_zh": "剛果共和國",
    "country_iso_code": "CG",
    "timezone": "Africa/Brazzaville",
    "latitude": -4.82694,
    "longitude": 11.90306
  },
  {
    "city": "Tchimbanmba",
    "city_zh": "Tchimbanmba",
    "country": "Republic of the Congo",
    "country_zh": "剛果共和國",
    "country_iso_code": "CG",
    "timezone": "Africa/Brazzaville",
    "latitude": -4.82306,
    "longitude": 11.87611
  },
  {
    "city": "Tchimagni",
    "city_zh": "Tchimagni",
    "country": "Republic of the Congo",
    "country_zh": "剛果共和國",
    "country_iso_code": "CG",
    "timezone": "Africa/Brazzaville",
    "latitude": -4.80611,
    "longitude": 11.89556
  },
  {
    "city": "Tchilounga",
    "city_zh": "Tchilounga",
    "country": "Republic of the Congo",
    "country_zh": "剛果共和國",
    "country_iso_code": "CG",
    "timezone": "Africa/Brazzaville",
    "latitude": -3.36667,
    "longitude": 12.46667
  },
  {
    "city": "Tchilou",
    "city_zh": "Tchilou",
    "country": "Republic of the Congo",
    "country_zh": "剛果共和國",
    "country_iso_code": "CG",
    "timezone": "Africa/Brazzaville",
    "latitude": -4.78333,
    "longitude": 11.86667
  },
  {
    "city": "Tchilounga",
    "city_zh": "Tchilounga",
    "country": "Republic of the Congo",
    "country_zh": "剛果共和國",
    "country_iso_code": "CG",
    "timezone": "Africa/Brazzaville",
    "latitude": -4.18472,
    "longitude": 11.41194
  },
  {
    "city": "Tchilamana",
    "city_zh": "Tchilamana",
    "country": "Republic of the Congo",
    "country_zh": "剛果共和國",
    "country_iso_code": "CG",
    "timezone": "Africa/Brazzaville",
    "latitude": -3.39472,
    "longitude": 14.59667
  },
  {
    "city": "Tchilala",
    "city_zh": "Tchilala",
    "country": "Republic of the Congo",
    "country_zh": "剛果共和國",
    "country_iso_code": "CG",
    "timezone": "Africa/Brazzaville",
    "latitude": -3.23333,
    "longitude": 12.18333
  },
  {
    "city": "Tchikoundou",
    "city_zh": "Tchikoundou",
    "country": "Republic of the Congo",
    "country_zh": "剛果共和國",
    "country_iso_code": "CG",
    "timezone": "Africa/Brazzaville",
    "latitude": -4.34472,
    "longitude": 11.60917
  },
  {
    "city": "Tchikoudouma",
    "city_zh": "Tchikoudouma",
    "country": "Republic of the Congo",
    "country_zh": "剛果共和國",
    "country_iso_code": "CG",
    "timezone": "Africa/Brazzaville",
    "latitude": -3.36667,
    "longitude": 12.46667
  },
  {
    "city": "Tchikissaloko",
    "city_zh": "Tchikissaloko",
    "country": "Republic of the Congo",
    "country_zh": "剛果共和國",
    "country_iso_code": "CG",
    "timezone": "Africa/Brazzaville",
    "latitude": -3.7,
    "longitude": 12.53333
  },
  {
    "city": "Tsikanou",
    "city_zh": "Tsikanou",
    "country": "Republic of the Congo",
    "country_zh": "剛果共和國",
    "country_iso_code": "CG",
    "timezone": "Africa/Brazzaville",
    "latitude": -4.50361,
    "longitude": 12.08167
  },
  {
    "city": "Tchiendjili",
    "city_zh": "Tchiendjili",
    "country": "Republic of the Congo",
    "country_zh": "剛果共和國",
    "country_iso_code": "CG",
    "timezone": "Africa/Brazzaville",
    "latitude": -4.6075,
    "longitude": 12.04083
  },
  {
    "city": "Tchiyèndji",
    "city_zh": "Tchiyèndji",
    "country": "Republic of the Congo",
    "country_zh": "剛果共和國",
    "country_iso_code": "CG",
    "timezone": "Africa/Brazzaville",
    "latitude": -4.63528,
    "longitude": 11.83222
  },
  {
    "city": "Tchiboula",
    "city_zh": "Tchiboula",
    "country": "Republic of the Congo",
    "country_zh": "剛果共和國",
    "country_iso_code": "CG",
    "timezone": "Africa/Brazzaville",
    "latitude": -4.37917,
    "longitude": 11.61167
  },
  {
    "city": "Tchibota",
    "city_zh": "Tchibota",
    "country": "Republic of the Congo",
    "country_zh": "剛果共和國",
    "country_iso_code": "CG",
    "timezone": "Africa/Brazzaville",
    "latitude": -4.78333,
    "longitude": 11.9
  },
  {
    "city": "Tchibota",
    "city_zh": "Tchibota",
    "country": "Republic of the Congo",
    "country_zh": "剛果共和國",
    "country_iso_code": "CG",
    "timezone": "Africa/Brazzaville",
    "latitude": -4.22611,
    "longitude": 11.48306
  },
  {
    "city": "Tchibondji",
    "city_zh": "Tchibondji",
    "country": "Republic of the Congo",
    "country_zh": "剛果共和國",
    "country_iso_code": "CG",
    "timezone": "Africa/Brazzaville",
    "latitude": -3.91861,
    "longitude": 11.23778
  },
  {
    "city": "Tchibangou",
    "city_zh": "Tchibangou",
    "country": "Republic of the Congo",
    "country_zh": "剛果共和國",
    "country_iso_code": "CG",
    "timezone": "Africa/Brazzaville",
    "latitude": -4.33333,
    "longitude": 11.71667
  },
  {
    "city": "Tchibanda",
    "city_zh": "Tchibanda",
    "country": "Republic of the Congo",
    "country_zh": "剛果共和國",
    "country_iso_code": "CG",
    "timezone": "Africa/Brazzaville",
    "latitude": -4.53139,
    "longitude": 12.09417
  },
  {
    "city": "Tchibala",
    "city_zh": "Tchibala",
    "country": "Republic of the Congo",
    "country_zh": "剛果共和國",
    "country_iso_code": "CG",
    "timezone": "Africa/Brazzaville",
    "latitude": -4.69611,
    "longitude": 11.88667
  },
  {
    "city": "Tchibala",
    "city_zh": "Tchibala",
    "country": "Republic of the Congo",
    "country_zh": "剛果共和國",
    "country_iso_code": "CG",
    "timezone": "Africa/Brazzaville",
    "latitude": -4.7,
    "longitude": 11.9
  },
  {
    "city": "Tchérré",
    "city_zh": "Tchérré",
    "country": "Republic of the Congo",
    "country_zh": "剛果共和國",
    "country_iso_code": "CG",
    "timezone": "Africa/Brazzaville",
    "latitude": -0.08833,
    "longitude": 14.76806
  },
  {
    "city": "Tchikapika",
    "city_zh": "Tchikapika",
    "country": "Republic of the Congo",
    "country_zh": "剛果共和國",
    "country_iso_code": "CG",
    "timezone": "Africa/Brazzaville",
    "latitude": -1.26444,
    "longitude": 16.18028
  },
  {
    "city": "Tchaba",
    "city_zh": "Tchaba",
    "country": "Republic of the Congo",
    "country_zh": "剛果共和國",
    "country_iso_code": "CG",
    "timezone": "Africa/Brazzaville",
    "latitude": -4.1,
    "longitude": 15.28333
  },
  {
    "city": "Tatoukila",
    "city_zh": "Tatoukila",
    "country": "Republic of the Congo",
    "country_zh": "剛果共和國",
    "country_iso_code": "CG",
    "timezone": "Africa/Brazzaville",
    "latitude": -3.53861,
    "longitude": 12.35056
  },
  {
    "city": "Tanga",
    "city_zh": "Tanga",
    "country": "Republic of the Congo",
    "country_zh": "剛果共和國",
    "country_iso_code": "CG",
    "timezone": "Africa/Brazzaville",
    "latitude": -4.34583,
    "longitude": 13.64639
  },
  {
    "city": "Tandou-Youmbi",
    "city_zh": "Tandou-Youmbi",
    "country": "Republic of the Congo",
    "country_zh": "剛果共和國",
    "country_iso_code": "CG",
    "timezone": "Africa/Brazzaville",
    "latitude": -4.41639,
    "longitude": 11.69056
  },
  {
    "city": "Tandou Mboulou",
    "city_zh": "Tandou Mboulou",
    "country": "Republic of the Congo",
    "country_zh": "剛果共和國",
    "country_iso_code": "CG",
    "timezone": "Africa/Brazzaville",
    "latitude": -4.63333,
    "longitude": 11.85
  },
  {
    "city": "Tandou Mboulou",
    "city_zh": "Tandou Mboulou",
    "country": "Republic of the Congo",
    "country_zh": "剛果共和國",
    "country_iso_code": "CG",
    "timezone": "Africa/Brazzaville",
    "latitude": -4.73333,
    "longitude": 11.9
  },
  {
    "city": "Tandou Mboukou",
    "city_zh": "Tandou Mboukou",
    "country": "Republic of the Congo",
    "country_zh": "剛果共和國",
    "country_iso_code": "CG",
    "timezone": "Africa/Brazzaville",
    "latitude": -3.71667,
    "longitude": 12.55
  },
  {
    "city": "Tandou Matombé",
    "city_zh": "Tandou Matombé",
    "country": "Republic of the Congo",
    "country_zh": "剛果共和國",
    "country_iso_code": "CG",
    "timezone": "Africa/Brazzaville",
    "latitude": -4.63333,
    "longitude": 11.83333
  },
  {
    "city": "Tandou Bizenzé",
    "city_zh": "Tandou Bizenzé",
    "country": "Republic of the Congo",
    "country_zh": "剛果共和國",
    "country_iso_code": "CG",
    "timezone": "Africa/Brazzaville",
    "latitude": -4.95528,
    "longitude": 12.08167
  },
  {
    "city": "Tendou Bengo",
    "city_zh": "Tendou Bengo",
    "country": "Republic of the Congo",
    "country_zh": "剛果共和國",
    "country_iso_code": "CG",
    "timezone": "Africa/Brazzaville",
    "latitude": -3.835,
    "longitude": 11.7375
  },
  {
    "city": "Tandou",
    "city_zh": "Tandou",
    "country": "Republic of the Congo",
    "country_zh": "剛果共和國",
    "country_iso_code": "CG",
    "timezone": "Africa/Brazzaville",
    "latitude": -4.52472,
    "longitude": 12.12028
  },
  {
    "city": "Tama",
    "city_zh": "Tama",
    "country": "Republic of the Congo",
    "country_zh": "剛果共和國",
    "country_iso_code": "CG",
    "timezone": "Africa/Brazzaville",
    "latitude": -2.5475,
    "longitude": 13.56333
  },
  {
    "city": "Talinga",
    "city_zh": "Talinga",
    "country": "Republic of the Congo",
    "country_zh": "剛果共和國",
    "country_iso_code": "CG",
    "timezone": "Africa/Brazzaville",
    "latitude": -3.26778,
    "longitude": 16.17639
  },
  {
    "city": "Tala-Tala",
    "city_zh": "Tala-Tala",
    "country": "Republic of the Congo",
    "country_zh": "剛果共和國",
    "country_iso_code": "CG",
    "timezone": "Africa/Brazzaville",
    "latitude": 1.9075,
    "longitude": 15.34333
  },
  {
    "city": "Tala-Tala",
    "city_zh": "Tala-Tala",
    "country": "Republic of the Congo",
    "country_zh": "剛果共和國",
    "country_iso_code": "CG",
    "timezone": "Africa/Brazzaville",
    "latitude": 1.92806,
    "longitude": 15.31917
  },
  {
    "city": "Tadimosi",
    "city_zh": "Tadimosi",
    "country": "Republic of the Congo",
    "country_zh": "剛果共和國",
    "country_iso_code": "CG",
    "timezone": "Africa/Brazzaville",
    "latitude": -3.27778,
    "longitude": 12.54083
  },
  {
    "city": "Soungou",
    "city_zh": "Soungou",
    "country": "Republic of the Congo",
    "country_zh": "剛果共和國",
    "country_iso_code": "CG",
    "timezone": "Africa/Brazzaville",
    "latitude": -4.19389,
    "longitude": 12.98889
  },
  {
    "city": "Soundi",
    "city_zh": "Soundi",
    "country": "Republic of the Congo",
    "country_zh": "剛果共和國",
    "country_iso_code": "CG",
    "timezone": "Africa/Brazzaville",
    "latitude": -4.04028,
    "longitude": 13.1
  },
  {
    "city": "Movoumba",
    "city_zh": "Movoumba",
    "country": "Republic of the Congo",
    "country_zh": "剛果共和國",
    "country_iso_code": "CG",
    "timezone": "Africa/Brazzaville",
    "latitude": -4.57167,
    "longitude": 12.235
  },
  {
    "city": "Sounda",
    "city_zh": "Sounda",
    "country": "Republic of the Congo",
    "country_zh": "剛果共和國",
    "country_iso_code": "CG",
    "timezone": "Africa/Brazzaville",
    "latitude": -4.08333,
    "longitude": 12.13333
  },
  {
    "city": "Soulou",
    "city_zh": "Soulou",
    "country": "Republic of the Congo",
    "country_zh": "剛果共和國",
    "country_iso_code": "CG",
    "timezone": "Africa/Brazzaville",
    "latitude": -4.6725,
    "longitude": 11.83306
  },
  {
    "city": "Soulou",
    "city_zh": "Soulou",
    "country": "Republic of the Congo",
    "country_zh": "剛果共和國",
    "country_iso_code": "CG",
    "timezone": "Africa/Brazzaville",
    "latitude": -4.06194,
    "longitude": 13.08556
  },
  {
    "city": "Soulou",
    "city_zh": "Soulou",
    "country": "Republic of the Congo",
    "country_zh": "剛果共和國",
    "country_iso_code": "CG",
    "timezone": "Africa/Brazzaville",
    "latitude": -4.05694,
    "longitude": 13.09611
  },
  {
    "city": "Soulou",
    "city_zh": "Soulou",
    "country": "Republic of the Congo",
    "country_zh": "剛果共和國",
    "country_iso_code": "CG",
    "timezone": "Africa/Brazzaville",
    "latitude": -4.02889,
    "longitude": 13.10028
  },
  {
    "city": "Soukoumonié",
    "city_zh": "Soukoumonié",
    "country": "Republic of the Congo",
    "country_zh": "剛果共和國",
    "country_iso_code": "CG",
    "timezone": "Africa/Brazzaville",
    "latitude": -4.56472,
    "longitude": 12.43083
  },
  {
    "city": "Soukou-Madingou",
    "city_zh": "Soukou-Madingou",
    "country": "Republic of the Congo",
    "country_zh": "剛果共和國",
    "country_iso_code": "CG",
    "timezone": "Africa/Brazzaville",
    "latitude": -4.13917,
    "longitude": 13.55528
  },
  {
    "city": "Soukou-Bouadi",
    "city_zh": "Soukou-Bouadi",
    "country": "Republic of the Congo",
    "country_zh": "剛果共和國",
    "country_iso_code": "CG",
    "timezone": "Africa/Brazzaville",
    "latitude": -4.50417,
    "longitude": 13.38583
  },
  {
    "city": "Souki",
    "city_zh": "Souki",
    "country": "Republic of the Congo",
    "country_zh": "剛果共和國",
    "country_iso_code": "CG",
    "timezone": "Africa/Brazzaville",
    "latitude": -4.8875,
    "longitude": 14.65639
  },
  {
    "city": "Soukomoyo",
    "city_zh": "Soukomoyo",
    "country": "Republic of the Congo",
    "country_zh": "剛果共和國",
    "country_iso_code": "CG",
    "timezone": "Africa/Brazzaville",
    "latitude": -4.56278,
    "longitude": 12.43917
  },
  {
    "city": "Soasoa",
    "city_zh": "Soasoa",
    "country": "Republic of the Congo",
    "country_zh": "剛果共和國",
    "country_iso_code": "CG",
    "timezone": "Africa/Brazzaville",
    "latitude": 1.57556,
    "longitude": 16.10056
  },
  {
    "city": "Souanké Maniane",
    "city_zh": "Souanké Maniane",
    "country": "Republic of the Congo",
    "country_zh": "剛果共和國",
    "country_iso_code": "CG",
    "timezone": "Africa/Brazzaville",
    "latitude": 2.16667,
    "longitude": 14.05
  },
  {
    "city": "Souanké",
    "city_zh": "Souanké",
    "country": "Republic of the Congo",
    "country_zh": "剛果共和國",
    "country_iso_code": "CG",
    "timezone": "Africa/Brazzaville",
    "latitude": 2.05966,
    "longitude": 14.13219
  },
  {
    "city": "Souangui",
    "city_zh": "Souangui",
    "country": "Republic of the Congo",
    "country_zh": "剛果共和國",
    "country_iso_code": "CG",
    "timezone": "Africa/Brazzaville",
    "latitude": -3.96194,
    "longitude": 11.65889
  },
  {
    "city": "Souangi",
    "city_zh": "Souangi",
    "country": "Republic of the Congo",
    "country_zh": "剛果共和國",
    "country_iso_code": "CG",
    "timezone": "Africa/Brazzaville",
    "latitude": -2.7875,
    "longitude": 12.23972
  },
  {
    "city": "Sango Bayoua",
    "city_zh": "Sango Bayoua",
    "country": "Republic of the Congo",
    "country_zh": "剛果共和國",
    "country_iso_code": "CG",
    "timezone": "Africa/Brazzaville",
    "latitude": -4.52556,
    "longitude": 12.15917
  },
  {
    "city": "Songho",
    "city_zh": "Songho",
    "country": "Republic of the Congo",
    "country_zh": "剛果共和國",
    "country_iso_code": "CG",
    "timezone": "Africa/Brazzaville",
    "latitude": -2.43222,
    "longitude": 11.88611
  },
  {
    "city": "Songa",
    "city_zh": "Songa",
    "country": "Republic of the Congo",
    "country_zh": "剛果共和國",
    "country_iso_code": "CG",
    "timezone": "Africa/Brazzaville",
    "latitude": -4.73111,
    "longitude": 14.67361
  },
  {
    "city": "Mvéso",
    "city_zh": "Mvéso",
    "country": "Republic of the Congo",
    "country_zh": "剛果共和國",
    "country_iso_code": "CG",
    "timezone": "Africa/Brazzaville",
    "latitude": -4.62472,
    "longitude": 12.22583
  },
  {
    "city": "Sinkaba",
    "city_zh": "Sinkaba",
    "country": "Republic of the Congo",
    "country_zh": "剛果共和國",
    "country_iso_code": "CG",
    "timezone": "Africa/Brazzaville",
    "latitude": -4.28333,
    "longitude": 12.45
  },
  {
    "city": "Sinngabanana",
    "city_zh": "Sinngabanana",
    "country": "Republic of the Congo",
    "country_zh": "剛果共和國",
    "country_iso_code": "CG",
    "timezone": "Africa/Brazzaville",
    "latitude": -4.74556,
    "longitude": 14.63333
  },
  {
    "city": "Singa",
    "city_zh": "Singa",
    "country": "Republic of the Congo",
    "country_zh": "剛果共和國",
    "country_iso_code": "CG",
    "timezone": "Africa/Brazzaville",
    "latitude": 2.03333,
    "longitude": 15.21667
  },
  {
    "city": "Sine Bamba",
    "city_zh": "Sine Bamba",
    "country": "Republic of the Congo",
    "country_zh": "剛果共和國",
    "country_iso_code": "CG",
    "timezone": "Africa/Brazzaville",
    "latitude": -4.07528,
    "longitude": 11.70667
  },
  {
    "city": "Sine Bamba",
    "city_zh": "Sine Bamba",
    "country": "Republic of the Congo",
    "country_zh": "剛果共和國",
    "country_iso_code": "CG",
    "timezone": "Africa/Brazzaville",
    "latitude": -3.92278,
    "longitude": 11.24139
  },
  {
    "city": "Sindéla",
    "city_zh": "Sindéla",
    "country": "Republic of the Congo",
    "country_zh": "剛果共和國",
    "country_iso_code": "CG",
    "timezone": "Africa/Brazzaville",
    "latitude": -2.0925,
    "longitude": 12.7575
  },
  {
    "city": "Sinansinga",
    "city_zh": "Sinansinga",
    "country": "Republic of the Congo",
    "country_zh": "剛果共和國",
    "country_iso_code": "CG",
    "timezone": "Africa/Brazzaville",
    "latitude": -4.35,
    "longitude": 12.35
  },
  {
    "city": "Simba",
    "city_zh": "Simba",
    "country": "Republic of the Congo",
    "country_zh": "剛果共和國",
    "country_iso_code": "CG",
    "timezone": "Africa/Brazzaville",
    "latitude": -2.23167,
    "longitude": 12.81861
  },
  {
    "city": "Simba",
    "city_zh": "Simba",
    "country": "Republic of the Congo",
    "country_zh": "剛果共和國",
    "country_iso_code": "CG",
    "timezone": "Africa/Brazzaville",
    "latitude": -2.11583,
    "longitude": 12.76694
  },
  {
    "city": "Sima",
    "city_zh": "Sima",
    "country": "Republic of the Congo",
    "country_zh": "剛果共和國",
    "country_iso_code": "CG",
    "timezone": "Africa/Brazzaville",
    "latitude": -2.34,
    "longitude": 13.63583
  },
  {
    "city": "Sikama-Kamba",
    "city_zh": "Sikama-Kamba",
    "country": "Republic of the Congo",
    "country_zh": "剛果共和國",
    "country_iso_code": "CG",
    "timezone": "Africa/Brazzaville",
    "latitude": -4.23333,
    "longitude": 12.06667
  },
  {
    "city": "Sietamapoto",
    "city_zh": "Sietamapoto",
    "country": "Republic of the Congo",
    "country_zh": "剛果共和國",
    "country_iso_code": "CG",
    "timezone": "Africa/Brazzaville",
    "latitude": -3.42028,
    "longitude": 14.57972
  },
  {
    "city": "Sibitou-Kouenda",
    "city_zh": "Sibitou-Kouenda",
    "country": "Republic of the Congo",
    "country_zh": "剛果共和國",
    "country_iso_code": "CG",
    "timezone": "Africa/Brazzaville",
    "latitude": -4.11528,
    "longitude": 11.90083
  },
  {
    "city": "Sibititi",
    "city_zh": "Sibititi",
    "country": "Republic of the Congo",
    "country_zh": "剛果共和國",
    "country_iso_code": "CG",
    "timezone": "Africa/Brazzaville",
    "latitude": -4.18333,
    "longitude": 12.41667
  },
  {
    "city": "Sibiti",
    "city_zh": "Sibiti",
    "country": "Republic of the Congo",
    "country_zh": "剛果共和國",
    "country_iso_code": "CG",
    "timezone": "Africa/Brazzaville",
    "latitude": -3.68192,
    "longitude": 13.34985
  },
  {
    "city": "Sialivakou",
    "city_zh": "Sialivakou",
    "country": "Republic of the Congo",
    "country_zh": "剛果共和國",
    "country_iso_code": "CG",
    "timezone": "Africa/Brazzaville",
    "latitude": -4.03556,
    "longitude": 11.38806
  },
  {
    "city": "Siala",
    "city_zh": "Siala",
    "country": "Republic of the Congo",
    "country_zh": "剛果共和國",
    "country_iso_code": "CG",
    "timezone": "Africa/Brazzaville",
    "latitude": -4.64139,
    "longitude": 12.13
  },
  {
    "city": "Siafoumou",
    "city_zh": "Siafoumou",
    "country": "Republic of the Congo",
    "country_zh": "剛果共和國",
    "country_iso_code": "CG",
    "timezone": "Africa/Brazzaville",
    "latitude": -4.72917,
    "longitude": 11.86361
  },
  {
    "city": "Sexo",
    "city_zh": "Sexo",
    "country": "Republic of the Congo",
    "country_zh": "剛果共和國",
    "country_iso_code": "CG",
    "timezone": "Africa/Brazzaville",
    "latitude": -4.13472,
    "longitude": 11.9275
  },
  {
    "city": "Sexo",
    "city_zh": "Sexo",
    "country": "Republic of the Congo",
    "country_zh": "剛果共和國",
    "country_iso_code": "CG",
    "timezone": "Africa/Brazzaville",
    "latitude": -4.38333,
    "longitude": 11.66667
  },
  {
    "city": "Sexcello",
    "city_zh": "Sexcello",
    "country": "Republic of the Congo",
    "country_zh": "剛果共和國",
    "country_iso_code": "CG",
    "timezone": "Africa/Brazzaville",
    "latitude": -3.9525,
    "longitude": 11.64389
  },
  {
    "city": "Séssé",
    "city_zh": "Séssé",
    "country": "Republic of the Congo",
    "country_zh": "剛果共和國",
    "country_iso_code": "CG",
    "timezone": "Africa/Brazzaville",
    "latitude": -4.75222,
    "longitude": 14.60083
  },
  {
    "city": "Séré",
    "city_zh": "Séré",
    "country": "Republic of the Congo",
    "country_zh": "剛果共和國",
    "country_iso_code": "CG",
    "timezone": "Africa/Brazzaville",
    "latitude": -1.05694,
    "longitude": 14.88417
  },
  {
    "city": "Sémo",
    "city_zh": "Sémo",
    "country": "Republic of the Congo",
    "country_zh": "剛果共和國",
    "country_iso_code": "CG",
    "timezone": "Africa/Brazzaville",
    "latitude": -3.35139,
    "longitude": 14.5025
  },
  {
    "city": "Sémbé",
    "city_zh": "Sémbé",
    "country": "Republic of the Congo",
    "country_zh": "剛果共和國",
    "country_iso_code": "CG",
    "timezone": "Africa/Brazzaville",
    "latitude": 1.64806,
    "longitude": 14.58056
  },
  {
    "city": "Sembé",
    "city_zh": "Sembé",
    "country": "Republic of the Congo",
    "country_zh": "剛果共和國",
    "country_iso_code": "CG",
    "timezone": "Africa/Brazzaville",
    "latitude": 0.60083,
    "longitude": 14.63861
  },
  {
    "city": "Sembé",
    "city_zh": "Sembé",
    "country": "Republic of the Congo",
    "country_zh": "剛果共和國",
    "country_iso_code": "CG",
    "timezone": "Africa/Brazzaville",
    "latitude": 0.20556,
    "longitude": 15.60778
  },
  {
    "city": "Séléké",
    "city_zh": "Séléké",
    "country": "Republic of the Congo",
    "country_zh": "剛果共和國",
    "country_iso_code": "CG",
    "timezone": "Africa/Brazzaville",
    "latitude": -3.2325,
    "longitude": 14.58833
  },
  {
    "city": "Sédèk",
    "city_zh": "Sédèk",
    "country": "Republic of the Congo",
    "country_zh": "剛果共和國",
    "country_iso_code": "CG",
    "timezone": "Africa/Brazzaville",
    "latitude": -3.39278,
    "longitude": 16.17139
  },
  {
    "city": "Sédèk",
    "city_zh": "Sédèk",
    "country": "Republic of the Congo",
    "country_zh": "剛果共和國",
    "country_iso_code": "CG",
    "timezone": "Africa/Brazzaville",
    "latitude": -3.37306,
    "longitude": 16.18667
  },
  {
    "city": "Séka",
    "city_zh": "Séka",
    "country": "Republic of the Congo",
    "country_zh": "剛果共和國",
    "country_iso_code": "CG",
    "timezone": "Africa/Brazzaville",
    "latitude": 1.56861,
    "longitude": 15.40639
  },
  {
    "city": "Tsatou",
    "city_zh": "Tsatou",
    "country": "Republic of the Congo",
    "country_zh": "剛果共和國",
    "country_iso_code": "CG",
    "timezone": "Africa/Brazzaville",
    "latitude": -4.39667,
    "longitude": 12.86361
  },
  {
    "city": "Sansfil",
    "city_zh": "Sansfil",
    "country": "Republic of the Congo",
    "country_zh": "剛果共和國",
    "country_iso_code": "CG",
    "timezone": "Africa/Brazzaville",
    "latitude": -4.26083,
    "longitude": 14.36333
  },
  {
    "city": "Tchissakata",
    "city_zh": "Tchissakata",
    "country": "Republic of the Congo",
    "country_zh": "剛果共和國",
    "country_iso_code": "CG",
    "timezone": "Africa/Brazzaville",
    "latitude": -4.76056,
    "longitude": 12.21972
  },
  {
    "city": "Sango",
    "city_zh": "Sango",
    "country": "Republic of the Congo",
    "country_zh": "剛果共和國",
    "country_iso_code": "CG",
    "timezone": "Africa/Brazzaville",
    "latitude": -2.66194,
    "longitude": 12.07167
  },
  {
    "city": "Sango",
    "city_zh": "Sango",
    "country": "Republic of the Congo",
    "country_zh": "剛果共和國",
    "country_iso_code": "CG",
    "timezone": "Africa/Brazzaville",
    "latitude": 1.94167,
    "longitude": 15.29944
  },
  {
    "city": "Sango",
    "city_zh": "Sango",
    "country": "Republic of the Congo",
    "country_zh": "剛果共和國",
    "country_iso_code": "CG",
    "timezone": "Africa/Brazzaville",
    "latitude": 1.55667,
    "longitude": 15.81806
  },
  {
    "city": "Sangavimba II",
    "city_zh": "Sangavimba II",
    "country": "Republic of the Congo",
    "country_zh": "剛果共和國",
    "country_iso_code": "CG",
    "timezone": "Africa/Brazzaville",
    "latitude": -4.69278,
    "longitude": 14.45167
  },
  {
    "city": "Sangavimba I",
    "city_zh": "Sangavimba I",
    "country": "Republic of the Congo",
    "country_zh": "剛果共和國",
    "country_iso_code": "CG",
    "timezone": "Africa/Brazzaville",
    "latitude": -4.71,
    "longitude": 14.44583
  },
  {
    "city": "Sangamvila",
    "city_zh": "Sangamvila",
    "country": "Republic of the Congo",
    "country_zh": "剛果共和國",
    "country_iso_code": "CG",
    "timezone": "Africa/Brazzaville",
    "latitude": -3.64333,
    "longitude": 14.3875
  },
  {
    "city": "Sanga Vila",
    "city_zh": "Sanga Vila",
    "country": "Republic of the Congo",
    "country_zh": "剛果共和國",
    "country_iso_code": "CG",
    "timezone": "Africa/Brazzaville",
    "latitude": -4.17417,
    "longitude": 14.69611
  },
  {
    "city": "Sambitsou",
    "city_zh": "Sambitsou",
    "country": "Republic of the Congo",
    "country_zh": "剛果共和國",
    "country_iso_code": "CG",
    "timezone": "Africa/Brazzaville",
    "latitude": -1.2,
    "longitude": 16.0
  },
  {
    "city": "Salabiakou",
    "city_zh": "Salabiakou",
    "country": "Republic of the Congo",
    "country_zh": "剛果共和國",
    "country_iso_code": "CG",
    "timezone": "Africa/Brazzaville",
    "latitude": -3.60833,
    "longitude": 14.60917
  },
  {
    "city": "Sala",
    "city_zh": "Sala",
    "country": "Republic of the Congo",
    "country_zh": "剛果共和國",
    "country_iso_code": "CG",
    "timezone": "Africa/Brazzaville",
    "latitude": -4.38167,
    "longitude": 13.99833
  },
  {
    "city": "Sala",
    "city_zh": "Sala",
    "country": "Republic of the Congo",
    "country_zh": "剛果共和國",
    "country_iso_code": "CG",
    "timezone": "Africa/Brazzaville",
    "latitude": -3.04861,
    "longitude": 12.81333
  },
  {
    "city": "Sako",
    "city_zh": "Sako",
    "country": "Republic of the Congo",
    "country_zh": "剛果共和國",
    "country_iso_code": "CG",
    "timezone": "Africa/Brazzaville",
    "latitude": -2.48333,
    "longitude": 16.11667
  },
  {
    "city": "Sakamèsso",
    "city_zh": "Sakamèsso",
    "country": "Republic of the Congo",
    "country_zh": "剛果共和國",
    "country_iso_code": "CG",
    "timezone": "Africa/Brazzaville",
    "latitude": -4.55917,
    "longitude": 14.625
  },
  {
    "city": "Sakala",
    "city_zh": "Sakala",
    "country": "Republic of the Congo",
    "country_zh": "剛果共和國",
    "country_iso_code": "CG",
    "timezone": "Africa/Brazzaville",
    "latitude": -4.36139,
    "longitude": 13.99194
  },
  {
    "city": "Saint-Paul",
    "city_zh": "Saint-Paul",
    "country": "Republic of the Congo",
    "country_zh": "剛果共和國",
    "country_iso_code": "CG",
    "timezone": "Africa/Brazzaville",
    "latitude": -4.6125,
    "longitude": 12.03694
  },
  {
    "city": "Sainte-Marie",
    "city_zh": "Sainte-Marie",
    "country": "Republic of the Congo",
    "country_zh": "剛果共和國",
    "country_iso_code": "CG",
    "timezone": "Africa/Brazzaville",
    "latitude": -4.43639,
    "longitude": 11.705
  },
  {
    "city": "Saint-Benoît",
    "city_zh": "Saint-Benoît",
    "country": "Republic of the Congo",
    "country_zh": "剛果共和國",
    "country_iso_code": "CG",
    "timezone": "Africa/Brazzaville",
    "latitude": -1.02389,
    "longitude": 15.35944
  },
  {
    "city": "Saba",
    "city_zh": "Saba",
    "country": "Republic of the Congo",
    "country_zh": "剛果共和國",
    "country_iso_code": "CG",
    "timezone": "Africa/Brazzaville",
    "latitude": -0.44,
    "longitude": 15.54806
  },
  {
    "city": "Route Eta",
    "city_zh": "Route Eta",
    "country": "Republic of the Congo",
    "country_zh": "剛果共和國",
    "country_iso_code": "CG",
    "timezone": "Africa/Brazzaville",
    "latitude": 2.11667,
    "longitude": 14.05
  },
  {
    "city": "Boudel",
    "city_zh": "Boudel",
    "country": "Republic of the Congo",
    "country_zh": "剛果共和國",
    "country_iso_code": "CG",
    "timezone": "Africa/Brazzaville",
    "latitude": 1.75417,
    "longitude": 14.46306
  },
  {
    "city": "Ranzi",
    "city_zh": "Ranzi",
    "country": "Republic of the Congo",
    "country_zh": "剛果共和國",
    "country_iso_code": "CG",
    "timezone": "Africa/Brazzaville",
    "latitude": -2.63556,
    "longitude": 11.93472
  },
  {
    "city": "Quartier Tchinouka",
    "city_zh": "Quartier Tchinouka",
    "country": "Republic of the Congo",
    "country_zh": "剛果共和國",
    "country_iso_code": "CG",
    "timezone": "Africa/Brazzaville",
    "latitude": -4.75,
    "longitude": 11.86667
  },
  {
    "city": "Ptso",
    "city_zh": "Ptso",
    "country": "Republic of the Congo",
    "country_zh": "剛果共和國",
    "country_iso_code": "CG",
    "timezone": "Africa/Brazzaville",
    "latitude": -2.495,
    "longitude": 11.98389
  },
  {
    "city": "Ptso",
    "city_zh": "Ptso",
    "country": "Republic of the Congo",
    "country_zh": "剛果共和國",
    "country_iso_code": "CG",
    "timezone": "Africa/Brazzaville",
    "latitude": -2.42972,
    "longitude": 11.88611
  },
  {
    "city": "Mpouaya",
    "city_zh": "Mpouaya",
    "country": "Republic of the Congo",
    "country_zh": "剛果共和國",
    "country_iso_code": "CG",
    "timezone": "Africa/Brazzaville",
    "latitude": -1.7575,
    "longitude": 16.04139
  },
  {
    "city": "Pousou",
    "city_zh": "Pousou",
    "country": "Republic of the Congo",
    "country_zh": "剛果共和國",
    "country_iso_code": "CG",
    "timezone": "Africa/Brazzaville",
    "latitude": -1.30556,
    "longitude": 15.71861
  },
  {
    "city": "Pousamay",
    "city_zh": "Pousamay",
    "country": "Republic of the Congo",
    "country_zh": "剛果共和國",
    "country_iso_code": "CG",
    "timezone": "Africa/Brazzaville",
    "latitude": 2.96667,
    "longitude": 17.41667
  },
  {
    "city": "Mpounou",
    "city_zh": "Mpounou",
    "country": "Republic of the Congo",
    "country_zh": "剛果共和國",
    "country_iso_code": "CG",
    "timezone": "Africa/Brazzaville",
    "latitude": -1.97778,
    "longitude": 16.04167
  },
  {
    "city": "Pounou",
    "city_zh": "Pounou",
    "country": "Republic of the Congo",
    "country_zh": "剛果共和國",
    "country_iso_code": "CG",
    "timezone": "Africa/Brazzaville",
    "latitude": -1.86972,
    "longitude": 15.9925
  },
  {
    "city": "Poungou-Poungou",
    "city_zh": "Poungou-Poungou",
    "country": "Republic of the Congo",
    "country_zh": "剛果共和國",
    "country_iso_code": "CG",
    "timezone": "Africa/Brazzaville",
    "latitude": -2.04889,
    "longitude": 12.71556
  },
  {
    "city": "Poungou",
    "city_zh": "Poungou",
    "country": "Republic of the Congo",
    "country_zh": "剛果共和國",
    "country_iso_code": "CG",
    "timezone": "Africa/Brazzaville",
    "latitude": -2.06833,
    "longitude": 12.74167
  },
  {
    "city": "Mpounga",
    "city_zh": "Mpounga",
    "country": "Republic of the Congo",
    "country_zh": "剛果共和國",
    "country_iso_code": "CG",
    "timezone": "Africa/Brazzaville",
    "latitude": -4.26806,
    "longitude": 12.46722
  },
  {
    "city": "Poundzou",
    "city_zh": "Poundzou",
    "country": "Republic of the Congo",
    "country_zh": "剛果共和國",
    "country_iso_code": "CG",
    "timezone": "Africa/Brazzaville",
    "latitude": -3.91694,
    "longitude": 13.18694
  },
  {
    "city": "Pounamoué",
    "city_zh": "Pounamoué",
    "country": "Republic of the Congo",
    "country_zh": "剛果共和國",
    "country_iso_code": "CG",
    "timezone": "Africa/Brazzaville",
    "latitude": -1.36306,
    "longitude": 15.93056
  },
  {
    "city": "Poumou",
    "city_zh": "Poumou",
    "country": "Republic of the Congo",
    "country_zh": "剛果共和國",
    "country_iso_code": "CG",
    "timezone": "Africa/Brazzaville",
    "latitude": -4.15111,
    "longitude": 14.05944
  },
  {
    "city": "Poumbou",
    "city_zh": "Poumbou",
    "country": "Republic of the Congo",
    "country_zh": "剛果共和國",
    "country_iso_code": "CG",
    "timezone": "Africa/Brazzaville",
    "latitude": -3.4,
    "longitude": 12.13333
  },
  {
    "city": "Poumba-Ekok",
    "city_zh": "Poumba-Ekok",
    "country": "Republic of the Congo",
    "country_zh": "剛果共和國",
    "country_iso_code": "CG",
    "timezone": "Africa/Brazzaville",
    "latitude": 1.99389,
    "longitude": 13.90417
  },
  {
    "city": "Poumba Ekoum",
    "city_zh": "Poumba Ekoum",
    "country": "Republic of the Congo",
    "country_zh": "剛果共和國",
    "country_iso_code": "CG",
    "timezone": "Africa/Brazzaville",
    "latitude": 1.66194,
    "longitude": 13.70667
  },
  {
    "city": "Poumba",
    "city_zh": "Poumba",
    "country": "Republic of the Congo",
    "country_zh": "剛果共和國",
    "country_iso_code": "CG",
    "timezone": "Africa/Brazzaville",
    "latitude": -4.66722,
    "longitude": 11.80833
  },
  {
    "city": "Mpoumako",
    "city_zh": "Mpoumako",
    "country": "Republic of the Congo",
    "country_zh": "剛果共和國",
    "country_iso_code": "CG",
    "timezone": "Africa/Brazzaville",
    "latitude": -3.11111,
    "longitude": 15.61222
  },
  {
    "city": "Poumako",
    "city_zh": "Poumako",
    "country": "Republic of the Congo",
    "country_zh": "剛果共和國",
    "country_iso_code": "CG",
    "timezone": "Africa/Brazzaville",
    "latitude": -3.0925,
    "longitude": 15.63167
  },
  {
    "city": "Poulani",
    "city_zh": "Poulani",
    "country": "Republic of the Congo",
    "country_zh": "剛果共和國",
    "country_iso_code": "CG",
    "timezone": "Africa/Brazzaville",
    "latitude": 1.32694,
    "longitude": 15.83611
  },
  {
    "city": "Pouka",
    "city_zh": "Pouka",
    "country": "Republic of the Congo",
    "country_zh": "剛果共和國",
    "country_iso_code": "CG",
    "timezone": "Africa/Brazzaville",
    "latitude": -2.63917,
    "longitude": 11.77083
  },
  {
    "city": "Pouéré-Essengué",
    "city_zh": "Pouéré-Essengué",
    "country": "Republic of the Congo",
    "country_zh": "剛果共和國",
    "country_iso_code": "CG",
    "timezone": "Africa/Brazzaville",
    "latitude": -0.76333,
    "longitude": 16.03417
  },
  {
    "city": "Pouéré",
    "city_zh": "Pouéré",
    "country": "Republic of the Congo",
    "country_zh": "剛果共和國",
    "country_iso_code": "CG",
    "timezone": "Africa/Brazzaville",
    "latitude": -0.7225,
    "longitude": 15.86722
  },
  {
    "city": "Poudi",
    "city_zh": "Poudi",
    "country": "Republic of the Congo",
    "country_zh": "剛果共和國",
    "country_iso_code": "CG",
    "timezone": "Africa/Brazzaville",
    "latitude": -3.22972,
    "longitude": 12.63833
  },
  {
    "city": "Poudi",
    "city_zh": "Poudi",
    "country": "Republic of the Congo",
    "country_zh": "剛果共和國",
    "country_iso_code": "CG",
    "timezone": "Africa/Brazzaville",
    "latitude": -2.63056,
    "longitude": 12.13833
  },
  {
    "city": "Poudi",
    "city_zh": "Poudi",
    "country": "Republic of the Congo",
    "country_zh": "剛果共和國",
    "country_iso_code": "CG",
    "timezone": "Africa/Brazzaville",
    "latitude": -2.59806,
    "longitude": 12.38528
  },
  {
    "city": "Poto Poto II",
    "city_zh": "Poto Poto II",
    "country": "Republic of the Congo",
    "country_zh": "剛果共和國",
    "country_iso_code": "CG",
    "timezone": "Africa/Brazzaville",
    "latitude": 2.08333,
    "longitude": 14.06667
  },
  {
    "city": "Poto-Poto",
    "city_zh": "Poto-Poto",
    "country": "Republic of the Congo",
    "country_zh": "剛果共和國",
    "country_iso_code": "CG",
    "timezone": "Africa/Brazzaville",
    "latitude": -2.90806,
    "longitude": 11.96722
  },
  {
    "city": "Poto Poto",
    "city_zh": "Poto Poto",
    "country": "Republic of the Congo",
    "country_zh": "剛果共和國",
    "country_iso_code": "CG",
    "timezone": "Africa/Brazzaville",
    "latitude": -4.24,
    "longitude": 15.30139
  },
  {
    "city": "Poto Poto",
    "city_zh": "Poto Poto",
    "country": "Republic of the Congo",
    "country_zh": "剛果共和國",
    "country_iso_code": "CG",
    "timezone": "Africa/Brazzaville",
    "latitude": -4.13028,
    "longitude": 14.91583
  },
  {
    "city": "Poto Poto",
    "city_zh": "Poto Poto",
    "country": "Republic of the Congo",
    "country_zh": "剛果共和國",
    "country_iso_code": "CG",
    "timezone": "Africa/Brazzaville",
    "latitude": 2.08333,
    "longitude": 14.03333
  },
  {
    "city": "Poté",
    "city_zh": "Poté",
    "country": "Republic of the Congo",
    "country_zh": "剛果共和國",
    "country_iso_code": "CG",
    "timezone": "Africa/Brazzaville",
    "latitude": -4.35028,
    "longitude": 15.0325
  },
  {
    "city": "Posi",
    "city_zh": "Posi",
    "country": "Republic of the Congo",
    "country_zh": "剛果共和國",
    "country_iso_code": "CG",
    "timezone": "Africa/Brazzaville",
    "latitude": -1.1275,
    "longitude": 15.45278
  },
  {
    "city": "Pori",
    "city_zh": "Pori",
    "country": "Republic of the Congo",
    "country_zh": "剛果共和國",
    "country_iso_code": "CG",
    "timezone": "Africa/Brazzaville",
    "latitude": -1.58,
    "longitude": 14.78917
  },
  {
    "city": "Pora Pama",
    "city_zh": "Pora Pama",
    "country": "Republic of the Congo",
    "country_zh": "剛果共和國",
    "country_iso_code": "CG",
    "timezone": "Africa/Brazzaville",
    "latitude": -3.00833,
    "longitude": 12.05944
  },
  {
    "city": "Popo",
    "city_zh": "Popo",
    "country": "Republic of the Congo",
    "country_zh": "剛果共和國",
    "country_iso_code": "CG",
    "timezone": "Africa/Brazzaville",
    "latitude": -2.92472,
    "longitude": 12.62167
  },
  {
    "city": "Ponga",
    "city_zh": "Ponga",
    "country": "Republic of the Congo",
    "country_zh": "剛果共和國",
    "country_iso_code": "CG",
    "timezone": "Africa/Brazzaville",
    "latitude": 1.93333,
    "longitude": 15.63333
  },
  {
    "city": "Pombosso",
    "city_zh": "Pombosso",
    "country": "Republic of the Congo",
    "country_zh": "剛果共和國",
    "country_iso_code": "CG",
    "timezone": "Africa/Brazzaville",
    "latitude": 0.03667,
    "longitude": 15.59639
  },
  {
    "city": "Ponbo",
    "city_zh": "Ponbo",
    "country": "Republic of the Congo",
    "country_zh": "剛果共和國",
    "country_iso_code": "CG",
    "timezone": "Africa/Brazzaville",
    "latitude": -1.35861,
    "longitude": 16.27611
  },
  {
    "city": "Pointe-Noire",
    "city_zh": "Pointe-Noire",
    "country": "Republic of the Congo",
    "country_zh": "剛果共和國",
    "country_iso_code": "CG",
    "timezone": "Africa/Brazzaville",
    "latitude": -4.77609,
    "longitude": 11.86352
  },
  {
    "city": "Pointe Noire",
    "city_zh": "Pointe Noire",
    "country": "Republic of the Congo",
    "country_zh": "剛果共和國",
    "country_iso_code": "CG",
    "timezone": "Africa/Brazzaville",
    "latitude": 1.55556,
    "longitude": 15.78472
  },
  {
    "city": "Pini",
    "city_zh": "Pini",
    "country": "Republic of the Congo",
    "country_zh": "剛果共和國",
    "country_iso_code": "CG",
    "timezone": "Africa/Brazzaville",
    "latitude": -3.73028,
    "longitude": 13.36889
  },
  {
    "city": "Pindi",
    "city_zh": "Pindi",
    "country": "Republic of the Congo",
    "country_zh": "剛果共和國",
    "country_iso_code": "CG",
    "timezone": "Africa/Brazzaville",
    "latitude": -4.08111,
    "longitude": 13.07111
  },
  {
    "city": "Pinda-Mbigou",
    "city_zh": "Pinda-Mbigou",
    "country": "Republic of the Congo",
    "country_zh": "剛果共和國",
    "country_iso_code": "CG",
    "timezone": "Africa/Brazzaville",
    "latitude": -2.46306,
    "longitude": 12.14417
  },
  {
    "city": "Pikounda",
    "city_zh": "Pikounda",
    "country": "Republic of the Congo",
    "country_zh": "剛果共和國",
    "country_iso_code": "CG",
    "timezone": "Africa/Brazzaville",
    "latitude": 0.55194,
    "longitude": 16.63083
  },
  {
    "city": "Pikamandéla",
    "city_zh": "Pikamandéla",
    "country": "Republic of the Congo",
    "country_zh": "剛果共和國",
    "country_iso_code": "CG",
    "timezone": "Africa/Brazzaville",
    "latitude": -4.26833,
    "longitude": 14.57083
  },
  {
    "city": "Piémé",
    "city_zh": "Piémé",
    "country": "Republic of the Congo",
    "country_zh": "剛果共和國",
    "country_iso_code": "CG",
    "timezone": "Africa/Brazzaville",
    "latitude": -4.18694,
    "longitude": 14.36
  },