[
  {
    "city": "Zombi",
    "city_zh": "Zombi",
    "country": "French Guiana",
    "country_zh": "French Guiana",
    "country_iso_code": "GF",
    "timezone": "America/Cayenne",
    "latitude": 4.604,
    "longitude": -52.39292
  },
  {
    "city": "Zidok",
    "city_zh": "Zidok",
    "country": "French Guiana",
    "country_zh": "French Guiana",
    "country_iso_code": "GF",
    "timezone": "America/Cayenne",
    "latitude": 2.25928,
    "longitude": -52.87575
  },
  {
    "city": "Village Yofé",
    "city_zh": "Village Yofé",
    "country": "French Guiana",
    "country_zh": "French Guiana",
    "country_iso_code": "GF",
    "timezone": "America/Cayenne",
    "latitude": 5.43288,
    "longitude": -53.67545
  },
  {
    "city": "Winiwé",
    "city_zh": "Winiwé",
    "country": "French Guiana",
    "country_zh": "French Guiana",
    "country_iso_code": "GF",
    "timezone": "America/Cayenne",
    "latitude": 3.67544,
    "longitude": -53.96008
  },
  {
    "city": "Wilfried",
    "city_zh": "Wilfried",
    "country": "French Guiana",
    "country_zh": "French Guiana",
    "country_iso_code": "GF",
    "timezone": "America/Cayenne",
    "latitude": 3.70994,
    "longitude": -54.07612
  },
  {
    "city": "Wéti-Chiton",
    "city_zh": "Wéti-Chiton",
    "country": "French Guiana",
    "country_zh": "French Guiana",
    "country_iso_code": "GF",
    "timezone": "America/Cayenne",
    "latitude": 4.75518,
    "longitude": -54.46225
  },
  {
    "city": "Wakapou",
    "city_zh": "Wakapou",
    "country": "French Guiana",
    "country_zh": "French Guiana",
    "country_iso_code": "GF",
    "timezone": "America/Cayenne",
    "latitude": 3.67331,
    "longitude": -54.07664
  },
  {
    "city": "Village Saramaka",
    "city_zh": "Village Saramaka",
    "country": "French Guiana",
    "country_zh": "French Guiana",
    "country_iso_code": "GF",
    "timezone": "America/Cayenne",
    "latitude": 5.15686,
    "longitude": -52.63755
  },
  {
    "city": "Acarouany",
    "city_zh": "Acarouany",
    "country": "French Guiana",
    "country_zh": "French Guiana",
    "country_iso_code": "GF",
    "timezone": "America/Cayenne",
    "latitude": 5.45179,
    "longitude": -53.78588
  },
  {
    "city": "Village Saramaca",
    "city_zh": "Village Saramaca",
    "country": "French Guiana",
    "country_zh": "French Guiana",
    "country_iso_code": "GF",
    "timezone": "America/Cayenne",
    "latitude": 4.4013,
    "longitude": -52.39229
  },
  {
    "city": "Village Inipi",
    "city_zh": "Village Inipi",
    "country": "French Guiana",
    "country_zh": "French Guiana",
    "country_iso_code": "GF",
    "timezone": "America/Cayenne",
    "latitude": 3.25,
    "longitude": -52.95
  },
  {
    "city": "Village Galibis",
    "city_zh": "Village Galibis",
    "country": "French Guiana",
    "country_zh": "French Guiana",
    "country_iso_code": "GF",
    "timezone": "America/Cayenne",
    "latitude": 5.4,
    "longitude": -54.11667
  },
  {
    "city": "Village Créole",
    "city_zh": "Village Créole",
    "country": "French Guiana",
    "country_zh": "French Guiana",
    "country_iso_code": "GF",
    "timezone": "America/Cayenne",
    "latitude": 3.21999,
    "longitude": -53.70628
  },
  {
    "city": "Village Chinois",
    "city_zh": "Village Chinois",
    "country": "French Guiana",
    "country_zh": "French Guiana",
    "country_iso_code": "GF",
    "timezone": "America/Cayenne",
    "latitude": 4.93332,
    "longitude": -52.33348
  },
  {
    "city": "Village Brésilien",
    "city_zh": "Village Brésilien",
    "country": "French Guiana",
    "country_zh": "French Guiana",
    "country_iso_code": "GF",
    "timezone": "America/Cayenne",
    "latitude": 5.15296,
    "longitude": -52.64658
  },
  {
    "city": "Vieux Grand-Santi",
    "city_zh": "Vieux Grand-Santi",
    "country": "French Guiana",
    "country_zh": "French Guiana",
    "country_iso_code": "GF",
    "timezone": "America/Cayenne",
    "latitude": 4.31904,
    "longitude": -54.38663
  },
  {
    "city": "Victor",
    "city_zh": "Victor",
    "country": "French Guiana",
    "country_zh": "French Guiana",
    "country_iso_code": "GF",
    "timezone": "America/Cayenne",
    "latitude": 4.92814,
    "longitude": -52.31285
  },
  {
    "city": "Vénus",
    "city_zh": "Vénus",
    "country": "French Guiana",
    "country_zh": "French Guiana",
    "country_iso_code": "GF",
    "timezone": "America/Cayenne",
    "latitude": 5.18935,
    "longitude": -52.97523
  },
  {
    "city": "Trou Poissons",
    "city_zh": "Trou Poissons",
    "country": "French Guiana",
    "country_zh": "French Guiana",
    "country_iso_code": "GF",
    "timezone": "America/Cayenne",
    "latitude": 5.42827,
    "longitude": -53.08936
  },
  {
    "city": "Trou Caïmans",
    "city_zh": "Trou Caïmans",
    "country": "French Guiana",
    "country_zh": "French Guiana",
    "country_iso_code": "GF",
    "timezone": "America/Cayenne",
    "latitude": 5.4507,
    "longitude": -53.13923
  },
  {
    "city": "Trou Biran",
    "city_zh": "Trou Biran",
    "country": "French Guiana",
    "country_zh": "French Guiana",
    "country_iso_code": "GF",
    "timezone": "America/Cayenne",
    "latitude": 4.92862,
    "longitude": -52.29766
  },
  {
    "city": "Trois Sauts",
    "city_zh": "Trois Sauts",
    "country": "French Guiana",
    "country_zh": "French Guiana",
    "country_iso_code": "GF",
    "timezone": "America/Cayenne",
    "latitude": 2.24504,
    "longitude": -52.87724
  },
  {
    "city": "Trois Rois",
    "city_zh": "Trois Rois",
    "country": "French Guiana",
    "country_zh": "French Guiana",
    "country_iso_code": "GF",
    "timezone": "America/Cayenne",
    "latitude": 4.94818,
    "longitude": -52.53102
  },
  {
    "city": "Toussine",
    "city_zh": "Toussine",
    "country": "French Guiana",
    "country_zh": "French Guiana",
    "country_iso_code": "GF",
    "timezone": "America/Cayenne",
    "latitude": 4.76917,
    "longitude": -53.89366
  },
  {
    "city": "Tonnégrande",
    "city_zh": "Tonnégrande",
    "country": "French Guiana",
    "country_zh": "French Guiana",
    "country_iso_code": "GF",
    "timezone": "America/Cayenne",
    "latitude": 4.83085,
    "longitude": -52.44321
  },
  {
    "city": "Tonate",
    "city_zh": "Tonate",
    "country": "French Guiana",
    "country_zh": "French Guiana",
    "country_iso_code": "GF",
    "timezone": "America/Cayenne",
    "latitude": 5.01171,
    "longitude": -52.47241
  },
  {
    "city": "Village Tintin",
    "city_zh": "Village Tintin",
    "country": "French Guiana",
    "country_zh": "French Guiana",
    "country_iso_code": "GF",
    "timezone": "America/Cayenne",
    "latitude": 4.23796,
    "longitude": -52.25693
  },
  {
    "city": "Théophane",
    "city_zh": "Théophane",
    "country": "French Guiana",
    "country_zh": "French Guiana",
    "country_iso_code": "GF",
    "timezone": "America/Cayenne",
    "latitude": 3.71504,
    "longitude": -54.0779
  },
  {
    "city": "Terre Rouge",
    "city_zh": "Terre Rouge",
    "country": "French Guiana",
    "country_zh": "French Guiana",
    "country_iso_code": "GF",
    "timezone": "America/Cayenne",
    "latitude": 5.63781,
    "longitude": -53.74539
  },
  {
    "city": "Terre Rouge",
    "city_zh": "Terre Rouge",
    "country": "French Guiana",
    "country_zh": "French Guiana",
    "country_iso_code": "GF",
    "timezone": "America/Cayenne",
    "latitude": 5.45064,
    "longitude": -54.04994
  },
  {
    "city": "Taponté",
    "city_zh": "Taponté",
    "country": "French Guiana",
    "country_zh": "French Guiana",
    "country_iso_code": "GF",
    "timezone": "America/Cayenne",
    "latitude": 3.27043,
    "longitude": -54.12262
  },
  {
    "city": "Tampok",
    "city_zh": "Tampok",
    "country": "French Guiana",
    "country_zh": "French Guiana",
    "country_iso_code": "GF",
    "timezone": "America/Cayenne",
    "latitude": 3.32363,
    "longitude": -53.83532
  },
  {
    "city": "Tampak",
    "city_zh": "Tampak",
    "country": "French Guiana",
    "country_zh": "French Guiana",
    "country_iso_code": "GF",
    "timezone": "America/Cayenne",
    "latitude": 3.94548,
    "longitude": -51.78594
  },
  {
    "city": "Taconnet",
    "city_zh": "Taconnet",
    "country": "French Guiana",
    "country_zh": "French Guiana",
    "country_iso_code": "GF",
    "timezone": "America/Cayenne",
    "latitude": 4.03333,
    "longitude": -52.51667
  },
  {
    "city": "Suzini",
    "city_zh": "Suzini",
    "country": "French Guiana",
    "country_zh": "French Guiana",
    "country_iso_code": "GF",
    "timezone": "America/Cayenne",
    "latitude": 4.92854,
    "longitude": -52.29017
  },
  {
    "city": "Sursaut",
    "city_zh": "Sursaut",
    "country": "French Guiana",
    "country_zh": "French Guiana",
    "country_iso_code": "GF",
    "timezone": "America/Cayenne",
    "latitude": 4.96083,
    "longitude": -53.1508
  },
  {
    "city": "Stoupan",
    "city_zh": "Stoupan",
    "country": "French Guiana",
    "country_zh": "French Guiana",
    "country_iso_code": "GF",
    "timezone": "America/Cayenne",
    "latitude": 4.77908,
    "longitude": -52.34352
  },
  {
    "city": "Spes",
    "city_zh": "Spes",
    "country": "French Guiana",
    "country_zh": "French Guiana",
    "country_iso_code": "GF",
    "timezone": "America/Cayenne",
    "latitude": 4.51668,
    "longitude": -52.40255
  },
  {
    "city": "Sparouine",
    "city_zh": "Sparouine",
    "country": "French Guiana",
    "country_zh": "French Guiana",
    "country_iso_code": "GF",
    "timezone": "America/Cayenne",
    "latitude": 5.27136,
    "longitude": -54.25945
  },
  {
    "city": "Soula",
    "city_zh": "Soula",
    "country": "French Guiana",
    "country_zh": "French Guiana",
    "country_iso_code": "GF",
    "timezone": "America/Cayenne",
    "latitude": 4.93057,
    "longitude": -52.40791
  },
  {
    "city": "Sophie",
    "city_zh": "Sophie",
    "country": "French Guiana",
    "country_zh": "French Guiana",
    "country_iso_code": "GF",
    "timezone": "America/Cayenne",
    "latitude": 3.96216,
    "longitude": -53.49222
  },
  {
    "city": "Sonnelle",
    "city_zh": "Sonnelle",
    "country": "French Guiana",
    "country_zh": "French Guiana",
    "country_iso_code": "GF",
    "timezone": "America/Cayenne",
    "latitude": 3.66277,
    "longitude": -53.96446
  },
  {
    "city": "Sokoumou",
    "city_zh": "Sokoumou",
    "country": "French Guiana",
    "country_zh": "French Guiana",
    "country_iso_code": "GF",
    "timezone": "America/Cayenne",
    "latitude": 5.05536,
    "longitude": -52.68474
  },
  {
    "city": "Sinnamary",
    "city_zh": "Sinnamary",
    "country": "French Guiana",
    "country_zh": "French Guiana",
    "country_iso_code": "GF",
    "timezone": "America/Cayenne",
    "latitude": 5.37676,
    "longitude": -52.95679
  },
  {
    "city": "Simon",
    "city_zh": "Simon",
    "country": "French Guiana",
    "country_zh": "French Guiana",
    "country_iso_code": "GF",
    "timezone": "America/Cayenne",
    "latitude": 4.57089,
    "longitude": -52.64353
  },
  {
    "city": "Senkinen",
    "city_zh": "Senkinen",
    "country": "French Guiana",
    "country_zh": "French Guiana",
    "country_iso_code": "GF",
    "timezone": "America/Cayenne",
    "latitude": 5.1,
    "longitude": -54.36667
  },
  {
    "city": "Savane Manuel",
    "city_zh": "Savane Manuel",
    "country": "French Guiana",
    "country_zh": "French Guiana",
    "country_iso_code": "GF",
    "timezone": "America/Cayenne",
    "latitude": 5.35,
    "longitude": -52.95
  },
  {
    "city": "Saut Tigre",
    "city_zh": "Saut Tigre",
    "country": "French Guiana",
    "country_zh": "French Guiana",
    "country_iso_code": "GF",
    "timezone": "America/Cayenne",
    "latitude": 5.01314,
    "longitude": -53.02915
  },
  {
    "city": "Saut Sabbat",
    "city_zh": "Saut Sabbat",
    "country": "French Guiana",
    "country_zh": "French Guiana",
    "country_iso_code": "GF",
    "timezone": "America/Cayenne",
    "latitude": 5.39005,
    "longitude": -53.67199
  },
  {
    "city": "Saulnier",
    "city_zh": "Saulnier",
    "country": "French Guiana",
    "country_zh": "French Guiana",
    "country_iso_code": "GF",
    "timezone": "America/Cayenne",
    "latitude": 5.26976,
    "longitude": -52.9644
  },
  {
    "city": "Saül",
    "city_zh": "Saül",
    "country": "French Guiana",
    "country_zh": "French Guiana",
    "country_iso_code": "GF",
    "timezone": "America/Cayenne",
    "latitude": 3.62307,
    "longitude": -53.20918
  },
  {
    "city": "Dégrad Saramaka",
    "city_zh": "Dégrad Saramaka",
    "country": "French Guiana",
    "country_zh": "French Guiana",
    "country_iso_code": "GF",
    "timezone": "America/Cayenne",
    "latitude": 5.01485,
    "longitude": -52.69883
  },
  {
    "city": "Santonia",
    "city_zh": "Santonia",
    "country": "French Guiana",
    "country_zh": "French Guiana",
    "country_iso_code": "GF",
    "timezone": "America/Cayenne",
    "latitude": 4.73676,
    "longitude": -54.45943
  },
  {
    "city": "Sania",
    "city_zh": "Sania",
    "country": "French Guiana",
    "country_zh": "French Guiana",
    "country_iso_code": "GF",
    "timezone": "America/Cayenne",
    "latitude": 5.19185,
    "longitude": -54.31936
  },
  {
    "city": "Saint-Pierre",
    "city_zh": "Saint-Pierre",
    "country": "French Guiana",
    "country_zh": "French Guiana",
    "country_iso_code": "GF",
    "timezone": "America/Cayenne",
    "latitude": 4.85492,
    "longitude": -52.32478
  },
  {
    "city": "Saint-Paul",
    "city_zh": "Saint-Paul",
    "country": "French Guiana",
    "country_zh": "French Guiana",
    "country_iso_code": "GF",
    "timezone": "America/Cayenne",
    "latitude": 4.82514,
    "longitude": -53.3071
  },
  {
    "city": "Saint-Paul",
    "city_zh": "Saint-Paul",
    "country": "French Guiana",
    "country_zh": "French Guiana",
    "country_iso_code": "GF",
    "timezone": "America/Cayenne",
    "latitude": 4.3955,
    "longitude": -54.38276
  },
  {
    "city": "Saint-Maurice",
    "city_zh": "Saint-Maurice",
    "country": "French Guiana",
    "country_zh": "French Guiana",
    "country_iso_code": "GF",
    "timezone": "America/Cayenne",
    "latitude": 5.48481,
    "longitude": -54.02909
  },
  {
    "city": "Saint-Lucien",
    "city_zh": "Saint-Lucien",
    "country": "French Guiana",
    "country_zh": "French Guiana",
    "country_iso_code": "GF",
    "timezone": "America/Cayenne",
    "latitude": 4.15088,
    "longitude": -52.53584
  },
  {
    "city": "Saint-Louis",
    "city_zh": "Saint-Louis",
    "country": "French Guiana",
    "country_zh": "French Guiana",
    "country_iso_code": "GF",
    "timezone": "America/Cayenne",
    "latitude": 5.4743,
    "longitude": -54.04622
  },
  {
    "city": "Saint-Louis",
    "city_zh": "Saint-Louis",
    "country": "French Guiana",
    "country_zh": "French Guiana",
    "country_iso_code": "GF",
    "timezone": "America/Cayenne",
    "latitude": 4.03172,
    "longitude": -51.68825
  },
  {
    "city": "Saint-Laurent-du-Maroni",
    "city_zh": "马罗尼河畔圣洛朗",
    "country": "French Guiana",
    "country_zh": "French Guiana",
    "country_iso_code": "GF",
    "timezone": "America/Cayenne",
    "latitude": 5.50153,
    "longitude": -54.02916
  },
  {
    "city": "Saint-Joseph",
    "city_zh": "Saint-Joseph",
    "country": "French Guiana",
    "country_zh": "French Guiana",
    "country_iso_code": "GF",
    "timezone": "America/Cayenne",
    "latitude": 4.80169,
    "longitude": -53.15992
  },
  {
    "city": "Saint-Jean",
    "city_zh": "Saint-Jean",
    "country": "French Guiana",
    "country_zh": "French Guiana",
    "country_iso_code": "GF",
    "timezone": "America/Cayenne",
    "latitude": 5.40538,
    "longitude": -54.07896
  },
  {
    "city": "Saint-Georges",
    "city_zh": "Saint-Georges",
    "country": "French Guiana",
    "country_zh": "French Guiana",
    "country_iso_code": "GF",
    "timezone": "America/Cayenne",
    "latitude": 3.88857,
    "longitude": -51.80243
  },
  {
    "city": "Saint-Eugène",
    "city_zh": "Saint-Eugène",
    "country": "French Guiana",
    "country_zh": "French Guiana",
    "country_iso_code": "GF",
    "timezone": "America/Cayenne",
    "latitude": 4.84897,
    "longitude": -53.07322
  },
  {
    "city": "Sainte-Thérèse",
    "city_zh": "Sainte-Thérèse",
    "country": "French Guiana",
    "country_zh": "French Guiana",
    "country_iso_code": "GF",
    "timezone": "America/Cayenne",
    "latitude": 4.76301,
    "longitude": -52.32702
  },
  {
    "city": "Sainte-Marie-les-Mines",
    "city_zh": "Sainte-Marie-les-Mines",
    "country": "French Guiana",
    "country_zh": "French Guiana",
    "country_iso_code": "GF",
    "timezone": "America/Cayenne",
    "latitude": 4.50615,
    "longitude": -52.4477
  },
  {
    "city": "Saint-Élie",
    "city_zh": "Saint-Élie",
    "country": "French Guiana",
    "country_zh": "French Guiana",
    "country_iso_code": "GF",
    "timezone": "America/Cayenne",
    "latitude": 4.82426,
    "longitude": -53.28821
  },
  {
    "city": "Sainte-Anne",
    "city_zh": "Sainte-Anne",
    "country": "French Guiana",
    "country_zh": "French Guiana",
    "country_iso_code": "GF",
    "timezone": "America/Cayenne",
    "latitude": 4.58361,
    "longitude": -52.45552
  },
  {
    "city": "Sainte-Anne",
    "city_zh": "Sainte-Anne",
    "country": "French Guiana",
    "country_zh": "French Guiana",
    "country_iso_code": "GF",
    "timezone": "America/Cayenne",
    "latitude": 4.80422,
    "longitude": -53.11013
  },
  {
    "city": "Saint-Bernard",
    "city_zh": "Saint-Bernard",
    "country": "French Guiana",
    "country_zh": "French Guiana",
    "country_iso_code": "GF",
    "timezone": "America/Cayenne",
    "latitude": 5.17011,
    "longitude": -52.94783
  },
  {
    "city": "Saint-Auguste",
    "city_zh": "Saint-Auguste",
    "country": "French Guiana",
    "country_zh": "French Guiana",
    "country_iso_code": "GF",
    "timezone": "America/Cayenne",
    "latitude": 4.83591,
    "longitude": -53.30037
  },
  {
    "city": "Saint-Antoine",
    "city_zh": "Saint-Antoine",
    "country": "French Guiana",
    "country_zh": "French Guiana",
    "country_iso_code": "GF",
    "timezone": "America/Cayenne",
    "latitude": 5.59597,
    "longitude": -53.88847
  },
  {
    "city": "Ruben",
    "city_zh": "Ruben",
    "country": "French Guiana",
    "country_zh": "French Guiana",
    "country_iso_code": "GF",
    "timezone": "America/Cayenne",
    "latitude": 5.3603,
    "longitude": -54.13281
  },
  {
    "city": "Roura",
    "city_zh": "Roura",
    "country": "French Guiana",
    "country_zh": "French Guiana",
    "country_iso_code": "GF",
    "timezone": "America/Cayenne",
    "latitude": 4.72874,
    "longitude": -52.32495
  },
  {
    "city": "Rococoua",
    "city_zh": "Rococoua",
    "country": "French Guiana",
    "country_zh": "French Guiana",
    "country_iso_code": "GF",
    "timezone": "America/Cayenne",
    "latitude": 5.44242,
    "longitude": -53.30556
  },
  {
    "city": "Roche Tablon",
    "city_zh": "Roche Tablon",
    "country": "French Guiana",
    "country_zh": "French Guiana",
    "country_iso_code": "GF",
    "timezone": "America/Cayenne",
    "latitude": 4.63333,
    "longitude": -52.38333
  },
  {
    "city": "Roches Blanches",
    "city_zh": "Roches Blanches",
    "country": "French Guiana",
    "country_zh": "French Guiana",
    "country_iso_code": "GF",
    "timezone": "America/Cayenne",
    "latitude": 5.49445,
    "longitude": -53.32102
  },
  {
    "city": "Roche Brigandin",
    "city_zh": "Roche Brigandin",
    "country": "French Guiana",
    "country_zh": "French Guiana",
    "country_iso_code": "GF",
    "timezone": "America/Cayenne",
    "latitude": 5.45,
    "longitude": -53.0
  },
  {
    "city": "Risquetout",
    "city_zh": "Risquetout",
    "country": "French Guiana",
    "country_zh": "French Guiana",
    "country_iso_code": "GF",
    "timezone": "America/Cayenne",
    "latitude": 4.91639,
    "longitude": -52.51246
  },
  {
    "city": "Repentir",
    "city_zh": "Repentir",
    "country": "French Guiana",
    "country_zh": "French Guiana",
    "country_iso_code": "GF",
    "timezone": "America/Cayenne",
    "latitude": 3.83827,
    "longitude": -53.39208
  },
  {
    "city": "Rémire",
    "city_zh": "Rémire",
    "country": "French Guiana",
    "country_zh": "French Guiana",
    "country_iso_code": "GF",
    "timezone": "America/Cayenne",
    "latitude": 4.88585,
    "longitude": -52.27857
  },
  {
    "city": "Régina",
    "city_zh": "Régina",
    "country": "French Guiana",
    "country_zh": "French Guiana",
    "country_iso_code": "GF",
    "timezone": "America/Cayenne",
    "latitude": 4.313,
    "longitude": -52.13083
  },
  {
    "city": "Quesnel",
    "city_zh": "Quesnel",
    "country": "French Guiana",
    "country_zh": "French Guiana",
    "country_iso_code": "GF",
    "timezone": "America/Cayenne",
    "latitude": 4.9363,
    "longitude": -52.49766
  },
  {
    "city": "Quatre Carbets",
    "city_zh": "Quatre Carbets",
    "country": "French Guiana",
    "country_zh": "French Guiana",
    "country_iso_code": "GF",
    "timezone": "America/Cayenne",
    "latitude": 3.76667,
    "longitude": -52.2
  },
  {
    "city": "Providence",
    "city_zh": "Providence",
    "country": "French Guiana",
    "country_zh": "French Guiana",
    "country_iso_code": "GF",
    "timezone": "America/Cayenne",
    "latitude": 4.62003,
    "longitude": -54.41479
  },
  {
    "city": "Port Inini",
    "city_zh": "Port Inini",
    "country": "French Guiana",
    "country_zh": "French Guiana",
    "country_iso_code": "GF",
    "timezone": "America/Cayenne",
    "latitude": 4.81652,
    "longitude": -52.48234
  },
  {
    "city": "Portal",
    "city_zh": "Portal",
    "country": "French Guiana",
    "country_zh": "French Guiana",
    "country_iso_code": "GF",
    "timezone": "America/Cayenne",
    "latitude": 5.41904,
    "longitude": -54.09935
  },
  {
    "city": "Populo",
    "city_zh": "Populo",
    "country": "French Guiana",
    "country_zh": "French Guiana",
    "country_iso_code": "GF",
    "timezone": "America/Cayenne",
    "latitude": 5.6127,
    "longitude": -53.81712
  },
  {
    "city": "Ponta",
    "city_zh": "Ponta",
    "country": "French Guiana",
    "country_zh": "French Guiana",
    "country_iso_code": "GF",
    "timezone": "America/Cayenne",
    "latitude": 5.21648,
    "longitude": -54.30527
  },
  {
    "city": "Pointe Isère",
    "city_zh": "Pointe Isère",
    "country": "French Guiana",
    "country_zh": "French Guiana",
    "country_iso_code": "GF",
    "timezone": "America/Cayenne",
    "latitude": 5.73612,
    "longitude": -53.8577
  },
  {
    "city": "Pointe Combi",
    "city_zh": "Pointe Combi",
    "country": "French Guiana",
    "country_zh": "French Guiana",
    "country_iso_code": "GF",
    "timezone": "America/Cayenne",
    "latitude": 5.31166,
    "longitude": -52.95475
  },
  {
    "city": "Pointe Caïman",
    "city_zh": "Pointe Caïman",
    "country": "French Guiana",
    "country_zh": "French Guiana",
    "country_iso_code": "GF",
    "timezone": "America/Cayenne",
    "latitude": 4.98993,
    "longitude": -52.66608
  },
  {
    "city": "Placer Trésor",
    "city_zh": "Placer Trésor",
    "country": "French Guiana",
    "country_zh": "French Guiana",
    "country_iso_code": "GF",
    "timezone": "America/Cayenne",
    "latitude": 4.58628,
    "longitude": -52.26536
  },
  {
    "city": "Chantal",
    "city_zh": "Chantal",
    "country": "French Guiana",
    "country_zh": "French Guiana",
    "country_iso_code": "GF",
    "timezone": "America/Cayenne",
    "latitude": 4.40353,
    "longitude": -54.36742
  },
  {
    "city": "Pina",
    "city_zh": "Pina",
    "country": "French Guiana",
    "country_zh": "French Guiana",
    "country_iso_code": "GF",
    "timezone": "America/Cayenne",
    "latitude": 2.28313,
    "longitude": -52.85928
  },
  {
    "city": "Piliwa",
    "city_zh": "Piliwa",
    "country": "French Guiana",
    "country_zh": "French Guiana",
    "country_iso_code": "GF",
    "timezone": "America/Cayenne",
    "latitude": 5.73157,
    "longitude": -53.89793
  },
  {
    "city": "Pikinn Tabiki",
    "city_zh": "Pikinn Tabiki",
    "country": "French Guiana",
    "country_zh": "French Guiana",
    "country_iso_code": "GF",
    "timezone": "America/Cayenne",
    "latitude": 3.2399,
    "longitude": -54.07697
  },
  {
    "city": "Picard",
    "city_zh": "Picard",
    "country": "French Guiana",
    "country_zh": "French Guiana",
    "country_iso_code": "GF",
    "timezone": "America/Cayenne",
    "latitude": 4.20508,
    "longitude": -52.26066
  },
  {
    "city": "Petit Saut",
    "city_zh": "Petit Saut",
    "country": "French Guiana",
    "country_zh": "French Guiana",
    "country_iso_code": "GF",
    "timezone": "America/Cayenne",
    "latitude": 5.36078,
    "longitude": -53.6795
  },
  {
    "city": "Petit Placer",
    "city_zh": "Petit Placer",
    "country": "French Guiana",
    "country_zh": "French Guiana",
    "country_iso_code": "GF",
    "timezone": "America/Cayenne",
    "latitude": 4.50996,
    "longitude": -52.48616
  },
  {
    "city": "Petit Laussat",
    "city_zh": "Petit Laussat",
    "country": "French Guiana",
    "country_zh": "French Guiana",
    "country_iso_code": "GF",
    "timezone": "America/Cayenne",
    "latitude": 5.45,
    "longitude": -53.88333
  },
  {
    "city": "Petit Fouet",
    "city_zh": "Petit Fouet",
    "country": "French Guiana",
    "country_zh": "French Guiana",
    "country_iso_code": "GF",
    "timezone": "America/Cayenne",
    "latitude": 4.8998,
    "longitude": -54.47364
  },
  {
    "city": "Perdu Temps",
    "city_zh": "Perdu Temps",
    "country": "French Guiana",
    "country_zh": "French Guiana",
    "country_iso_code": "GF",
    "timezone": "America/Cayenne",
    "latitude": 4.99342,
    "longitude": -53.37416
  },
  {
    "city": "Péléa",
    "city_zh": "Péléa",
    "country": "French Guiana",
    "country_zh": "French Guiana",
    "country_iso_code": "GF",
    "timezone": "America/Cayenne",
    "latitude": 3.27251,
    "longitude": -54.11928
  },
  {
    "city": "Pédima",
    "city_zh": "Pédima",
    "country": "French Guiana",
    "country_zh": "French Guiana",
    "country_iso_code": "GF",
    "timezone": "America/Cayenne",
    "latitude": 3.3096,
    "longitude": -54.09386
  },
  {
    "city": "Paul Isnard",
    "city_zh": "Paul Isnard",
    "country": "French Guiana",
    "country_zh": "French Guiana",
    "country_iso_code": "GF",
    "timezone": "America/Cayenne",
    "latitude": 4.77613,
    "longitude": -54.0085
  },
  {
    "city": "Patience",
    "city_zh": "Patience",
    "country": "French Guiana",
    "country_zh": "French Guiana",
    "country_iso_code": "GF",
    "timezone": "America/Cayenne",
    "latitude": 5.22597,
    "longitude": -54.29902
  },
  {
    "city": "Patawa",
    "city_zh": "Patawa",
    "country": "French Guiana",
    "country_zh": "French Guiana",
    "country_iso_code": "GF",
    "timezone": "America/Cayenne",
    "latitude": 4.83851,
    "longitude": -52.51127
  },
  {
    "city": "Pascaud",
    "city_zh": "Pascaud",
    "country": "French Guiana",
    "country_zh": "French Guiana",
    "country_iso_code": "GF",
    "timezone": "America/Cayenne",
    "latitude": 4.8651,
    "longitude": -52.27346
  },
  {
    "city": "Pascal",
    "city_zh": "Pascal",
    "country": "French Guiana",
    "country_zh": "French Guiana",
    "country_iso_code": "GF",
    "timezone": "America/Cayenne",
    "latitude": 4.25584,
    "longitude": -54.38114
  },
  {
    "city": "Parcours Noir",
    "city_zh": "Parcours Noir",
    "country": "French Guiana",
    "country_zh": "French Guiana",
    "country_iso_code": "GF",
    "timezone": "America/Cayenne",
    "latitude": 3.41121,
    "longitude": -52.13394
  },
  {
    "city": "Papaichton",
    "city_zh": "Papaichton",
    "country": "French Guiana",
    "country_zh": "French Guiana",
    "country_iso_code": "GF",
    "timezone": "America/Cayenne",
    "latitude": 3.80579,
    "longitude": -54.14461
  },
  {
    "city": "Palassissi",
    "city_zh": "Palassissi",
    "country": "French Guiana",
    "country_zh": "French Guiana",
    "country_iso_code": "GF",
    "timezone": "America/Cayenne",
    "latitude": 3.28406,
    "longitude": -54.08417
  },
  {
    "city": "Ouaqui",
    "city_zh": "Ouaqui",
    "country": "French Guiana",
    "country_zh": "French Guiana",
    "country_iso_code": "GF",
    "timezone": "America/Cayenne",
    "latitude": 3.45358,
    "longitude": -53.99197
  },
  {
    "city": "Ouanary",
    "city_zh": "Ouanary",
    "country": "French Guiana",
    "country_zh": "French Guiana",
    "country_iso_code": "GF",
    "timezone": "America/Cayenne",
    "latitude": 4.20869,
    "longitude": -51.67408
  },
  {
    "city": "Organabo",
    "city_zh": "Organabo",
    "country": "French Guiana",
    "country_zh": "French Guiana",
    "country_iso_code": "GF",
    "timezone": "America/Cayenne",
    "latitude": 5.54739,
    "longitude": -53.45457
  },
  {
    "city": "Opoya",
    "city_zh": "Opoya",
    "country": "French Guiana",
    "country_zh": "French Guiana",
    "country_iso_code": "GF",
    "timezone": "America/Cayenne",
    "latitude": 3.37217,
    "longitude": -54.05261
  },
  {
    "city": "Nouvelle Alliance",
    "city_zh": "Nouvelle Alliance",
    "country": "French Guiana",
    "country_zh": "French Guiana",
    "country_iso_code": "GF",
    "timezone": "America/Cayenne",
    "latitude": 4.01085,
    "longitude": -51.74078
  },
  {
    "city": "Nouveau Camp",
    "city_zh": "Nouveau Camp",
    "country": "French Guiana",
    "country_zh": "French Guiana",
    "country_iso_code": "GF",
    "timezone": "America/Cayenne",
    "latitude": 5.5637,
    "longitude": -53.91829
  },
  {
    "city": "Niewe Rust",
    "city_zh": "Niewe Rust",
    "country": "French Guiana",
    "country_zh": "French Guiana",
    "country_iso_code": "GF",
    "timezone": "America/Cayenne",
    "latitude": 5.58333,
    "longitude": -55.03333
  },
  {
    "city": "Nasson",
    "city_zh": "Nasson",
    "country": "French Guiana",
    "country_zh": "French Guiana",
    "country_iso_code": "GF",
    "timezone": "America/Cayenne",
    "latitude": 4.81221,
    "longitude": -54.46447
  },
  {
    "city": "Nancibo",
    "city_zh": "Nancibo",
    "country": "French Guiana",
    "country_zh": "French Guiana",
    "country_iso_code": "GF",
    "timezone": "America/Cayenne",
    "latitude": 4.67279,
    "longitude": -52.45584
  },
  {
    "city": "Moyoco",
    "city_zh": "Moyoco",
    "country": "French Guiana",
    "country_zh": "French Guiana",
    "country_iso_code": "GF",
    "timezone": "America/Cayenne",
    "latitude": 5.16891,
    "longitude": -52.65463
  },
  {
    "city": "Moussoué Santi Tabiki",
    "city_zh": "Moussoué Santi Tabiki",
    "country": "French Guiana",
    "country_zh": "French Guiana",
    "country_iso_code": "GF",
    "timezone": "America/Cayenne",
    "latitude": 4.58206,
    "longitude": -54.41925
  },
  {
    "city": "Moucaya",
    "city_zh": "Moucaya",
    "country": "French Guiana",
    "country_zh": "French Guiana",
    "country_iso_code": "GF",
    "timezone": "America/Cayenne",
    "latitude": 5.52418,
    "longitude": -53.38161
  },
  {
    "city": "Morpio",
    "city_zh": "Morpio",
    "country": "French Guiana",
    "country_zh": "French Guiana",
    "country_iso_code": "GF",
    "timezone": "America/Cayenne",
    "latitude": 5.48769,
    "longitude": -53.30643
  },
  {
    "city": "Mont Valérien",
    "city_zh": "Mont Valérien",
    "country": "French Guiana",
    "country_zh": "French Guiana",
    "country_iso_code": "GF",
    "timezone": "America/Cayenne",
    "latitude": 4.9332,
    "longitude": -53.04614
  },
  {
    "city": "Montsinéry-Tonnegrande",
    "city_zh": "Montsinéry-Tonnegrande",
    "country": "French Guiana",
    "country_zh": "French Guiana",
    "country_iso_code": "GF",
    "timezone": "America/Cayenne",
    "latitude": 4.9,
    "longitude": -52.5
  },
  {
    "city": "Rémire-Montjoly",
    "city_zh": "Rémire-Montjoly",
    "country": "French Guiana",
    "country_zh": "French Guiana",
    "country_iso_code": "GF",
    "timezone": "America/Cayenne",
    "latitude": 4.91667,
    "longitude": -52.26667
  },
  {
    "city": "Montagne Sable",
    "city_zh": "Montagne Sable",
    "country": "French Guiana",
    "country_zh": "French Guiana",
    "country_iso_code": "GF",
    "timezone": "America/Cayenne",
    "latitude": 5.5782,
    "longitude": -53.60028
  },
  {
    "city": "Montabo",
    "city_zh": "Montabo",
    "country": "French Guiana",
    "country_zh": "French Guiana",
    "country_iso_code": "GF",
    "timezone": "America/Cayenne",
    "latitude": 4.94344,
    "longitude": -52.30515
  },
  {
    "city": "Mofina",
    "city_zh": "Mofina",
    "country": "French Guiana",
    "country_zh": "French Guiana",
    "country_iso_code": "GF",
    "timezone": "America/Cayenne",
    "latitude": 4.18273,
    "longitude": -54.38283
  },
  {
    "city": "Mompé Soula",
    "city_zh": "Mompé Soula",
    "country": "French Guiana",
    "country_zh": "French Guiana",
    "country_iso_code": "GF",
    "timezone": "America/Cayenne",
    "latitude": 4.55536,
    "longitude": -54.41046
  },
  {
    "city": "Mogès",
    "city_zh": "Mogès",
    "country": "French Guiana",
    "country_zh": "French Guiana",
    "country_iso_code": "GF",
    "timezone": "America/Cayenne",
    "latitude": 4.79318,
    "longitude": -52.34146
  },
  {
    "city": "Ménado",
    "city_zh": "Ménado",
    "country": "French Guiana",
    "country_zh": "French Guiana",
    "country_iso_code": "GF",
    "timezone": "America/Cayenne",
    "latitude": 4.60846,
    "longitude": -52.41377
  },
  {
    "city": "Medeyre",
    "city_zh": "Medeyre",
    "country": "French Guiana",
    "country_zh": "French Guiana",
    "country_iso_code": "GF",
    "timezone": "America/Cayenne",
    "latitude": 5.60615,
    "longitude": -53.65693
  },
  {
    "city": "Mayman",
    "city_zh": "Mayman",
    "country": "French Guiana",
    "country_zh": "French Guiana",
    "country_iso_code": "GF",
    "timezone": "America/Cayenne",
    "latitude": 5.18183,
    "longitude": -54.32462
  },
  {
    "city": "Matoury",
    "city_zh": "Matoury",
    "country": "French Guiana",
    "country_zh": "French Guiana",
    "country_iso_code": "GF",
    "timezone": "America/Cayenne",
    "latitude": 4.84921,
    "longitude": -52.32355
  },
  {
    "city": "Matiti",
    "city_zh": "Matiti",
    "country": "French Guiana",
    "country_zh": "French Guiana",
    "country_iso_code": "GF",
    "timezone": "America/Cayenne",
    "latitude": 5.03313,
    "longitude": -52.57423
  },
  {
    "city": "Mathurin",
    "city_zh": "Mathurin",
    "country": "French Guiana",
    "country_zh": "French Guiana",
    "country_iso_code": "GF",
    "timezone": "America/Cayenne",
    "latitude": 4.52583,
    "longitude": -52.53529
  },
  {
    "city": "Maripa-Village",
    "city_zh": "Maripa-Village",
    "country": "French Guiana",
    "country_zh": "French Guiana",
    "country_iso_code": "GF",
    "timezone": "America/Cayenne",
    "latitude": 3.63333,
    "longitude": -54.05
  },
  {
    "city": "Maripasoula",
    "city_zh": "Maripasoula",
    "country": "French Guiana",
    "country_zh": "French Guiana",
    "country_iso_code": "GF",
    "timezone": "America/Cayenne",
    "latitude": 3.64155,
    "longitude": -54.03167
  },
  {
    "city": "Montagne Maripa",
    "city_zh": "Montagne Maripa",
    "country": "French Guiana",
    "country_zh": "French Guiana",
    "country_iso_code": "GF",
    "timezone": "America/Cayenne",
    "latitude": 4.41667,
    "longitude": -52.33333
  },
  {
    "city": "Maripa",
    "city_zh": "Maripa",
    "country": "French Guiana",
    "country_zh": "French Guiana",
    "country_iso_code": "GF",
    "timezone": "America/Belem",
    "latitude": 3.80332,
    "longitude": -51.88604
  },
  {
    "city": "Marignan",
    "city_zh": "Marignan",
    "country": "French Guiana",
    "country_zh": "French Guiana",
    "country_iso_code": "GF",
    "timezone": "America/Cayenne",
    "latitude": 4.63333,
    "longitude": -52.45
  },
  {
    "city": "Mariani",
    "city_zh": "Mariani",
    "country": "French Guiana",
    "country_zh": "French Guiana",
    "country_iso_code": "GF",
    "timezone": "America/Cayenne",
    "latitude": 5.15203,
    "longitude": -53.6603
  },
  {
    "city": "Mango",
    "city_zh": "Mango",
    "country": "French Guiana",
    "country_zh": "French Guiana",
    "country_iso_code": "GF",
    "timezone": "America/Cayenne",
    "latitude": 4.9334,
    "longitude": -52.3179
  },
  {
    "city": "Mana",
    "city_zh": "Mana",
    "country": "French Guiana",
    "country_zh": "French Guiana",
    "country_iso_code": "GF",
    "timezone": "America/Cayenne",
    "latitude": 5.66906,
    "longitude": -53.77897
  },
  {
    "city": "Mamaribo",
    "city_zh": "Mamaribo",
    "country": "French Guiana",
    "country_zh": "French Guiana",
    "country_iso_code": "GF",
    "timezone": "America/Cayenne",
    "latitude": 5.51091,
    "longitude": -53.35203
  },
  {
    "city": "Maman Valentin",
    "city_zh": "Maman Valentin",
    "country": "French Guiana",
    "country_zh": "French Guiana",
    "country_iso_code": "GF",
    "timezone": "America/Cayenne",
    "latitude": 5.32681,
    "longitude": -53.66106
  },
  {
    "city": "Malterre",
    "city_zh": "Malterre",
    "country": "French Guiana",
    "country_zh": "French Guiana",
    "country_iso_code": "GF",
    "timezone": "America/Cayenne",
    "latitude": 4.92623,
    "longitude": -52.32421
  },
  {
    "city": "Malaïtawa Patatpe",
    "city_zh": "Malaïtawa Patatpe",
    "country": "French Guiana",
    "country_zh": "French Guiana",
    "country_iso_code": "GF",
    "timezone": "America/Cayenne",
    "latitude": 3.1419,
    "longitude": -54.19821
  },
  {
    "city": "Magasin Créole",
    "city_zh": "Magasin Créole",
    "country": "French Guiana",
    "country_zh": "French Guiana",
    "country_iso_code": "GF",
    "timezone": "America/Cayenne",
    "latitude": 4.20284,
    "longitude": -54.39258
  },
  {
    "city": "Mafi",
    "city_zh": "Mafi",
    "country": "French Guiana",
    "country_zh": "French Guiana",
    "country_iso_code": "GF",
    "timezone": "America/Cayenne",
    "latitude": 4.29882,
    "longitude": -52.11448
  },
  {
    "city": "Macrabo",
    "city_zh": "Macrabo",
    "country": "French Guiana",
    "country_zh": "French Guiana",
    "country_iso_code": "GF",
    "timezone": "America/Cayenne",
    "latitude": 4.7921,
    "longitude": -52.3543
  },
  {
    "city": "Macouria",
    "city_zh": "Macouria",
    "country": "French Guiana",
    "country_zh": "French Guiana",
    "country_iso_code": "GF",
    "timezone": "America/Cayenne",
    "latitude": 4.91216,
    "longitude": -52.37432
  },
  {
    "city": "Macoua",
    "city_zh": "Macoua",
    "country": "French Guiana",
    "country_zh": "French Guiana",
    "country_iso_code": "GF",
    "timezone": "America/Cayenne",
    "latitude": 5.53071,
    "longitude": -53.40586
  },
  {
    "city": "Loulouïe",
    "city_zh": "Loulouïe",
    "country": "French Guiana",
    "country_zh": "French Guiana",
    "country_iso_code": "GF",
    "timezone": "America/Cayenne",
    "latitude": 4.86667,
    "longitude": -53.03333
  },
  {
    "city": "Loulette",
    "city_zh": "Loulette",
    "country": "French Guiana",
    "country_zh": "French Guiana",
    "country_iso_code": "GF",
    "timezone": "America/Cayenne",
    "latitude": 5.62437,
    "longitude": -53.87911
  },
  {
    "city": "Loka",
    "city_zh": "Loka",
    "country": "French Guiana",
    "country_zh": "French Guiana",
    "country_iso_code": "GF",
    "timezone": "America/Cayenne",
    "latitude": 3.82985,
    "longitude": -54.19077
  },
  {
    "city": "Lissa",
    "city_zh": "Lissa",
    "country": "French Guiana",
    "country_zh": "French Guiana",
    "country_iso_code": "GF",
    "timezone": "America/Cayenne",
    "latitude": 4.9789,
    "longitude": -54.44005
  },
  {
    "city": "Lipo Lipo",
    "city_zh": "Lipo Lipo",
    "country": "French Guiana",
    "country_zh": "French Guiana",
    "country_iso_code": "GF",
    "timezone": "America/Cayenne",
    "latitude": 3.29802,
    "longitude": -54.05469
  },
  {
    "city": "Lioni",
    "city_zh": "Lioni",
    "country": "French Guiana",
    "country_zh": "French Guiana",
    "country_iso_code": "GF",
    "timezone": "America/Cayenne",
    "latitude": 4.09331,
    "longitude": -54.33977
  },
  {
    "city": "L'Horizon",
    "city_zh": "L'Horizon",
    "country": "French Guiana",
    "country_zh": "French Guiana",
    "country_iso_code": "GF",
    "timezone": "America/Cayenne",
    "latitude": 5.13663,
    "longitude": -53.64884
  },
  {
    "city": "Les Roches",
    "city_zh": "Les Roches",
    "country": "French Guiana",
    "country_zh": "French Guiana",
    "country_iso_code": "GF",
    "timezone": "America/Cayenne",
    "latitude": 5.16216,
    "longitude": -52.63253
  },
  {
    "city": "Les Roches",
    "city_zh": "Les Roches",
    "country": "French Guiana",
    "country_zh": "French Guiana",
    "country_iso_code": "GF",
    "timezone": "America/Cayenne",
    "latitude": 5.15,
    "longitude": -52.63333
  },
  {
    "city": "Les Malgaches",
    "city_zh": "Les Malgaches",
    "country": "French Guiana",
    "country_zh": "French Guiana",
    "country_iso_code": "GF",
    "timezone": "America/Cayenne",
    "latitude": 5.49373,
    "longitude": -54.01179
  },
  {
    "city": "Les Hattes",
    "city_zh": "Les Hattes",
    "country": "French Guiana",
    "country_zh": "French Guiana",
    "country_iso_code": "GF",
    "timezone": "America/Cayenne",
    "latitude": 5.74401,
    "longitude": -53.94365
  },
  {
    "city": "Le Rallye",
    "city_zh": "Le Rallye",
    "country": "French Guiana",
    "country_zh": "French Guiana",
    "country_iso_code": "GF",
    "timezone": "America/Cayenne",
    "latitude": 4.04371,
    "longitude": -52.95712
  },
  {
    "city": "Léonce",
    "city_zh": "Léonce",
    "country": "French Guiana",
    "country_zh": "French Guiana",
    "country_iso_code": "GF",
    "timezone": "America/Cayenne",
    "latitude": 4.53788,
    "longitude": -52.65606
  },
  {
    "city": "L'Enfant Perdu",
    "city_zh": "L'Enfant Perdu",
    "country": "French Guiana",
    "country_zh": "French Guiana",
    "country_iso_code": "GF",
    "timezone": "America/Cayenne",
    "latitude": 3.85797,
    "longitude": -54.21564
  },
  {
    "city": "Le Larivot",
    "city_zh": "Le Larivot",
    "country": "French Guiana",
    "country_zh": "French Guiana",
    "country_iso_code": "GF",
    "timezone": "America/Cayenne",
    "latitude": 4.90255,
    "longitude": -52.35913
  },
  {
    "city": "Le Gallion",
    "city_zh": "Le Gallion",
    "country": "French Guiana",
    "country_zh": "French Guiana",
    "country_iso_code": "GF",
    "timezone": "America/Cayenne",
    "latitude": 4.78314,
    "longitude": -52.429
  },
  {
    "city": "Le Dix-Septième",
    "city_zh": "Le Dix-Septième",
    "country": "French Guiana",
    "country_zh": "French Guiana",
    "country_iso_code": "GF",
    "timezone": "America/Cayenne",
    "latitude": 4.83333,
    "longitude": -52.35
  },
  {
    "city": "Le Califourchon",
    "city_zh": "Le Califourchon",
    "country": "French Guiana",
    "country_zh": "French Guiana",
    "country_iso_code": "GF",
    "timezone": "America/Cayenne",
    "latitude": 4.83922,
    "longitude": -52.34085
  },
  {
    "city": "Le Bourg",
    "city_zh": "Le Bourg",
    "country": "French Guiana",
    "country_zh": "French Guiana",
    "country_iso_code": "GF",
    "timezone": "America/Cayenne",
    "latitude": 5.15293,
    "longitude": -52.64429
  },
  {
    "city": "La Villette",
    "city_zh": "La Villette",
    "country": "French Guiana",
    "country_zh": "French Guiana",
    "country_iso_code": "GF",
    "timezone": "America/Cayenne",
    "latitude": 4.94559,
    "longitude": -53.16157
  },
  {
    "city": "Lavaud",
    "city_zh": "Lavaud",
    "country": "French Guiana",
    "country_zh": "French Guiana",
    "country_iso_code": "GF",
    "timezone": "America/Cayenne",
    "latitude": 3.00291,
    "longitude": -54.16919
  },
  {
    "city": "La Valère",
    "city_zh": "La Valère",
    "country": "French Guiana",
    "country_zh": "French Guiana",
    "country_iso_code": "GF",
    "timezone": "America/Cayenne",
    "latitude": 4.83333,
    "longitude": -55.33333
  },
  {
    "city": "La Valère",
    "city_zh": "La Valère",
    "country": "French Guiana",
    "country_zh": "French Guiana",
    "country_iso_code": "GF",
    "timezone": "America/Cayenne",
    "latitude": 4.83361,
    "longitude": -52.32332
  },
  {
    "city": "Laussat",
    "city_zh": "Laussat",
    "country": "French Guiana",
    "country_zh": "French Guiana",
    "country_iso_code": "GF",
    "timezone": "America/Cayenne",
    "latitude": 5.48835,
    "longitude": -53.55876
  },
  {
    "city": "Langa Tabiki",
    "city_zh": "Langa Tabiki",
    "country": "French Guiana",
    "country_zh": "French Guiana",
    "country_iso_code": "GF",
    "timezone": "America/Cayenne",
    "latitude": 4.9864,
    "longitude": -54.43583
  },
  {
    "city": "Lamonet",
    "city_zh": "Lamonet",
    "country": "French Guiana",
    "country_zh": "French Guiana",
    "country_iso_code": "GF",
    "timezone": "America/Cayenne",
    "latitude": 3.65,
    "longitude": -54.01667
  },
  {
    "city": "La Mirande",
    "city_zh": "La Mirande",
    "country": "French Guiana",
    "country_zh": "French Guiana",
    "country_iso_code": "GF",
    "timezone": "America/Cayenne",
    "latitude": 4.87499,
    "longitude": -52.33772
  },
  {
    "city": "Lamérique",
    "city_zh": "Lamérique",
    "country": "French Guiana",
    "country_zh": "French Guiana",
    "country_iso_code": "GF",
    "timezone": "America/Cayenne",
    "latitude": 3.33333,
    "longitude": -53.0
  },
  {
    "city": "La Madeleine",
    "city_zh": "La Madeleine",
    "country": "French Guiana",
    "country_zh": "French Guiana",
    "country_iso_code": "GF",
    "timezone": "America/Cayenne",
    "latitude": 4.92152,
    "longitude": -52.32341
  },
  {
    "city": "La Levée",
    "city_zh": "La Levée",
    "country": "French Guiana",
    "country_zh": "French Guiana",
    "country_iso_code": "GF",
    "timezone": "America/Cayenne",
    "latitude": 4.83195,
    "longitude": -52.30826
  },
  {
    "city": "La Désirée",
    "city_zh": "La Désirée",
    "country": "French Guiana",
    "country_zh": "French Guiana",
    "country_iso_code": "GF",
    "timezone": "America/Cayenne",
    "latitude": 4.84894,
    "longitude": -52.33952
  },
  {
    "city": "La Dame Blanche",
    "city_zh": "La Dame Blanche",
    "country": "French Guiana",
    "country_zh": "French Guiana",
    "country_iso_code": "GF",
    "timezone": "America/Cayenne",
    "latitude": 4.91942,
    "longitude": -52.36618
  },
  {
    "city": "La Chaumière",
    "city_zh": "La Chaumière",
    "country": "French Guiana",
    "country_zh": "French Guiana",
    "country_iso_code": "GF",
    "timezone": "America/Cayenne",
    "latitude": 4.88441,
    "longitude": -52.3587
  },
  {
    "city": "La Brande",
    "city_zh": "La Brande",
    "country": "French Guiana",
    "country_zh": "French Guiana",
    "country_iso_code": "GF",
    "timezone": "America/Cayenne",
    "latitude": 4.85952,
    "longitude": -52.31824
  },
  {
    "city": "La Boue",
    "city_zh": "La Boue",
    "country": "French Guiana",
    "country_zh": "French Guiana",
    "country_iso_code": "GF",
    "timezone": "America/Cayenne",
    "latitude": 4.14473,
    "longitude": -52.46861
  },
  {
    "city": "Kwassié",
    "city_zh": "Kwassié",
    "country": "French Guiana",
    "country_zh": "French Guiana",
    "country_iso_code": "GF",
    "timezone": "America/Cayenne",
    "latitude": 4.95098,
    "longitude": -54.43633
  },
  {
    "city": "Kourou",
    "city_zh": "库鲁",
    "country": "French Guiana",
    "country_zh": "French Guiana",
    "country_iso_code": "GF",
    "timezone": "America/Cayenne",
    "latitude": 5.16281,
    "longitude": -52.64265
  },
  {
    "city": "Kouman-Kouman",
    "city_zh": "Kouman-Kouman",
    "country": "French Guiana",
    "country_zh": "French Guiana",
    "country_iso_code": "GF",
    "timezone": "America/Cayenne",
    "latitude": 4.035,
    "longitude": -51.68774
  },
  {
    "city": "Couachinana",
    "city_zh": "Couachinana",
    "country": "French Guiana",
    "country_zh": "French Guiana",
    "country_iso_code": "GF",
    "timezone": "America/Cayenne",
    "latitude": 5.62511,
    "longitude": -53.69794
  },
  {
    "city": "Couachi",
    "city_zh": "Couachi",
    "country": "French Guiana",
    "country_zh": "French Guiana",
    "country_iso_code": "GF",
    "timezone": "America/Cayenne",
    "latitude": 5.61862,
    "longitude": -53.69807
  },
  {
    "city": "Kormontibo",
    "city_zh": "Kormontibo",
    "country": "French Guiana",
    "country_zh": "French Guiana",
    "country_iso_code": "GF",
    "timezone": "America/Cayenne",
    "latitude": 3.80415,
    "longitude": -54.14118
  },
  {
    "city": "Kofi Kamiza",
    "city_zh": "Kofi Kamiza",
    "country": "French Guiana",
    "country_zh": "French Guiana",
    "country_iso_code": "GF",
    "timezone": "America/Cayenne",
    "latitude": 4.18333,
    "longitude": -54.4
  },
  {
    "city": "Kepioudou",
    "city_zh": "Kepioudou",
    "country": "French Guiana",
    "country_zh": "French Guiana",
    "country_iso_code": "GF",
    "timezone": "America/Cayenne",
    "latitude": 4.97869,
    "longitude": -54.43867
  },
  {
    "city": "Kaw",
    "city_zh": "Kaw",
    "country": "French Guiana",
    "country_zh": "French Guiana",
    "country_iso_code": "GF",
    "timezone": "America/Cayenne",
    "latitude": 4.4865,
    "longitude": -52.03706
  },
  {
    "city": "Cariacou",
    "city_zh": "Cariacou",
    "country": "French Guiana",
    "country_zh": "French Guiana",
    "country_iso_code": "GF",
    "timezone": "America/Cayenne",
    "latitude": 4.81173,
    "longitude": -53.17124
  },
  {
    "city": "Kantali",
    "city_zh": "Kantali",
    "country": "French Guiana",
    "country_zh": "French Guiana",
    "country_iso_code": "GF",
    "timezone": "America/Cayenne",
    "latitude": 5.41667,
    "longitude": -54.31667
  },
  {
    "city": "Kagnouma",
    "city_zh": "Kagnouma",
    "country": "French Guiana",
    "country_zh": "French Guiana",
    "country_iso_code": "GF",
    "timezone": "America/Cayenne",
    "latitude": 2.62636,
    "longitude": -52.54696
  },
  {
    "city": "Junique",
    "city_zh": "Junique",
    "country": "French Guiana",
    "country_zh": "French Guiana",
    "country_iso_code": "GF",
    "timezone": "America/Cayenne",
    "latitude": 5.16667,
    "longitude": -54.03333
  },
  {
    "city": "John",
    "city_zh": "John",
    "country": "French Guiana",
    "country_zh": "French Guiana",
    "country_iso_code": "GF",
    "timezone": "America/Cayenne",
    "latitude": 4.96857,
    "longitude": -53.57707
  },
  {
    "city": "Jojo",
    "city_zh": "Jojo",
    "country": "French Guiana",
    "country_zh": "French Guiana",
    "country_iso_code": "GF",
    "timezone": "America/Cayenne",
    "latitude": 5.40638,
    "longitude": -52.99943
  },
  {
    "city": "Javouhey",
    "city_zh": "Javouhey",
    "country": "French Guiana",
    "country_zh": "French Guiana",
    "country_iso_code": "GF",
    "timezone": "America/Cayenne",
    "latitude": 5.60659,
    "longitude": -53.81855
  },
  {
    "city": "Janvier",
    "city_zh": "Janvier",
    "country": "French Guiana",
    "country_zh": "French Guiana",
    "country_iso_code": "GF",
    "timezone": "America/Cayenne",
    "latitude": 5.16667,
    "longitude": -54.15
  },
  {
    "city": "Jalbot",
    "city_zh": "Jalbot",
    "country": "French Guiana",
    "country_zh": "French Guiana",
    "country_iso_code": "GF",
    "timezone": "America/Cayenne",
    "latitude": 4.19992,
    "longitude": -52.62455
  },
  {
    "city": "Itousanseng",
    "city_zh": "Itousanseng",
    "country": "French Guiana",
    "country_zh": "French Guiana",
    "country_iso_code": "GF",
    "timezone": "America/Cayenne",
    "latitude": 2.19635,
    "longitude": -52.91891
  },
  {
    "city": "Iracoubo",
    "city_zh": "Iracoubo",
    "country": "French Guiana",
    "country_zh": "French Guiana",
    "country_iso_code": "GF",
    "timezone": "America/Cayenne",
    "latitude": 5.47952,
    "longitude": -53.20524
  },
  {
    "city": "Îlet Tortue",
    "city_zh": "Îlet Tortue",
    "country": "French Guiana",
    "country_zh": "French Guiana",
    "country_iso_code": "GF",
    "timezone": "America/Cayenne",
    "latitude": 5.2,
    "longitude": -52.96667
  },
  {
    "city": "Îlet Malouin",
    "city_zh": "Îlet Malouin",
    "country": "French Guiana",
    "country_zh": "French Guiana",
    "country_iso_code": "GF",
    "timezone": "America/Cayenne",
    "latitude": 4.9296,
    "longitude": -52.3335
  },
  {
    "city": "Îlet Lézard",
    "city_zh": "Îlet Lézard",
    "country": "French Guiana",
    "country_zh": "French Guiana",
    "country_iso_code": "GF",
    "timezone": "America/Cayenne",
    "latitude": 5.04863,
    "longitude": -53.79214
  },
  {
    "city": "Guisan Bourg",
    "city_zh": "Guisan Bourg",
    "country": "French Guiana",
    "country_zh": "French Guiana",
    "country_iso_code": "GF",
    "timezone": "America/Cayenne",
    "latitude": 4.4085,
    "longitude": -51.93097
  },
  {
    "city": "Guatemala",
    "city_zh": "Guatemala",
    "country": "French Guiana",
    "country_zh": "French Guiana",
    "country_iso_code": "GF",
    "timezone": "America/Cayenne",
    "latitude": 5.14421,
    "longitude": -52.62763
  },
  {
    "city": "Grosse Roche",
    "city_zh": "Grosse Roche",
    "country": "French Guiana",
    "country_zh": "French Guiana",
    "country_iso_code": "GF",
    "timezone": "America/Cayenne",
    "latitude": 5.25053,
    "longitude": -53.41158
  },
  {
    "city": "Grand Village",
    "city_zh": "Grand Village",
    "country": "French Guiana",
    "country_zh": "French Guiana",
    "country_iso_code": "GF",
    "timezone": "America/Cayenne",
    "latitude": 5.58059,
    "longitude": -53.72062
  },
  {
    "city": "Grand-Santi",
    "city_zh": "Grand-Santi",
    "country": "French Guiana",
    "country_zh": "French Guiana",
    "country_iso_code": "GF",
    "timezone": "America/Cayenne",
    "latitude": 4.27295,
    "longitude": -54.38146
  },
  {
    "city": "Grand Marquis",
    "city_zh": "Grand Marquis",
    "country": "French Guiana",
    "country_zh": "French Guiana",
    "country_iso_code": "GF",
    "timezone": "America/Cayenne",
    "latitude": 3.72409,
    "longitude": -53.57996
  },
  {
    "city": "Grand Lac",
    "city_zh": "Grand Lac",
    "country": "French Guiana",
    "country_zh": "French Guiana",
    "country_iso_code": "GF",
    "timezone": "America/Cayenne",
    "latitude": 4.81724,
    "longitude": -53.70511
  },
  {
    "city": "Grand Siton",
    "city_zh": "Grand Siton",
    "country": "French Guiana",
    "country_zh": "French Guiana",
    "country_iso_code": "GF",
    "timezone": "America/Cayenne",
    "latitude": 4.28002,
    "longitude": -54.38761
  },
  {
    "city": "Grand Carbet",
    "city_zh": "Grand Carbet",
    "country": "French Guiana",
    "country_zh": "French Guiana",
    "country_iso_code": "GF",
    "timezone": "America/Cayenne",
    "latitude": 3.65,
    "longitude": -53.83333
  },
  {
    "city": "Grand Bala",
    "city_zh": "Grand Bala",
    "country": "French Guiana",
    "country_zh": "French Guiana",
    "country_iso_code": "GF",
    "timezone": "America/Cayenne",
    "latitude": 4.393,
    "longitude": -54.30337
  },
  {
    "city": "Godebert",
    "city_zh": "Godebert",
    "country": "French Guiana",
    "country_zh": "French Guiana",
    "country_iso_code": "GF",
    "timezone": "America/Cayenne",
    "latitude": 5.52025,
    "longitude": -53.96003
  },
  {
    "city": "Gibelin",
    "city_zh": "Gibelin",
    "country": "French Guiana",
    "country_zh": "French Guiana",
    "country_iso_code": "GF",
    "timezone": "America/Cayenne",
    "latitude": 4.8527,
    "longitude": -52.32436
  },
  {
    "city": "Gaston",
    "city_zh": "Gaston",
    "country": "French Guiana",
    "country_zh": "French Guiana",
    "country_iso_code": "GF",
    "timezone": "America/Cayenne",
    "latitude": 4.28677,
    "longitude": -52.12573
  },
  {
    "city": "Gaa Kaba",
    "city_zh": "Gaa Kaba",
    "country": "French Guiana",
    "country_zh": "French Guiana",
    "country_iso_code": "GF",
    "timezone": "America/Cayenne",
    "latitude": 4.48869,
    "longitude": -54.44221
  },
  {
    "city": "Franconie",
    "city_zh": "Franconie",
    "country": "French Guiana",
    "country_zh": "French Guiana",
    "country_iso_code": "GF",
    "timezone": "America/Cayenne",
    "latitude": 4.9688,
    "longitude": -53.12506
  },
  {
    "city": "Fracas",
    "city_zh": "Fracas",
    "country": "French Guiana",
    "country_zh": "French Guiana",
    "country_iso_code": "GF",
    "timezone": "America/Cayenne",
    "latitude": 4.75953,
    "longitude": -53.6809
  },
  {
    "city": "Fourgassié",
    "city_zh": "Fourgassié",
    "country": "French Guiana",
    "country_zh": "French Guiana",
    "country_iso_code": "GF",
    "timezone": "America/Cayenne",
    "latitude": 4.62509,
    "longitude": -52.30961
  },
  {
    "city": "Fortuné",
    "city_zh": "Fortuné",
    "country": "French Guiana",
    "country_zh": "French Guiana",
    "country_iso_code": "GF",
    "timezone": "America/Cayenne",
    "latitude": 4.55829,
    "longitude": -52.29841
  },
  {
    "city": "Florissante",
    "city_zh": "Florissante",
    "country": "French Guiana",
    "country_zh": "French Guiana",
    "country_iso_code": "GF",
    "timezone": "America/Cayenne",
    "latitude": 3.39059,
    "longitude": -52.8991
  },
  {
    "city": "Flèche",
    "city_zh": "Flèche",
    "country": "French Guiana",
    "country_zh": "French Guiana",
    "country_iso_code": "GF",
    "timezone": "America/Cayenne",
    "latitude": 5.52743,
    "longitude": -53.38794
  },
  {
    "city": "Filon Doyle",
    "city_zh": "Filon Doyle",
    "country": "French Guiana",
    "country_zh": "French Guiana",
    "country_iso_code": "GF",
    "timezone": "America/Cayenne",
    "latitude": 4.50871,
    "longitude": -52.46167
  },
  {
    "city": "Faubourg L'Abri",
    "city_zh": "Faubourg L'Abri",
    "country": "French Guiana",
    "country_zh": "French Guiana",
    "country_iso_code": "GF",
    "timezone": "America/Cayenne",
    "latitude": 4.93604,
    "longitude": -52.32177
  },
  {
    "city": "Farnous",
    "city_zh": "Farnous",
    "country": "French Guiana",
    "country_zh": "French Guiana",
    "country_iso_code": "GF",
    "timezone": "America/Cayenne",
    "latitude": 4.94813,
    "longitude": -52.42267
  },
  {
    "city": "Mine Espérance",
    "city_zh": "Mine Espérance",
    "country": "French Guiana",
    "country_zh": "French Guiana",
    "country_iso_code": "GF",
    "timezone": "America/Cayenne",
    "latitude": 4.65059,
    "longitude": -54.31377
  },
  {
    "city": "Entoucas",
    "city_zh": "Entoucas",
    "country": "French Guiana",
    "country_zh": "French Guiana",
    "country_iso_code": "GF",
    "timezone": "America/Cayenne",
    "latitude": 3.48333,
    "longitude": -54.01667
  },
  {
    "city": "Enfin",
    "city_zh": "Enfin",
    "country": "French Guiana",
    "country_zh": "French Guiana",
    "country_iso_code": "GF",
    "timezone": "America/Cayenne",
    "latitude": 4.72738,
    "longitude": -53.94514
  },
  {
    "city": "Elaé",
    "city_zh": "Elaé",
    "country": "French Guiana",
    "country_zh": "French Guiana",
    "country_iso_code": "GF",
    "timezone": "America/Cayenne",
    "latitude": 3.46571,
    "longitude": -54.00567
  },
  {
    "city": "Edwin",
    "city_zh": "Edwin",
    "country": "French Guiana",
    "country_zh": "French Guiana",
    "country_iso_code": "GF",
    "timezone": "America/Cayenne",
    "latitude": 4.68604,
    "longitude": -53.88965
  },
  {
    "city": "Édouard",
    "city_zh": "Édouard",
    "country": "French Guiana",
    "country_zh": "French Guiana",
    "country_iso_code": "GF",
    "timezone": "America/Cayenne",
    "latitude": 3.39569,
    "longitude": -53.8299
  },
  {
    "city": "Edmond",
    "city_zh": "Edmond",
    "country": "French Guiana",
    "country_zh": "French Guiana",
    "country_iso_code": "GF",
    "timezone": "America/Cayenne",
    "latitude": 4.60174,
    "longitude": -52.4443
  },
  {
    "city": "Eau Coulie",
    "city_zh": "Eau Coulie",
    "country": "French Guiana",
    "country_zh": "French Guiana",
    "country_iso_code": "GF",
    "timezone": "America/Cayenne",
    "latitude": 4.93333,
    "longitude": -52.31667
  },
  {
    "city": "Eau Blanche",
    "city_zh": "Eau Blanche",
    "country": "French Guiana",
    "country_zh": "French Guiana",
    "country_iso_code": "GF",
    "timezone": "America/Cayenne",
    "latitude": 5.06667,
    "longitude": -53.48333
  },
  {
    "city": "Drague",
    "city_zh": "Drague",
    "country": "French Guiana",
    "country_zh": "French Guiana",
    "country_iso_code": "GF",
    "timezone": "America/Cayenne",
    "latitude": 4.97161,
    "longitude": -53.17605
  },
  {
    "city": "Dorlin",
    "city_zh": "Dorlin",
    "country": "French Guiana",
    "country_zh": "French Guiana",
    "country_iso_code": "GF",
    "timezone": "America/Cayenne",
    "latitude": 3.74925,
    "longitude": -53.55786
  },
  {
    "city": "Doglis",
    "city_zh": "Doglis",
    "country": "French Guiana",
    "country_zh": "French Guiana",
    "country_iso_code": "GF",
    "timezone": "America/Cayenne",
    "latitude": 3.79428,
    "longitude": -54.12548
  },
  {
    "city": "Divalon",
    "city_zh": "Divalon",
    "country": "French Guiana",
    "country_zh": "French Guiana",
    "country_iso_code": "GF",
    "timezone": "America/Cayenne",
    "latitude": 4.75,
    "longitude": -53.88333
  },
  {
    "city": "Dieu Merci",
    "city_zh": "Dieu Merci",
    "country": "French Guiana",
    "country_zh": "French Guiana",
    "country_iso_code": "GF",
    "timezone": "America/Cayenne",
    "latitude": 4.79201,
    "longitude": -53.26658
  },
  {
    "city": "Dieudonné",
    "city_zh": "Dieudonné",
    "country": "French Guiana",
    "country_zh": "French Guiana",
    "country_iso_code": "GF",
    "timezone": "America/Cayenne",
    "latitude": 4.9235,
    "longitude": -53.38793
  },
  {
    "city": "Diamant",
    "city_zh": "Diamant",
    "country": "French Guiana",
    "country_zh": "French Guiana",
    "country_iso_code": "GF",
    "timezone": "America/Cayenne",
    "latitude": 5.16378,
    "longitude": -52.64095
  },
  {
    "city": "Devez",
    "city_zh": "Devez",
    "country": "French Guiana",
    "country_zh": "French Guiana",
    "country_iso_code": "GF",
    "timezone": "America/Cayenne",
    "latitude": 4.51667,
    "longitude": -52.43333
  },
  {
    "city": "Deux Jours",
    "city_zh": "Deux Jours",
    "country": "French Guiana",
    "country_zh": "French Guiana",
    "country_iso_code": "GF",
    "timezone": "America/Cayenne",
    "latitude": 5.01667,
    "longitude": -53.15
  },
  {
    "city": "Deux Branches",
    "city_zh": "Deux Branches",
    "country": "French Guiana",
    "country_zh": "French Guiana",
    "country_iso_code": "GF",
    "timezone": "America/Cayenne",
    "latitude": 4.8781,
    "longitude": -52.99238
  },
  {
    "city": "Déta",
    "city_zh": "Déta",
    "country": "French Guiana",
    "country_zh": "French Guiana",
    "country_iso_code": "GF",
    "timezone": "America/Cayenne",
    "latitude": 3.66048,
    "longitude": -53.58096
  },
  {
    "city": "Désirade",
    "city_zh": "Désirade",
    "country": "French Guiana",
    "country_zh": "French Guiana",
    "country_iso_code": "GF",
    "timezone": "America/Cayenne",
    "latitude": 4.73089,
    "longitude": -53.90752
  },
  {
    "city": "Délices",
    "city_zh": "Délices",
    "country": "French Guiana",
    "country_zh": "French Guiana",
    "country_iso_code": "GF",
    "timezone": "America/Cayenne",
    "latitude": 4.73678,
    "longitude": -53.76503
  },
  {
    "city": "Dégrad Tamanoir",
    "city_zh": "Dégrad Tamanoir",
    "country": "French Guiana",
    "country_zh": "French Guiana",
    "country_iso_code": "GF",
    "timezone": "America/Cayenne",
    "latitude": 5.41667,
    "longitude": -53.4
  },
  {
    "city": "Dégrad Savane",
    "city_zh": "Dégrad Savane",
    "country": "French Guiana",
    "country_zh": "French Guiana",
    "country_iso_code": "GF",
    "timezone": "America/Cayenne",
    "latitude": 5.48707,
    "longitude": -53.24059
  },
  {
    "city": "Dégrad Saramaka",
    "city_zh": "Dégrad Saramaka",
    "country": "French Guiana",
    "country_zh": "French Guiana",
    "country_iso_code": "GF",
    "timezone": "America/Cayenne",
    "latitude": 5.01667,
    "longitude": -52.7
  },
  {
    "city": "Dégrad Saint-Pierre",
    "city_zh": "Dégrad Saint-Pierre",
    "country": "French Guiana",
    "country_zh": "French Guiana",
    "country_iso_code": "GF",
    "timezone": "America/Cayenne",
    "latitude": 3.11667,
    "longitude": -52.65
  },
  {
    "city": "Patou",
    "city_zh": "Patou",
    "country": "French Guiana",
    "country_zh": "French Guiana",
    "country_iso_code": "GF",
    "timezone": "America/Cayenne",
    "latitude": 5.31044,
    "longitude": -54.1836
  },
  {
    "city": "Dégrad Pierre",
    "city_zh": "Dégrad Pierre",
    "country": "French Guiana",
    "country_zh": "French Guiana",
    "country_iso_code": "GF",
    "timezone": "America/Cayenne",
    "latitude": 4.95,
    "longitude": -53.18333
  },
  {
    "city": "Dégrad Perdu Temps",
    "city_zh": "Dégrad Perdu Temps",
    "country": "French Guiana",
    "country_zh": "French Guiana",
    "country_iso_code": "GF",
    "timezone": "America/Cayenne",
    "latitude": 5.05,
    "longitude": -53.4
  },
  {
    "city": "Dégrad Pascal",
    "city_zh": "Dégrad Pascal",
    "country": "French Guiana",
    "country_zh": "French Guiana",
    "country_iso_code": "GF",
    "timezone": "America/Cayenne",
    "latitude": 5.41667,
    "longitude": -53.35
  },
  {
    "city": "Dégrad Nicole",
    "city_zh": "Dégrad Nicole",
    "country": "French Guiana",
    "country_zh": "French Guiana",
    "country_iso_code": "GF",
    "timezone": "America/Cayenne",
    "latitude": 3.55,
    "longitude": -53.75
  },
  {
    "city": "Dégrad Ménado",
    "city_zh": "Dégrad Ménado",
    "country": "French Guiana",
    "country_zh": "French Guiana",
    "country_iso_code": "GF",
    "timezone": "America/Cayenne",
    "latitude": 4.6242,
    "longitude": -52.4251
  },
  {
    "city": "Dégrad Maman Piraye",
    "city_zh": "Dégrad Maman Piraye",
    "country": "French Guiana",
    "country_zh": "French Guiana",
    "country_iso_code": "GF",
    "timezone": "America/Cayenne",
    "latitude": 5.4,
    "longitude": -53.31667
  },
  {
    "city": "Dégrad la Boue",
    "city_zh": "Dégrad la Boue",
    "country": "French Guiana",
    "country_zh": "French Guiana",
    "country_iso_code": "GF",
    "timezone": "America/Cayenne",
    "latitude": 5.38333,
    "longitude": -53.43333
  },
  {
    "city": "Dégrad Jason",
    "city_zh": "Dégrad Jason",
    "country": "French Guiana",
    "country_zh": "French Guiana",
    "country_iso_code": "GF",
    "timezone": "America/Cayenne",
    "latitude": 5.01667,
    "longitude": -52.71667
  },
  {
    "city": "Dégrad Janson",
    "city_zh": "Dégrad Janson",
    "country": "French Guiana",
    "country_zh": "French Guiana",
    "country_iso_code": "GF",
    "timezone": "America/Cayenne",
    "latitude": 5.01667,
    "longitude": -52.71667
  },
  {
    "city": "Dégrad Jalbot",
    "city_zh": "Dégrad Jalbot",
    "country": "French Guiana",
    "country_zh": "French Guiana",
    "country_iso_code": "GF",
    "timezone": "America/Cayenne",
    "latitude": 4.2,
    "longitude": -52.63333
  },
  {
    "city": "Dégrad Henri",
    "city_zh": "Dégrad Henri",
    "country": "French Guiana",
    "country_zh": "French Guiana",
    "country_iso_code": "GF",
    "timezone": "America/Cayenne",
    "latitude": 5.41667,
    "longitude": -53.13333
  },
  {
    "city": "Dégrad Génipa",
    "city_zh": "Dégrad Génipa",
    "country": "French Guiana",
    "country_zh": "French Guiana",
    "country_iso_code": "GF",
    "timezone": "America/Cayenne",
    "latitude": 5.36667,
    "longitude": -53.43333
  },
  {
    "city": "Dégrad Fromager",
    "city_zh": "Dégrad Fromager",
    "country": "French Guiana",
    "country_zh": "French Guiana",
    "country_iso_code": "GF",
    "timezone": "America/Cayenne",
    "latitude": 5.23333,
    "longitude": -52.98333
  },
  {
    "city": "Dégrad Florian",
    "city_zh": "Dégrad Florian",
    "country": "French Guiana",
    "country_zh": "French Guiana",
    "country_iso_code": "GF",
    "timezone": "America/Cayenne",
    "latitude": 5.41667,
    "longitude": -53.43333
  },
  {
    "city": "Dégrad des Cannes",
    "city_zh": "Dégrad des Cannes",
    "country": "French Guiana",
    "country_zh": "French Guiana",
    "country_iso_code": "GF",
    "timezone": "America/Cayenne",
    "latitude": 4.85645,
    "longitude": -52.27481
  },
  {
    "city": "Dégrad Corrèze",
    "city_zh": "Dégrad Corrèze",
    "country": "French Guiana",
    "country_zh": "French Guiana",
    "country_iso_code": "GF",
    "timezone": "America/Cayenne",
    "latitude": 4.51893,
    "longitude": -52.32188
  },
  {
    "city": "Dégrad Canard",
    "city_zh": "Dégrad Canard",
    "country": "French Guiana",
    "country_zh": "French Guiana",
    "country_iso_code": "GF",
    "timezone": "America/Cayenne",
    "latitude": 5.64127,
    "longitude": -53.72712
  },
  {
    "city": "Dégrad Brigette",
    "city_zh": "Dégrad Brigette",
    "country": "French Guiana",
    "country_zh": "French Guiana",
    "country_iso_code": "GF",
    "timezone": "America/Cayenne",
    "latitude": 4.28333,
    "longitude": -52.61667
  },
  {
    "city": "Dégrad Balata",
    "city_zh": "Dégrad Balata",
    "country": "French Guiana",
    "country_zh": "French Guiana",
    "country_iso_code": "GF",
    "timezone": "America/Cayenne",
    "latitude": 5.0,
    "longitude": -52.68333
  },
  {
    "city": "Dégourdi",
    "city_zh": "Dégourdi",
    "country": "French Guiana",
    "country_zh": "French Guiana",
    "country_iso_code": "GF",
    "timezone": "America/Cayenne",
    "latitude": 4.97124,
    "longitude": -53.09125
  },
  {
    "city": "Dadanki",
    "city_zh": "Dadanki",
    "country": "French Guiana",
    "country_zh": "French Guiana",
    "country_iso_code": "GF",
    "timezone": "America/Cayenne",
    "latitude": 4.37543,
    "longitude": -54.36846
  },
  {
    "city": "Dagou Edé",
    "city_zh": "Dagou Edé",
    "country": "French Guiana",
    "country_zh": "French Guiana",
    "country_iso_code": "GF",
    "timezone": "America/Cayenne",
    "latitude": 4.16667,
    "longitude": -52.26667
  },
  {
    "city": "Crique Jacques",
    "city_zh": "Crique Jacques",
    "country": "French Guiana",
    "country_zh": "French Guiana",
    "country_iso_code": "GF",
    "timezone": "America/Cayenne",
    "latitude": 5.65221,
    "longitude": -53.83224
  },
  {
    "city": "Crique Anguille",
    "city_zh": "Crique Anguille",
    "country": "French Guiana",
    "country_zh": "French Guiana",
    "country_iso_code": "GF",
    "timezone": "America/Cayenne",
    "latitude": 4.83265,
    "longitude": -52.50966
  },
  {
    "city": "Couriège",
    "city_zh": "Couriège",
    "country": "French Guiana",
    "country_zh": "French Guiana",
    "country_iso_code": "GF",
    "timezone": "America/Cayenne",
    "latitude": 4.80505,
    "longitude": -53.29923
  },
  {
    "city": "Counamama",
    "city_zh": "Counamama",
    "country": "French Guiana",
    "country_zh": "French Guiana",
    "country_iso_code": "GF",
    "timezone": "America/Cayenne",
    "latitude": 5.45004,
    "longitude": -53.13625
  },
  {
    "city": "Couasse",
    "city_zh": "Couasse",
    "country": "French Guiana",
    "country_zh": "French Guiana",
    "country_iso_code": "GF",
    "timezone": "America/Cayenne",
    "latitude": 4.77685,
    "longitude": -53.28452
  },
  {
    "city": "Coswine",
    "city_zh": "Coswine",
    "country": "French Guiana",
    "country_zh": "French Guiana",
    "country_iso_code": "GF",
    "timezone": "America/Cayenne",
    "latitude": 5.64877,
    "longitude": -53.86345
  },
  {
    "city": "Corossony",
    "city_zh": "Corossony",
    "country": "French Guiana",
    "country_zh": "French Guiana",
    "country_iso_code": "GF",
    "timezone": "America/Cayenne",
    "latitude": 5.41668,
    "longitude": -53.03179
  },
  {
    "city": "Coralie",
    "city_zh": "Coralie",
    "country": "French Guiana",
    "country_zh": "French Guiana",
    "country_iso_code": "GF",
    "timezone": "America/Cayenne",
    "latitude": 4.51067,
    "longitude": -52.35119
  },
  {
    "city": "Combo",
    "city_zh": "Combo",
    "country": "French Guiana",
    "country_zh": "French Guiana",
    "country_iso_code": "GF",
    "timezone": "America/Cayenne",
    "latitude": 4.88336,
    "longitude": -52.31765
  },
  {
    "city": "Combi",
    "city_zh": "Combi",
    "country": "French Guiana",
    "country_zh": "French Guiana",
    "country_iso_code": "GF",
    "timezone": "America/Cayenne",
    "latitude": 5.34328,
    "longitude": -52.93952
  },
  {
    "city": "Cogneau",
    "city_zh": "Cogneau",
    "country": "French Guiana",
    "country_zh": "French Guiana",
    "country_iso_code": "GF",
    "timezone": "America/Cayenne",
    "latitude": 4.86989,
    "longitude": -52.3235
  },
  {
    "city": "Coco",
    "city_zh": "Coco",
    "country": "French Guiana",
    "country_zh": "French Guiana",
    "country_iso_code": "GF",
    "timezone": "America/Cayenne",
    "latitude": 4.3049,
    "longitude": -52.11705
  },
  {
    "city": "Claude",
    "city_zh": "Claude",
    "country": "French Guiana",
    "country_zh": "French Guiana",
    "country_iso_code": "GF",
    "timezone": "America/Cayenne",
    "latitude": 4.93482,
    "longitude": -53.41339
  },
  {
    "city": "Citron",
    "city_zh": "Citron",
    "country": "French Guiana",
    "country_zh": "French Guiana",
    "country_iso_code": "GF",
    "timezone": "America/Cayenne",
    "latitude": 4.93617,
    "longitude": -53.42123
  },
  {
    "city": "Citron",
    "city_zh": "Citron",
    "country": "French Guiana",
    "country_zh": "French Guiana",
    "country_iso_code": "GF",
    "timezone": "America/Cayenne",
    "latitude": 4.7403,
    "longitude": -53.96231
  },
  {
    "city": "Cité Thémire",
    "city_zh": "Cité Thémire",
    "country": "French Guiana",
    "country_zh": "French Guiana",
    "country_iso_code": "GF",
    "timezone": "America/Cayenne",
    "latitude": 4.93446,
    "longitude": -52.32082
  },
  {
    "city": "Cité Rebard",
    "city_zh": "Cité Rebard",
    "country": "French Guiana",
    "country_zh": "French Guiana",
    "country_iso_code": "GF",
    "timezone": "America/Cayenne",
    "latitude": 4.94135,
    "longitude": -52.31848
  },
  {
    "city": "Cité Quintius",
    "city_zh": "Cité Quintius",
    "country": "French Guiana",
    "country_zh": "French Guiana",
    "country_iso_code": "GF",
    "timezone": "America/Cayenne",
    "latitude": 4.93007,
    "longitude": -52.31809
  },
  {
    "city": "Cité Pasteur",
    "city_zh": "Cité Pasteur",
    "country": "French Guiana",
    "country_zh": "French Guiana",
    "country_iso_code": "GF",
    "timezone": "America/Cayenne",
    "latitude": 4.93981,
    "longitude": -52.31293
  },
  {
    "city": "Cité Pascaline",
    "city_zh": "Cité Pascaline",
    "country": "French Guiana",
    "country_zh": "French Guiana",
    "country_iso_code": "GF",
    "timezone": "America/Cayenne",
    "latitude": 4.92452,
    "longitude": -52.31563
  },
  {
    "city": "Cité Nzilla",
    "city_zh": "Cité Nzilla",
    "country": "French Guiana",
    "country_zh": "French Guiana",
    "country_iso_code": "GF",
    "timezone": "America/Cayenne",
    "latitude": 4.93696,
    "longitude": -52.32334
  },
  {
    "city": "Cité Mirza",
    "city_zh": "Cité Mirza",
    "country": "French Guiana",
    "country_zh": "French Guiana",
    "country_iso_code": "GF",
    "timezone": "America/Cayenne",
    "latitude": 4.93517,
    "longitude": -52.32357
  },
  {
    "city": "Cité Laurie",
    "city_zh": "Cité Laurie",
    "country": "French Guiana",
    "country_zh": "French Guiana",
    "country_iso_code": "GF",
    "timezone": "America/Cayenne",
    "latitude": 4.93157,
    "longitude": -52.31547
  },
  {
    "city": "Cité Lafaurie",
    "city_zh": "Cité Lafaurie",
    "country": "French Guiana",
    "country_zh": "French Guiana",
    "country_iso_code": "GF",
    "timezone": "America/Cayenne",
    "latitude": 4.93284,
    "longitude": -52.32309
  },
  {
    "city": "Cité Jean-François",
    "city_zh": "Cité Jean-François",
    "country": "French Guiana",
    "country_zh": "French Guiana",
    "country_iso_code": "GF",
    "timezone": "America/Cayenne",
    "latitude": 4.91667,
    "longitude": -52.31667
  },
  {
    "city": "Cité Homat",
    "city_zh": "Cité Homat",
    "country": "French Guiana",
    "country_zh": "French Guiana",
    "country_iso_code": "GF",
    "timezone": "America/Cayenne",
    "latitude": 4.91667,
    "longitude": -52.31667
  },
  {
    "city": "Cité Eau Lisette",
    "city_zh": "Cité Eau Lisette",
    "country": "French Guiana",
    "country_zh": "French Guiana",
    "country_iso_code": "GF",
    "timezone": "America/Cayenne",
    "latitude": 4.92779,
    "longitude": -52.321
  },
  {
    "city": "Cité des Palétuviers",
    "city_zh": "Cité des Palétuviers",
    "country": "French Guiana",
    "country_zh": "French Guiana",
    "country_iso_code": "GF",
    "timezone": "America/Cayenne",
    "latitude": 4.92875,
    "longitude": -52.33197
  },
  {
    "city": "Cité des Manguiers",
    "city_zh": "Cité des Manguiers",
    "country": "French Guiana",
    "country_zh": "French Guiana",
    "country_iso_code": "GF",
    "timezone": "America/Cayenne",
    "latitude": 4.93344,
    "longitude": -52.32542
  },
  {
    "city": "Cité Castor",
    "city_zh": "Cité Castor",
    "country": "French Guiana",
    "country_zh": "French Guiana",
    "country_iso_code": "GF",
    "timezone": "America/Cayenne",
    "latitude": 4.9441,
    "longitude": -52.3123
  },
  {
    "city": "Cité Césaire",
    "city_zh": "Cité Césaire",
    "country": "French Guiana",
    "country_zh": "French Guiana",
    "country_iso_code": "GF",
    "timezone": "America/Cayenne",
    "latitude": 4.93146,
    "longitude": -52.32308
  },
  {
    "city": "Cité Brutus",
    "city_zh": "Cité Brutus",
    "country": "French Guiana",
    "country_zh": "French Guiana",
    "country_iso_code": "GF",
    "timezone": "America/Cayenne",
    "latitude": 4.93333,
    "longitude": -52.31667
  },
  {
    "city": "Cité Anatole",
    "city_zh": "Cité Anatole",
    "country": "French Guiana",
    "country_zh": "French Guiana",
    "country_iso_code": "GF",
    "timezone": "America/Cayenne",
    "latitude": 4.93514,
    "longitude": -52.31565
  },
  {
    "city": "Cité Ampigny",
    "city_zh": "Cité Ampigny",
    "country": "French Guiana",
    "country_zh": "French Guiana",
    "country_iso_code": "GF",
    "timezone": "America/Cayenne",
    "latitude": 4.93333,
    "longitude": -52.31667
  },
  {
    "city": "Cité Alexandre",
    "city_zh": "Cité Alexandre",
    "country": "French Guiana",
    "country_zh": "French Guiana",
    "country_iso_code": "GF",
    "timezone": "America/Cayenne",
    "latitude": 4.93752,
    "longitude": -52.31375
  },
  {
    "city": "Chire",
    "city_zh": "Chire",
    "country": "French Guiana",
    "country_zh": "French Guiana",
    "country_iso_code": "GF",
    "timezone": "America/Cayenne",
    "latitude": 5.51219,
    "longitude": -53.53913
  },
  {
    "city": "Chatonnet",
    "city_zh": "Chatonnet",
    "country": "French Guiana",
    "country_zh": "French Guiana",
    "country_iso_code": "GF",
    "timezone": "America/Cayenne",
    "latitude": 4.88189,
    "longitude": -53.01889
  },
  {
    "city": "Châton",
    "city_zh": "Châton",
    "country": "French Guiana",
    "country_zh": "French Guiana",
    "country_iso_code": "GF",
    "timezone": "America/Cayenne",
    "latitude": 4.94433,
    "longitude": -52.3217
  },
  {
    "city": "Chatenay",
    "city_zh": "Chatenay",
    "country": "French Guiana",
    "country_zh": "French Guiana",
    "country_iso_code": "GF",
    "timezone": "America/Cayenne",
    "latitude": 4.94251,
    "longitude": -52.31175
  },
  {
    "city": "Charvein",
    "city_zh": "Charvein",
    "country": "French Guiana",
    "country_zh": "French Guiana",
    "country_iso_code": "GF",
    "timezone": "America/Cayenne",
    "latitude": 5.57555,
    "longitude": -53.89628
  },
  {
    "city": "Changement",
    "city_zh": "Changement",
    "country": "French Guiana",
    "country_zh": "French Guiana",
    "country_iso_code": "GF",
    "timezone": "America/Cayenne",
    "latitude": 4.48333,
    "longitude": -52.41667
  },
  {
    "city": "Central Bief",
    "city_zh": "Central Bief",
    "country": "French Guiana",
    "country_zh": "French Guiana",
    "country_iso_code": "GF",
    "timezone": "America/Cayenne",
    "latitude": 4.51035,
    "longitude": -52.46371
  },
  {
    "city": "Cayenne",
    "city_zh": "開雲",
    "country": "French Guiana",
    "country_zh": "French Guiana",
    "country_iso_code": "GF",
    "timezone": "America/Cayenne",
    "latitude": 4.9381,
    "longitude": -52.33455
  },
  {
    "city": "Caussade",
    "city_zh": "Caussade",
    "country": "French Guiana",
    "country_zh": "French Guiana",
    "country_iso_code": "GF",
    "timezone": "America/Cayenne",
    "latitude": 5.07001,
    "longitude": -52.59142
  },
  {
    "city": "Carrière",
    "city_zh": "Carrière",
    "country": "French Guiana",
    "country_zh": "French Guiana",
    "country_iso_code": "GF",
    "timezone": "America/Cayenne",
    "latitude": 4.27686,
    "longitude": -52.67258
  },
  {
    "city": "Carrefour de Mana",
    "city_zh": "Carrefour de Mana",
    "country": "French Guiana",
    "country_zh": "French Guiana",
    "country_iso_code": "GF",
    "timezone": "America/Cayenne",
    "latitude": 5.5,
    "longitude": -53.98333
  },
  {
    "city": "Carbet Toukan",
    "city_zh": "Carbet Toukan",
    "country": "French Guiana",
    "country_zh": "French Guiana",
    "country_iso_code": "GF",
    "timezone": "America/Cayenne",
    "latitude": 5.2,
    "longitude": -52.76667
  },
  {
    "city": "Carbets",
    "city_zh": "Carbets",
    "country": "French Guiana",
    "country_zh": "French Guiana",
    "country_iso_code": "GF",
    "timezone": "America/Cayenne",
    "latitude": 3.4125,
    "longitude": -53.88431
  },
  {
    "city": "Carbet Mitan",
    "city_zh": "Carbet Mitan",
    "country": "French Guiana",
    "country_zh": "French Guiana",
    "country_iso_code": "GF",
    "timezone": "America/Cayenne",
    "latitude": 4.93047,
    "longitude": -53.46251
  },
  {
    "city": "Carbet Médard",
    "city_zh": "Carbet Médard",
    "country": "French Guiana",
    "country_zh": "French Guiana",
    "country_iso_code": "GF",
    "timezone": "America/Cayenne",
    "latitude": 5.39895,
    "longitude": -53.6735
  },
  {
    "city": "Capon",
    "city_zh": "Capon",
    "country": "French Guiana",
    "country_zh": "French Guiana",
    "country_iso_code": "GF",
    "timezone": "America/Cayenne",
    "latitude": 3.91539,
    "longitude": -51.84308
  },
  {
    "city": "Camp Voltaire",
    "city_zh": "Camp Voltaire",
    "country": "French Guiana",
    "country_zh": "French Guiana",
    "country_iso_code": "GF",
    "timezone": "America/Cayenne",
    "latitude": 5.05326,
    "longitude": -54.08979
  },
  {
    "city": "Camp Rochambeau",
    "city_zh": "Camp Rochambeau",
    "country": "French Guiana",
    "country_zh": "French Guiana",
    "country_iso_code": "GF",
    "timezone": "America/Cayenne",
    "latitude": 4.83333,
    "longitude": -52.38333
  },
  {
    "city": "Camp Maïpouri",
    "city_zh": "Camp Maïpouri",
    "country": "French Guiana",
    "country_zh": "French Guiana",
    "country_iso_code": "GF",
    "timezone": "America/Cayenne",
    "latitude": 5.14902,
    "longitude": -53.98086
  },
  {
    "city": "Camp de Rémire",
    "city_zh": "Camp de Rémire",
    "country": "French Guiana",
    "country_zh": "French Guiana",
    "country_iso_code": "GF",
    "timezone": "America/Cayenne",
    "latitude": 4.89699,
    "longitude": -52.26302
  },
  {
    "city": "Camp Caïman",
    "city_zh": "Camp Caïman",
    "country": "French Guiana",
    "country_zh": "French Guiana",
    "country_iso_code": "GF",
    "timezone": "America/Cayenne",
    "latitude": 4.56937,
    "longitude": -52.21721
  },
  {
    "city": "Camopi",
    "city_zh": "Camopi",
    "country": "French Guiana",
    "country_zh": "French Guiana",
    "country_iso_code": "GF",
    "timezone": "America/Cayenne",
    "latitude": 3.21147,
    "longitude": -52.46063
  },
  {
    "city": "Camopi",
    "city_zh": "Camopi",
    "country": "French Guiana",
    "country_zh": "French Guiana",
    "country_iso_code": "GF",
    "timezone": "America/Cayenne",
    "latitude": 3.16887,
    "longitude": -52.33525
  },
  {
    "city": "Camélie",
    "city_zh": "Camélie",
    "country": "French Guiana",
    "country_zh": "French Guiana",
    "country_iso_code": "GF",
    "timezone": "America/Cayenne",
    "latitude": 5.05,
    "longitude": -54.41667
  },
  {
    "city": "Dégrad Cambrouze",
    "city_zh": "Dégrad Cambrouze",
    "country": "French Guiana",
    "country_zh": "French Guiana",
    "country_iso_code": "GF",
    "timezone": "America/Cayenne",
    "latitude": 4.76363,
    "longitude": -53.99891
  },
  {
    "city": "Cacao",
    "city_zh": "Cacao",
    "country": "French Guiana",
    "country_zh": "French Guiana",
    "country_iso_code": "GF",
    "timezone": "America/Cayenne",
    "latitude": 4.57123,
    "longitude": -52.46827
  },
  {
    "city": "Cabassou",
    "city_zh": "Cabassou",
    "country": "French Guiana",
    "country_zh": "French Guiana",
    "country_iso_code": "GF",
    "timezone": "America/Cayenne",
    "latitude": 4.88712,
    "longitude": -52.30012
  },
  {
    "city": "Brigandin",
    "city_zh": "Brigandin",
    "country": "French Guiana",
    "country_zh": "French Guiana",
    "country_iso_code": "GF",
    "timezone": "America/Cayenne",
    "latitude": 5.41912,
    "longitude": -52.98381
  },
  {
    "city": "Bourda",
    "city_zh": "Bourda",
    "country": "French Guiana",
    "country_zh": "French Guiana",
    "country_iso_code": "GF",
    "timezone": "America/Cayenne",
    "latitude": 4.93354,
    "longitude": -52.29044
  },
  {
    "city": "Boulanger",
    "city_zh": "Boulanger",
    "country": "French Guiana",
    "country_zh": "French Guiana",
    "country_iso_code": "GF",
    "timezone": "America/Cayenne",
    "latitude": 4.5622,
    "longitude": -52.41297
  },
  {
    "city": "Bostok",
    "city_zh": "Bostok",
    "country": "French Guiana",
    "country_zh": "French Guiana",
    "country_iso_code": "GF",
    "timezone": "America/Cayenne",
    "latitude": 3.43333,
    "longitude": -53.96667
  },
  {
    "city": "Bossoé",
    "city_zh": "Bossoé",
    "country": "French Guiana",
    "country_zh": "French Guiana",
    "country_iso_code": "GF",
    "timezone": "America/Cayenne",
    "latitude": 5.02706,
    "longitude": -54.42972
  },
  {
    "city": "Borie",
    "city_zh": "Borie",
    "country": "French Guiana",
    "country_zh": "French Guiana",
    "country_iso_code": "GF",
    "timezone": "America/Cayenne",
    "latitude": 4.93429,
    "longitude": -53.44842
  },
  {
    "city": "Agodé",
    "city_zh": "Agodé",
    "country": "French Guiana",
    "country_zh": "French Guiana",
    "country_iso_code": "GF",
    "timezone": "America/Cayenne",
    "latitude": 3.83672,
    "longitude": -54.18778
  },
  {
    "city": "Bonidoro",
    "city_zh": "Bonidoro",
    "country": "French Guiana",
    "country_zh": "French Guiana",
    "country_iso_code": "GF",
    "timezone": "America/Cayenne",
    "latitude": 4.91459,
    "longitude": -54.45838
  },
  {
    "city": "Bois Martin",
    "city_zh": "Bois Martin",
    "country": "French Guiana",
    "country_zh": "French Guiana",
    "country_iso_code": "GF",
    "timezone": "America/Cayenne",
    "latitude": 4.98892,
    "longitude": -54.43574
  },
  {
    "city": "Bois Bandé",
    "city_zh": "Bois Bandé",
    "country": "French Guiana",
    "country_zh": "French Guiana",
    "country_iso_code": "GF",
    "timezone": "America/Cayenne",
    "latitude": 4.25299,
    "longitude": -52.58214
  },
  {
    "city": "Boeuf Mort",
    "city_zh": "Boeuf Mort",
    "country": "French Guiana",
    "country_zh": "French Guiana",
    "country_iso_code": "GF",
    "timezone": "America/Cayenne",
    "latitude": 4.93305,
    "longitude": -53.419
  },
  {
    "city": "Boeuf Bois",
    "city_zh": "Boeuf Bois",
    "country": "French Guiana",
    "country_zh": "French Guiana",
    "country_iso_code": "GF",
    "timezone": "America/Cayenne",
    "latitude": 4.97108,
    "longitude": -53.06031
  },
  {
    "city": "Biguiston",
    "city_zh": "Biguiston",
    "country": "French Guiana",
    "country_zh": "French Guiana",
    "country_iso_code": "GF",
    "timezone": "America/Cayenne",
    "latitude": 5.35678,
    "longitude": -54.13892
  },
  {
    "city": "Bernard",
    "city_zh": "Bernard",
    "country": "French Guiana",
    "country_zh": "French Guiana",
    "country_iso_code": "GF",
    "timezone": "America/Cayenne",
    "latitude": 4.73009,
    "longitude": -53.8994
  },
  {
    "city": "Bénéfice",
    "city_zh": "Bénéfice",
    "country": "French Guiana",
    "country_zh": "French Guiana",
    "country_iso_code": "GF",
    "timezone": "America/Cayenne",
    "latitude": 4.88314,
    "longitude": -53.31335
  },
  {
    "city": "Bellevue",
    "city_zh": "Bellevue",
    "country": "French Guiana",
    "country_zh": "French Guiana",
    "country_iso_code": "GF",
    "timezone": "America/Cayenne",
    "latitude": 3.84403,
    "longitude": -53.34738
  },
  {
    "city": "Bellevue",
    "city_zh": "Bellevue",
    "country": "French Guiana",
    "country_zh": "French Guiana",
    "country_iso_code": "GF",
    "timezone": "America/Cayenne",
    "latitude": 5.47693,
    "longitude": -53.26062
  },
  {
    "city": "Bellevue",
    "city_zh": "Bellevue",
    "country": "French Guiana",
    "country_zh": "French Guiana",
    "country_iso_code": "GF",
    "timezone": "America/Cayenne",
    "latitude": 3.76816,
    "longitude": -54.11033
  },
  {
    "city": "Belle Étoile",
    "city_zh": "Belle Étoile",
    "country": "French Guiana",
    "country_zh": "French Guiana",
    "country_iso_code": "GF",
    "timezone": "America/Cayenne",
    "latitude": 3.98562,
    "longitude": -52.97102
  },
  {
    "city": "Bec de Sable",
    "city_zh": "Bec de Sable",
    "country": "French Guiana",
    "country_zh": "French Guiana",
    "country_iso_code": "GF",
    "timezone": "America/Cayenne",
    "latitude": 4.9766,
    "longitude": -52.75863
  },
  {
    "city": "Beau Soleil",
    "city_zh": "Beau Soleil",
    "country": "French Guiana",
    "country_zh": "French Guiana",
    "country_iso_code": "GF",
    "timezone": "America/Cayenne",
    "latitude": 4.86663,
    "longitude": -52.25218
  },
  {
    "city": "Cité Beauregard",
    "city_zh": "Cité Beauregard",
    "country": "French Guiana",
    "country_zh": "French Guiana",
    "country_iso_code": "GF",
    "timezone": "America/Cayenne",
    "latitude": 4.88406,
    "longitude": -52.28179
  },
  {
    "city": "Baticane",
    "city_zh": "Baticane",
    "country": "French Guiana",
    "country_zh": "French Guiana",
    "country_iso_code": "GF",
    "timezone": "America/Cayenne",
    "latitude": 5.48224,
    "longitude": -53.66404
  },
  {
    "city": "Barkarel",
    "city_zh": "Barkarel",
    "country": "French Guiana",
    "country_zh": "French Guiana",
    "country_iso_code": "GF",
    "timezone": "America/Cayenne",
    "latitude": 3.56022,
    "longitude": -54.00177
  },
  {
    "city": "Banlieue-Sud de Cayenne",
    "city_zh": "Banlieue-Sud de Cayenne",
    "country": "French Guiana",
    "country_zh": "French Guiana",
    "country_iso_code": "GF",
    "timezone": "America/Cayenne",
    "latitude": 4.93333,
    "longitude": -52.33333
  },
  {
    "city": "Banc de Sable",
    "city_zh": "Banc de Sable",
    "country": "French Guiana",
    "country_zh": "French Guiana",
    "country_iso_code": "GF",
    "timezone": "America/Cayenne",
    "latitude": 5.21496,
    "longitude": -54.2534
  },
  {
    "city": "Banane",
    "city_zh": "Banane",
    "country": "French Guiana",
    "country_zh": "French Guiana",
    "country_iso_code": "GF",
    "timezone": "America/Cayenne",
    "latitude": 4.87231,
    "longitude": -52.53187
  },
  {
    "city": "Balourou",
    "city_zh": "Balourou",
    "country": "French Guiana",
    "country_zh": "French Guiana",
    "country_iso_code": "GF",
    "timezone": "America/Cayenne",
    "latitude": 3.50883,
    "longitude": -53.09984
  },
  {
    "city": "Balaté",
    "city_zh": "Balaté",
    "country": "French Guiana",
    "country_zh": "French Guiana",
    "country_iso_code": "GF",
    "timezone": "America/Cayenne",
    "latitude": 5.48158,
    "longitude": -54.04125
  },
  {
    "city": "Baïno",
    "city_zh": "Baïno",
    "country": "French Guiana",
    "country_zh": "French Guiana",
    "country_iso_code": "GF",
    "timezone": "America/Cayenne",
    "latitude": 4.93333,
    "longitude": -54.45
  },
  {
    "city": "Baduel",
    "city_zh": "Baduel",
    "country": "French Guiana",
    "country_zh": "French Guiana",
    "country_iso_code": "GF",
    "timezone": "America/Cayenne",
    "latitude": 4.93108,
    "longitude": -52.31029
  },
  {
    "city": "Badek",
    "city_zh": "Badek",
    "country": "French Guiana",
    "country_zh": "French Guiana",
    "country_iso_code": "GF",
    "timezone": "America/Cayenne",
    "latitude": 3.94533,
    "longitude": -52.9949
  },
  {
    "city": "Babel",
    "city_zh": "Babel",
    "country": "French Guiana",
    "country_zh": "French Guiana",
    "country_iso_code": "GF",
    "timezone": "America/Cayenne",
    "latitude": 5.01667,
    "longitude": -54.43333
  },
  {
    "city": "Austerlitz",
    "city_zh": "Austerlitz",
    "country": "French Guiana",
    "country_zh": "French Guiana",
    "country_iso_code": "GF",
    "timezone": "America/Cayenne",
    "latitude": 4.87469,
    "longitude": -52.36759
  },
  {
    "city": "Vieux Assissi",
    "city_zh": "Vieux Assissi",
    "country": "French Guiana",
    "country_zh": "French Guiana",
    "country_iso_code": "GF",
    "timezone": "America/Cayenne",
    "latitude": 3.82173,
    "longitude": -54.1988
  },
  {
    "city": "Apatou",
    "city_zh": "阿帕图",
    "country": "French Guiana",
    "country_zh": "French Guiana",
    "country_iso_code": "GF",
    "timezone": "America/Cayenne",
    "latitude": 5.15526,
    "longitude": -54.34311
  },
  {
    "city": "Awala-Yalimapo",
    "city_zh": "Awala-Yalimapo",
    "country": "French Guiana",
    "country_zh": "French Guiana",
    "country_iso_code": "GF",
    "timezone": "America/Cayenne",
    "latitude": 5.73636,
    "longitude": -53.90869
  },
  {
    "city": "Anton",
    "city_zh": "Anton",
    "country": "French Guiana",
    "country_zh": "French Guiana",
    "country_iso_code": "GF",
    "timezone": "America/Cayenne",
    "latitude": 5.54177,
    "longitude": -53.42642
  },
  {
    "city": "Antécume Pata",
    "city_zh": "Antécume Pata",
    "country": "French Guiana",
    "country_zh": "French Guiana",
    "country_iso_code": "GF",
    "timezone": "America/Cayenne",
    "latitude": 3.28636,
    "longitude": -54.06938
  },
  {
    "city": "Ankel",
    "city_zh": "Ankel",
    "country": "French Guiana",
    "country_zh": "French Guiana",
    "country_iso_code": "GF",
    "timezone": "America/Cayenne",
    "latitude": 5.29446,
    "longitude": -54.20858
  },
  {
    "city": "Angoulême",
    "city_zh": "Angoulême",
    "country": "French Guiana",
    "country_zh": "French Guiana",
    "country_iso_code": "GF",
    "timezone": "America/Cayenne",
    "latitude": 5.41106,
    "longitude": -53.65527
  },
  {
    "city": "Ancien Village Poteau Carré",
    "city_zh": "Ancien Village Poteau Carré",
    "country": "French Guiana",
    "country_zh": "French Guiana",
    "country_iso_code": "GF",
    "timezone": "America/Cayenne",
    "latitude": 4.56812,
    "longitude": -52.40354
  },
  {
    "city": "Ancien Village Hubert",
    "city_zh": "Ancien Village Hubert",
    "country": "French Guiana",
    "country_zh": "French Guiana",
    "country_iso_code": "GF",
    "timezone": "America/Cayenne",
    "latitude": 3.1,
    "longitude": -53.25
  },
  {
    "city": "Ana Kondé",
    "city_zh": "Ana Kondé",
    "country": "French Guiana",
    "country_zh": "French Guiana",
    "country_iso_code": "GF",
    "timezone": "America/Cayenne",
    "latitude": 4.24637,
    "longitude": -54.38417
  },
  {
    "city": "Amékan Tabiki",
    "city_zh": "Amékan Tabiki",
    "country": "French Guiana",
    "country_zh": "French Guiana",
    "country_iso_code": "GF",
    "timezone": "America/Cayenne",
    "latitude": 4.81667,
    "longitude": -54.46667
  },
  {
    "city": "Aloïké",
    "city_zh": "Aloïké",
    "country": "French Guiana",
    "country_zh": "French Guiana",
    "country_iso_code": "GF",
    "timezone": "America/Cayenne",
    "latitude": 3.6276,
    "longitude": -53.99136
  },
  {
    "city": "Aloïké",
    "city_zh": "Aloïké",
    "country": "French Guiana",
    "country_zh": "French Guiana",
    "country_iso_code": "GF",
    "timezone": "America/Cayenne",
    "latitude": 3.32828,
    "longitude": -54.05407
  },
  {
    "city": "Alikoto",
    "city_zh": "Alikoto",
    "country": "French Guiana",
    "country_zh": "French Guiana",
    "country_iso_code": "GF",
    "timezone": "America/Cayenne",
    "latitude": 3.11523,
    "longitude": -52.34445
  },
  {
    "city": "Alicia",
    "city_zh": "Alicia",
    "country": "French Guiana",
    "country_zh": "French Guiana",
    "country_iso_code": "GF",
    "timezone": "America/Cayenne",
    "latitude": 3.38333,
    "longitude": -52.91667
  },
  {
    "city": "Akouménaï",
    "city_zh": "Akouménaï",
    "country": "French Guiana",
    "country_zh": "French Guiana",
    "country_iso_code": "GF",
    "timezone": "America/Cayenne",
    "latitude": 3.00102,
    "longitude": -52.36764
  },
  {
    "city": "Akodo",
    "city_zh": "Akodo",
    "country": "French Guiana",
    "country_zh": "French Guiana",
    "country_iso_code": "GF",
    "timezone": "America/Cayenne",
    "latitude": 5.16667,
    "longitude": -54.33333
  },
  {
    "city": "Akilengui",
    "city_zh": "Akilengui",
    "country": "French Guiana",
    "country_zh": "French Guiana",
    "country_iso_code": "GF",
    "timezone": "America/Cayenne",
    "latitude": 5.08333,
    "longitude": -54.4
  },
  {
    "city": "Aéroplane Kondé",
    "city_zh": "Aéroplane Kondé",
    "country": "French Guiana",
    "country_zh": "French Guiana",
    "country_iso_code": "GF",
    "timezone": "America/Cayenne",
    "latitude": 4.42737,
    "longitude": -54.43376
  },
  {
    "city": "Adieu-Vat",
    "city_zh": "Adieu-Vat",
    "country": "French Guiana",
    "country_zh": "French Guiana",
    "country_iso_code": "GF",
    "timezone": "America/Cayenne",
    "latitude": 4.87236,
    "longitude": -53.00758
  },