[
  {
    "city": "Barakara",
    "city_zh": "Barakara",
    "country": "Guyana",
    "country_zh": "蓋亞那",
    "country_iso_code": "GY",
    "timezone": "America/Guyana",
    "latitude": 5.85,
    "longitude": -57.46667
  },
  {
    "city": "Zorg en Vlygt",
    "city_zh": "Zorg en Vlygt",
    "country": "Guyana",
    "country_zh": "蓋亞那",
    "country_iso_code": "GY",
    "timezone": "America/Guyana",
    "latitude": 7.17452,
    "longitude": -58.48822
  },
  {
    "city": "Zorg",
    "city_zh": "Zorg",
    "country": "Guyana",
    "country_zh": "蓋亞那",
    "country_iso_code": "GY",
    "timezone": "America/Guyana",
    "latitude": 7.13178,
    "longitude": -58.47624
  },
  {
    "city": "Zion",
    "city_zh": "Zion",
    "country": "Guyana",
    "country_zh": "蓋亞那",
    "country_iso_code": "GY",
    "timezone": "America/Guyana",
    "latitude": 5.68333,
    "longitude": -57.85
  },
  {
    "city": "Zes Kinderen",
    "city_zh": "Zes Kinderen",
    "country": "Guyana",
    "country_zh": "蓋亞那",
    "country_iso_code": "GY",
    "timezone": "America/Guyana",
    "latitude": 6.57489,
    "longitude": -57.81661
  },
  {
    "city": "Zeelugt",
    "city_zh": "Zeelugt",
    "country": "Guyana",
    "country_zh": "蓋亞那",
    "country_iso_code": "GY",
    "timezone": "America/Guyana",
    "latitude": 6.87475,
    "longitude": -58.3402
  },
  {
    "city": "Zeelandia",
    "city_zh": "Zeelandia",
    "country": "Guyana",
    "country_zh": "蓋亞那",
    "country_iso_code": "GY",
    "timezone": "America/Guyana",
    "latitude": 7.01146,
    "longitude": -58.44463
  },
  {
    "city": "Zeeburg",
    "city_zh": "Zeeburg",
    "country": "Guyana",
    "country_zh": "蓋亞那",
    "country_iso_code": "GY",
    "timezone": "America/Guyana",
    "latitude": 6.87957,
    "longitude": -58.31351
  },
  {
    "city": "Zealand",
    "city_zh": "Zealand",
    "country": "Guyana",
    "country_zh": "蓋亞那",
    "country_iso_code": "GY",
    "timezone": "America/Guyana",
    "latitude": 6.61913,
    "longitude": -57.84349
  },
  {
    "city": "Yupukarri",
    "city_zh": "Yupukarri",
    "country": "Guyana",
    "country_zh": "蓋亞那",
    "country_iso_code": "GY",
    "timezone": "America/Guyana",
    "latitude": 3.66667,
    "longitude": -59.35
  },
  {
    "city": "Yorkshire Hall",
    "city_zh": "Yorkshire Hall",
    "country": "Guyana",
    "country_zh": "蓋亞那",
    "country_iso_code": "GY",
    "timezone": "America/Guyana",
    "latitude": 6.57737,
    "longitude": -57.81918
  },
  {
    "city": "Yepu Village",
    "city_zh": "Yepu Village",
    "country": "Guyana",
    "country_zh": "蓋亞那",
    "country_iso_code": "GY",
    "timezone": "America/Guyana",
    "latitude": 1.36667,
    "longitude": -58.63333
  },
  {
    "city": "Yepi Village",
    "city_zh": "Yepi Village",
    "country": "Guyana",
    "country_zh": "蓋亞那",
    "country_iso_code": "GY",
    "timezone": "America/Guyana",
    "latitude": 1.35,
    "longitude": -58.66667
  },
  {
    "city": "Yakusari",
    "city_zh": "Yakusari",
    "country": "Guyana",
    "country_zh": "蓋亞那",
    "country_iso_code": "GY",
    "timezone": "America/Guyana",
    "latitude": 6.04908,
    "longitude": -57.26716
  },
  {
    "city": "Yakarinta",
    "city_zh": "Yakarinta",
    "country": "Guyana",
    "country_zh": "蓋亞那",
    "country_iso_code": "GY",
    "timezone": "America/Guyana",
    "latitude": 3.9,
    "longitude": -59.25
  },
  {
    "city": "Woweta Village",
    "city_zh": "Woweta Village",
    "country": "Guyana",
    "country_zh": "蓋亞那",
    "country_iso_code": "GY",
    "timezone": "America/Guyana",
    "latitude": 3.98333,
    "longitude": -59.08333
  },
  {
    "city": "Wortmanville",
    "city_zh": "Wortmanville",
    "country": "Guyana",
    "country_zh": "蓋亞那",
    "country_iso_code": "GY",
    "timezone": "America/Guyana",
    "latitude": 6.80549,
    "longitude": -58.1557
  },
  {
    "city": "Wolga",
    "city_zh": "Wolga",
    "country": "Guyana",
    "country_zh": "蓋亞那",
    "country_iso_code": "GY",
    "timezone": "America/Guyana",
    "latitude": 6.4724,
    "longitude": -58.61637
  },
  {
    "city": "Wismar",
    "city_zh": "Wismar",
    "country": "Guyana",
    "country_zh": "蓋亞那",
    "country_iso_code": "GY",
    "timezone": "America/Guyana",
    "latitude": 6.01065,
    "longitude": -58.31036
  },
  {
    "city": "Wiribisirikanali",
    "city_zh": "Wiribisirikanali",
    "country": "Guyana",
    "country_zh": "蓋亞那",
    "country_iso_code": "GY",
    "timezone": "America/Guyana",
    "latitude": 5.5,
    "longitude": -58.38333
  },
  {
    "city": "Wineperu",
    "city_zh": "Wineperu",
    "country": "Guyana",
    "country_zh": "蓋亞那",
    "country_iso_code": "GY",
    "timezone": "America/Guyana",
    "latitude": 6.176,
    "longitude": -58.58485
  },
  {
    "city": "Windsor Forest",
    "city_zh": "溫莎森林",
    "country": "Guyana",
    "country_zh": "蓋亞那",
    "country_iso_code": "GY",
    "timezone": "America/Guyana",
    "latitude": 6.84568,
    "longitude": -58.23521
  },
  {
    "city": "Windsor Castle",
    "city_zh": "Windsor Castle",
    "country": "Guyana",
    "country_zh": "蓋亞那",
    "country_iso_code": "GY",
    "timezone": "America/Guyana",
    "latitude": 7.30757,
    "longitude": -58.47968
  },
  {
    "city": "Williamsburg",
    "city_zh": "Williamsburg",
    "country": "Guyana",
    "country_zh": "蓋亞那",
    "country_iso_code": "GY",
    "timezone": "America/Guyana",
    "latitude": 6.24483,
    "longitude": -57.36268
  },
  {
    "city": "Wilhelmina",
    "city_zh": "Wilhelmina",
    "country": "Guyana",
    "country_zh": "蓋亞那",
    "country_iso_code": "GY",
    "timezone": "America/Guyana",
    "latitude": 6.67139,
    "longitude": -57.92325
  },
  {
    "city": "Wichabai",
    "city_zh": "Wichabai",
    "country": "Guyana",
    "country_zh": "蓋亞那",
    "country_iso_code": "GY",
    "timezone": "America/Guyana",
    "latitude": 2.86667,
    "longitude": -59.53333
  },
  {
    "city": "Wiapri",
    "city_zh": "Wiapri",
    "country": "Guyana",
    "country_zh": "蓋亞那",
    "country_iso_code": "GY",
    "timezone": "America/Guyana",
    "latitude": 4.95,
    "longitude": -59.98333
  },
  {
    "city": "Whim",
    "city_zh": "Whim",
    "country": "Guyana",
    "country_zh": "蓋亞那",
    "country_iso_code": "GY",
    "timezone": "America/Guyana",
    "latitude": 6.23236,
    "longitude": -57.31229
  },
  {
    "city": "Westminster",
    "city_zh": "Westminster",
    "country": "Guyana",
    "country_zh": "蓋亞那",
    "country_iso_code": "GY",
    "timezone": "America/Guyana",
    "latitude": 6.77993,
    "longitude": -58.22769
  },
  {
    "city": "Westfield",
    "city_zh": "Westfield",
    "country": "Guyana",
    "country_zh": "蓋亞那",
    "country_iso_code": "GY",
    "timezone": "America/Guyana",
    "latitude": 7.1994,
    "longitude": -58.49162
  },
  {
    "city": "Westbury",
    "city_zh": "Westbury",
    "country": "Guyana",
    "country_zh": "蓋亞那",
    "country_iso_code": "GY",
    "timezone": "America/Guyana",
    "latitude": 7.3669,
    "longitude": -58.50281
  },
  {
    "city": "Werk-en-Rust",
    "city_zh": "Werk-en-Rust",
    "country": "Guyana",
    "country_zh": "蓋亞那",
    "country_iso_code": "GY",
    "timezone": "America/Guyana",
    "latitude": 6.80456,
    "longitude": -58.16429
  },
  {
    "city": "Wel te Vreeden",
    "city_zh": "Wel te Vreeden",
    "country": "Guyana",
    "country_zh": "蓋亞那",
    "country_iso_code": "GY",
    "timezone": "America/Guyana",
    "latitude": 5.85826,
    "longitude": -57.45912
  },
  {
    "city": "Weldaad",
    "city_zh": "Weldaad",
    "country": "Guyana",
    "country_zh": "蓋亞那",
    "country_iso_code": "GY",
    "timezone": "America/Guyana",
    "latitude": 6.49648,
    "longitude": -57.688
  },
  {
    "city": "Wauna-Yarikita",
    "city_zh": "Wauna-Yarikita",
    "country": "Guyana",
    "country_zh": "蓋亞那",
    "country_iso_code": "GY",
    "timezone": "America/Guyana",
    "latitude": 8.08333,
    "longitude": -59.91667
  },
  {
    "city": "Watuka",
    "city_zh": "Watuka",
    "country": "Guyana",
    "country_zh": "蓋亞那",
    "country_iso_code": "GY",
    "timezone": "America/Guyana",
    "latitude": 6.0,
    "longitude": -58.3
  },
  {
    "city": "Waterloo",
    "city_zh": "Waterloo",
    "country": "Guyana",
    "country_zh": "蓋亞那",
    "country_iso_code": "GY",
    "timezone": "America/Guyana",
    "latitude": 6.90976,
    "longitude": -58.42057
  },
  {
    "city": "Wastelands",
    "city_zh": "Wastelands",
    "country": "Guyana",
    "country_zh": "蓋亞那",
    "country_iso_code": "GY",
    "timezone": "America/Guyana",
    "latitude": 7.15212,
    "longitude": -58.4788
  },
  {
    "city": "Washclothes",
    "city_zh": "Washclothes",
    "country": "Guyana",
    "country_zh": "蓋亞那",
    "country_iso_code": "GY",
    "timezone": "America/Guyana",
    "latitude": 6.50065,
    "longitude": -57.80679
  },
  {
    "city": "Waruma",
    "city_zh": "Waruma",
    "country": "Guyana",
    "country_zh": "蓋亞那",
    "country_iso_code": "GY",
    "timezone": "America/Guyana",
    "latitude": 3.1,
    "longitude": -59.9
  },
  {
    "city": "Wariwau",
    "city_zh": "Wariwau",
    "country": "Guyana",
    "country_zh": "蓋亞那",
    "country_iso_code": "GY",
    "timezone": "America/Guyana",
    "latitude": 2.71667,
    "longitude": -59.2
  },
  {
    "city": "Warimure",
    "city_zh": "Warimure",
    "country": "Guyana",
    "country_zh": "蓋亞那",
    "country_iso_code": "GY",
    "timezone": "America/Guyana",
    "latitude": 2.93333,
    "longitude": -59.48333
  },
  {
    "city": "Warida",
    "city_zh": "Warida",
    "country": "Guyana",
    "country_zh": "蓋亞那",
    "country_iso_code": "GY",
    "timezone": "America/Guyana",
    "latitude": 6.31561,
    "longitude": -58.28611
  },
  {
    "city": "Ward village",
    "city_zh": "Ward village",
    "country": "Guyana",
    "country_zh": "蓋亞那",
    "country_iso_code": "GY",
    "timezone": "America/Guyana",
    "latitude": 6.06667,
    "longitude": -57.18333
  },
  {
    "city": "Waramuri Mission",
    "city_zh": "Waramuri Mission",
    "country": "Guyana",
    "country_zh": "蓋亞那",
    "country_iso_code": "GY",
    "timezone": "America/Guyana",
    "latitude": 7.61667,
    "longitude": -58.86667
  },
  {
    "city": "Wandapa Village",
    "city_zh": "Wandapa Village",
    "country": "Guyana",
    "country_zh": "蓋亞那",
    "country_iso_code": "GY",
    "timezone": "America/Guyana",
    "latitude": 4.55,
    "longitude": -59.71667
  },
  {
    "city": "Wandaik Village",
    "city_zh": "Wandaik Village",
    "country": "Guyana",
    "country_zh": "蓋亞那",
    "country_iso_code": "GY",
    "timezone": "America/Guyana",
    "latitude": 4.45,
    "longitude": -59.58333
  },
  {
    "city": "Walton Hall",
    "city_zh": "Walton Hall",
    "country": "Guyana",
    "country_zh": "蓋亞那",
    "country_iso_code": "GY",
    "timezone": "America/Guyana",
    "latitude": 7.33037,
    "longitude": -58.48144
  },
  {
    "city": "Wallers Delight",
    "city_zh": "Wallers Delight",
    "country": "Guyana",
    "country_zh": "蓋亞那",
    "country_iso_code": "GY",
    "timezone": "America/Guyana",
    "latitude": 6.83839,
    "longitude": -58.22481
  },
  {
    "city": "Wales",
    "city_zh": "Wales",
    "country": "Guyana",
    "country_zh": "蓋亞那",
    "country_iso_code": "GY",
    "timezone": "America/Guyana",
    "latitude": 6.7,
    "longitude": -58.2
  },
  {
    "city": "Wakapau Village",
    "city_zh": "Wakapau Village",
    "country": "Guyana",
    "country_zh": "蓋亞那",
    "country_iso_code": "GY",
    "timezone": "America/Guyana",
    "latitude": 7.51667,
    "longitude": -58.8
  },
  {
    "city": "Wakakulud Village",
    "city_zh": "Wakakulud Village",
    "country": "Guyana",
    "country_zh": "蓋亞那",
    "country_iso_code": "GY",
    "timezone": "America/Guyana",
    "latitude": 1.38333,
    "longitude": -58.75
  },
  {
    "city": "Wakadanawa",
    "city_zh": "Wakadanawa",
    "country": "Guyana",
    "country_zh": "蓋亞那",
    "country_iso_code": "GY",
    "timezone": "America/Guyana",
    "latitude": 1.98333,
    "longitude": -59.71667
  },
  {
    "city": "Waiwoi Village",
    "city_zh": "Waiwoi Village",
    "country": "Guyana",
    "country_zh": "蓋亞那",
    "country_iso_code": "GY",
    "timezone": "America/Guyana",
    "latitude": 1.43333,
    "longitude": -58.8
  },
  {
    "city": "Wai-Wai",
    "city_zh": "Wai-Wai",
    "country": "Guyana",
    "country_zh": "蓋亞那",
    "country_iso_code": "GY",
    "timezone": "America/Guyana",
    "latitude": 1.58333,
    "longitude": -58.65
  },
  {
    "city": "Waipa Village",
    "city_zh": "Waipa Village",
    "country": "Guyana",
    "country_zh": "蓋亞那",
    "country_iso_code": "GY",
    "timezone": "America/Guyana",
    "latitude": 4.93333,
    "longitude": -60.0
  },
  {
    "city": "Waikerebi Mission",
    "city_zh": "Waikerebi Mission",
    "country": "Guyana",
    "country_zh": "蓋亞那",
    "country_iso_code": "GY",
    "timezone": "America/Guyana",
    "latitude": 7.53333,
    "longitude": -59.4
  },
  {
    "city": "Vryheids Lust",
    "city_zh": "Vryheids Lust",
    "country": "Guyana",
    "country_zh": "蓋亞那",
    "country_iso_code": "GY",
    "timezone": "America/Guyana",
    "latitude": 6.81542,
    "longitude": -58.08604
  },
  {
    "city": "Vreed-en-Hoop",
    "city_zh": "Vreed-en-Hoop",
    "country": "Guyana",
    "country_zh": "蓋亞那",
    "country_iso_code": "GY",
    "timezone": "America/Guyana",
    "latitude": 6.80927,
    "longitude": -58.19798
  },
  {
    "city": "Voorsigtigheid",
    "city_zh": "Voorsigtigheid",
    "country": "Guyana",
    "country_zh": "蓋亞那",
    "country_iso_code": "GY",
    "timezone": "America/Guyana",
    "latitude": 6.68512,
    "longitude": -57.91702
  },
  {
    "city": "Virginia",
    "city_zh": "Virginia",
    "country": "Guyana",
    "country_zh": "蓋亞那",
    "country_iso_code": "GY",
    "timezone": "America/Guyana",
    "latitude": 6.62555,
    "longitude": -57.91315
  },
  {
    "city": "Vilvoorden",
    "city_zh": "Vilvoorden",
    "country": "Guyana",
    "country_zh": "蓋亞那",
    "country_iso_code": "GY",
    "timezone": "America/Guyana",
    "latitude": 7.03503,
    "longitude": -58.48933
  },
  {
    "city": "Vigilance",
    "city_zh": "Vigilance",
    "country": "Guyana",
    "country_zh": "蓋亞那",
    "country_iso_code": "GY",
    "timezone": "America/Guyana",
    "latitude": 6.78914,
    "longitude": -58.02159
  },
  {
    "city": "Victoria",
    "city_zh": "Victoria",
    "country": "Guyana",
    "country_zh": "蓋亞那",
    "country_iso_code": "GY",
    "timezone": "America/Guyana",
    "latitude": 6.74159,
    "longitude": -57.96921
  },
  {
    "city": "Vevay",
    "city_zh": "Vevay",
    "country": "Guyana",
    "country_zh": "蓋亞那",
    "country_iso_code": "GY",
    "timezone": "America/Guyana",
    "latitude": 6.66592,
    "longitude": -57.91937
  },
  {
    "city": "Vertrouwen",
    "city_zh": "Vertrouwen",
    "country": "Guyana",
    "country_zh": "蓋亞那",
    "country_iso_code": "GY",
    "timezone": "America/Guyana",
    "latitude": 6.93498,
    "longitude": -58.41811
  },
  {
    "city": "Versailles",
    "city_zh": "Versailles",
    "country": "Guyana",
    "country_zh": "蓋亞那",
    "country_iso_code": "GY",
    "timezone": "America/Guyana",
    "latitude": 6.79198,
    "longitude": -58.19114
  },
  {
    "city": "Vergenoegen",
    "city_zh": "Vergenoegen",
    "country": "Guyana",
    "country_zh": "蓋亞那",
    "country_iso_code": "GY",
    "timezone": "America/Guyana",
    "latitude": 6.87651,
    "longitude": -58.35701
  },
  {
    "city": "Het Vergenoegen",
    "city_zh": "Het Vergenoegen",
    "country": "Guyana",
    "country_zh": "蓋亞那",
    "country_iso_code": "GY",
    "timezone": "America/Guyana",
    "latitude": 6.87276,
    "longitude": -58.35665
  },
  {
    "city": "Vereeniging",
    "city_zh": "Vereeniging",
    "country": "Guyana",
    "country_zh": "蓋亞那",
    "country_iso_code": "GY",
    "timezone": "America/Guyana",
    "latitude": 6.6613,
    "longitude": -57.93105
  },
  {
    "city": "Velgrad",
    "city_zh": "Velgrad",
    "country": "Guyana",
    "country_zh": "蓋亞那",
    "country_iso_code": "GY",
    "timezone": "America/Guyana",
    "latitude": 4.86667,
    "longitude": -59.8
  },
  {
    "city": "Urisirima Point",
    "city_zh": "Urisirima Point",
    "country": "Guyana",
    "country_zh": "蓋亞那",
    "country_iso_code": "GY",
    "timezone": "America/Guyana",
    "latitude": 6.43418,
    "longitude": -58.59389
  },
  {
    "city": "Urisirima",
    "city_zh": "Urisirima",
    "country": "Guyana",
    "country_zh": "蓋亞那",
    "country_iso_code": "GY",
    "timezone": "America/Guyana",
    "latitude": 6.43333,
    "longitude": -58.6
  },
  {
    "city": "Upper Kamaria",
    "city_zh": "Upper Kamaria",
    "country": "Guyana",
    "country_zh": "蓋亞那",
    "country_iso_code": "GY",
    "timezone": "America/Guyana",
    "latitude": 6.43093,
    "longitude": -58.80087
  },
  {
    "city": "Uplands",
    "city_zh": "Uplands",
    "country": "Guyana",
    "country_zh": "蓋亞那",
    "country_iso_code": "GY",
    "timezone": "America/Guyana",
    "latitude": 6.64142,
    "longitude": -57.92086
  },
  {
    "city": "Unity",
    "city_zh": "Unity",
    "country": "Guyana",
    "country_zh": "蓋亞那",
    "country_iso_code": "GY",
    "timezone": "America/Guyana",
    "latitude": 6.82435,
    "longitude": -58.46452
  },
  {
    "city": "Unity",
    "city_zh": "Unity",
    "country": "Guyana",
    "country_zh": "蓋亞那",
    "country_iso_code": "GY",
    "timezone": "America/Guyana",
    "latitude": 6.71506,
    "longitude": -57.93191
  },
  {
    "city": "Uniform",
    "city_zh": "Uniform",
    "country": "Guyana",
    "country_zh": "蓋亞那",
    "country_iso_code": "GY",
    "timezone": "America/Guyana",
    "latitude": 6.96111,
    "longitude": -58.39747
  },
  {
    "city": "Uitvlugt",
    "city_zh": "Uitvlugt",
    "country": "Guyana",
    "country_zh": "蓋亞那",
    "country_iso_code": "GY",
    "timezone": "America/Guyana",
    "latitude": 6.87454,
    "longitude": -58.30405
  },
  {
    "city": "Uit",
    "city_zh": "Uit",
    "country": "Guyana",
    "country_zh": "蓋亞那",
    "country_iso_code": "GY",
    "timezone": "America/Guyana",
    "latitude": 6.45229,
    "longitude": -58.30282
  },
  {
    "city": "Two Friends",
    "city_zh": "Two Friends",
    "country": "Guyana",
    "country_zh": "蓋亞那",
    "country_iso_code": "GY",
    "timezone": "America/Guyana",
    "latitude": 6.7949,
    "longitude": -58.04129
  },
  {
    "city": "Tuschen de Vrienden",
    "city_zh": "Tuschen de Vrienden",
    "country": "Guyana",
    "country_zh": "蓋亞那",
    "country_iso_code": "GY",
    "timezone": "America/Guyana",
    "latitude": 6.87129,
    "longitude": -58.34967
  },
  {
    "city": "Tuschen",
    "city_zh": "Tuschen",
    "country": "Guyana",
    "country_zh": "蓋亞那",
    "country_iso_code": "GY",
    "timezone": "America/Guyana",
    "latitude": 6.88333,
    "longitude": -58.35
  },
  {
    "city": "Turkeyen",
    "city_zh": "Turkeyen",
    "country": "Guyana",
    "country_zh": "蓋亞那",
    "country_iso_code": "GY",
    "timezone": "America/Guyana",
    "latitude": 6.81957,
    "longitude": -58.11414
  },
  {
    "city": "Triumph",
    "city_zh": "Triumph",
    "country": "Guyana",
    "country_zh": "蓋亞那",
    "country_iso_code": "GY",
    "timezone": "America/Guyana",
    "latitude": 6.80699,
    "longitude": -58.05764
  },
  {
    "city": "Tranquility Hall",
    "city_zh": "Tranquility Hall",
    "country": "Guyana",
    "country_zh": "蓋亞那",
    "country_iso_code": "GY",
    "timezone": "America/Guyana",
    "latitude": 6.69815,
    "longitude": -57.93038
  },
  {
    "city": "Towakaima",
    "city_zh": "Towakaima",
    "country": "Guyana",
    "country_zh": "蓋亞那",
    "country_iso_code": "GY",
    "timezone": "America/Guyana",
    "latitude": 7.31667,
    "longitude": -60.0
  },
  {
    "city": "Toka Village",
    "city_zh": "Toka Village",
    "country": "Guyana",
    "country_zh": "蓋亞那",
    "country_iso_code": "GY",
    "timezone": "America/Guyana",
    "latitude": 3.91667,
    "longitude": -59.38333
  },
  {
    "city": "Toevlugt",
    "city_zh": "Toevlugt",
    "country": "Guyana",
    "country_zh": "蓋亞那",
    "country_iso_code": "GY",
    "timezone": "America/Guyana",
    "latitude": 6.74348,
    "longitude": -58.2035
  },
  {
    "city": "Tipuru Village",
    "city_zh": "Tipuru Village",
    "country": "Guyana",
    "country_zh": "蓋亞那",
    "country_iso_code": "GY",
    "timezone": "America/Guyana",
    "latitude": 4.21667,
    "longitude": -59.56667
  },
  {
    "city": "Tiger Pond Village",
    "city_zh": "Tiger Pond Village",
    "country": "Guyana",
    "country_zh": "蓋亞那",
    "country_iso_code": "GY",
    "timezone": "America/Guyana",
    "latitude": 4.05,
    "longitude": -59.43333
  },
  {
    "city": "Three Friends",
    "city_zh": "Three Friends",
    "country": "Guyana",
    "country_zh": "蓋亞那",
    "country_iso_code": "GY",
    "timezone": "America/Guyana",
    "latitude": 7.23104,
    "longitude": -58.48497
  },
  {
    "city": "The Jib",
    "city_zh": "The Jib",
    "country": "Guyana",
    "country_zh": "蓋亞那",
    "country_iso_code": "GY",
    "timezone": "America/Guyana",
    "latitude": 7.33786,
    "longitude": -58.48383
  },
  {
    "city": "The Clip",
    "city_zh": "The Clip",
    "country": "Guyana",
    "country_zh": "蓋亞那",
    "country_iso_code": "GY",
    "timezone": "America/Guyana",
    "latitude": 6.38333,
    "longitude": -58.66667
  },
  {
    "city": "The Best",
    "city_zh": "The Best",
    "country": "Guyana",
    "country_zh": "蓋亞那",
    "country_iso_code": "GY",
    "timezone": "America/Guyana",
    "latitude": 6.81351,
    "longitude": -58.20024
  },
  {
    "city": "Tewkesbury",
    "city_zh": "Tewkesbury",
    "country": "Guyana",
    "country_zh": "蓋亞那",
    "country_iso_code": "GY",
    "timezone": "America/Guyana",
    "latitude": 6.95047,
    "longitude": -58.41261
  },
  {
    "city": "Taymouth Manor",
    "city_zh": "Taymouth Manor",
    "country": "Guyana",
    "country_zh": "蓋亞那",
    "country_iso_code": "GY",
    "timezone": "America/Guyana",
    "latitude": 7.21013,
    "longitude": -58.48644
  },
  {
    "city": "Taruma Village",
    "city_zh": "Taruma Village",
    "country": "Guyana",
    "country_zh": "蓋亞那",
    "country_iso_code": "GY",
    "timezone": "America/Guyana",
    "latitude": 2.08333,
    "longitude": -58.38333
  },
  {
    "city": "Taruka",
    "city_zh": "Taruka",
    "country": "Guyana",
    "country_zh": "蓋亞那",
    "country_iso_code": "GY",
    "timezone": "America/Guyana",
    "latitude": 4.8,
    "longitude": -59.63333
  },
  {
    "city": "Tarlogie",
    "city_zh": "Tarlogie",
    "country": "Guyana",
    "country_zh": "蓋亞那",
    "country_iso_code": "GY",
    "timezone": "America/Guyana",
    "latitude": 6.18161,
    "longitude": -57.23884
  },
  {
    "city": "Tamton",
    "city_zh": "Tamton",
    "country": "Guyana",
    "country_zh": "蓋亞那",
    "country_iso_code": "GY",
    "timezone": "America/Guyana",
    "latitude": 2.35,
    "longitude": -59.71667
  },
  {
    "city": "Takama Battle School",
    "city_zh": "Takama Battle School",
    "country": "Guyana",
    "country_zh": "蓋亞那",
    "country_iso_code": "GY",
    "timezone": "America/Guyana",
    "latitude": 5.6,
    "longitude": -57.96667
  },
  {
    "city": "Takama",
    "city_zh": "Takama",
    "country": "Guyana",
    "country_zh": "蓋亞那",
    "country_iso_code": "GY",
    "timezone": "America/Guyana",
    "latitude": 5.56667,
    "longitude": -57.91667
  },
  {
    "city": "Tain",
    "city_zh": "Tain",
    "country": "Guyana",
    "country_zh": "蓋亞那",
    "country_iso_code": "GY",
    "timezone": "America/Guyana",
    "latitude": 6.23898,
    "longitude": -57.33632
  },
  {
    "city": "Susannahs Rust",
    "city_zh": "Susannahs Rust",
    "country": "Guyana",
    "country_zh": "蓋亞那",
    "country_iso_code": "GY",
    "timezone": "America/Guyana",
    "latitude": 6.36202,
    "longitude": -58.30756
  },
  {
    "city": "Surumatra",
    "city_zh": "Surumatra",
    "country": "Guyana",
    "country_zh": "蓋亞那",
    "country_iso_code": "GY",
    "timezone": "America/Guyana",
    "latitude": 4.16667,
    "longitude": -59.06667
  },
  {
    "city": "Surprise Hill",
    "city_zh": "Surprise Hill",
    "country": "Guyana",
    "country_zh": "蓋亞那",
    "country_iso_code": "GY",
    "timezone": "America/Guyana",
    "latitude": 7.81667,
    "longitude": -59.8
  },
  {
    "city": "Surama Village",
    "city_zh": "Surama Village",
    "country": "Guyana",
    "country_zh": "蓋亞那",
    "country_iso_code": "GY",
    "timezone": "America/Guyana",
    "latitude": 4.16667,
    "longitude": -59.08333
  },
  {
    "city": "Supply",
    "city_zh": "Supply",
    "country": "Guyana",
    "country_zh": "蓋亞那",
    "country_iso_code": "GY",
    "timezone": "America/Guyana",
    "latitude": 6.66369,
    "longitude": -57.92626
  },
  {
    "city": "Supply",
    "city_zh": "Supply",
    "country": "Guyana",
    "country_zh": "蓋亞那",
    "country_iso_code": "GY",
    "timezone": "America/Guyana",
    "latitude": 6.54521,
    "longitude": -57.79968
  },
  {
    "city": "Sunnyside",
    "city_zh": "Sunnyside",
    "country": "Guyana",
    "country_zh": "蓋亞那",
    "country_iso_code": "GY",
    "timezone": "America/Guyana",
    "latitude": 3.7,
    "longitude": -59.65
  },
  {
    "city": "Suddie",
    "city_zh": "Suddie",
    "country": "Guyana",
    "country_zh": "蓋亞那",
    "country_iso_code": "GY",
    "timezone": "America/Guyana",
    "latitude": 7.10921,
    "longitude": -58.47729
  },
  {
    "city": "Success",
    "city_zh": "Success",
    "country": "Guyana",
    "country_zh": "蓋亞那",
    "country_iso_code": "GY",
    "timezone": "America/Guyana",
    "latitude": 6.90295,
    "longitude": -58.43218
  },
  {
    "city": "Success",
    "city_zh": "Success",
    "country": "Guyana",
    "country_zh": "蓋亞那",
    "country_iso_code": "GY",
    "timezone": "America/Guyana",
    "latitude": 6.8111,
    "longitude": -58.07089
  },
  {
    "city": "Subryanville",
    "city_zh": "Subryanville",
    "country": "Guyana",
    "country_zh": "蓋亞那",
    "country_iso_code": "GY",
    "timezone": "America/Guyana",
    "latitude": 6.82337,
    "longitude": -58.13642
  },
  {
    "city": "Strathspey",
    "city_zh": "Strathspey",
    "country": "Guyana",
    "country_zh": "蓋亞那",
    "country_iso_code": "GY",
    "timezone": "America/Guyana",
    "latitude": 6.7863,
    "longitude": -58.01606
  },
  {
    "city": "Strath Campbell",
    "city_zh": "Strath Campbell",
    "country": "Guyana",
    "country_zh": "蓋亞那",
    "country_iso_code": "GY",
    "timezone": "America/Guyana",
    "latitude": 6.53315,
    "longitude": -57.80019
  },
  {
    "city": "Strathavon",
    "city_zh": "Strathavon",
    "country": "Guyana",
    "country_zh": "蓋亞那",
    "country_iso_code": "GY",
    "timezone": "America/Guyana",
    "latitude": 6.64834,
    "longitude": -57.9229
  },
  {
    "city": "Strangroen",
    "city_zh": "Strangroen",
    "country": "Guyana",
    "country_zh": "蓋亞那",
    "country_iso_code": "GY",
    "timezone": "America/Guyana",
    "latitude": 6.65456,
    "longitude": -57.88647
  },
  {
    "city": "Number Seventy-four Stockholm",
    "city_zh": "Number Seventy-four Stockholm",
    "country": "Guyana",
    "country_zh": "蓋亞那",
    "country_iso_code": "GY",
    "timezone": "America/Guyana",
    "latitude": 5.92128,
    "longitude": -57.15396
  },
  {
    "city": "Stewartville",
    "city_zh": "Stewartville",
    "country": "Guyana",
    "country_zh": "蓋亞那",
    "country_iso_code": "GY",
    "timezone": "America/Guyana",
    "latitude": 6.87274,
    "longitude": -58.29707
  },
  {
    "city": "Stena",
    "city_zh": "Stena",
    "country": "Guyana",
    "country_zh": "蓋亞那",
    "country_iso_code": "GY",
    "timezone": "America/Guyana",
    "latitude": 6.37629,
    "longitude": -58.31438
  },
  {
    "city": "Stanleytown",
    "city_zh": "Stanleytown",
    "country": "Guyana",
    "country_zh": "蓋亞那",
    "country_iso_code": "GY",
    "timezone": "America/Guyana",
    "latitude": 6.73041,
    "longitude": -58.20606
  },
  {
    "city": "Stanleytown",
    "city_zh": "Stanleytown",
    "country": "Guyana",
    "country_zh": "蓋亞那",
    "country_iso_code": "GY",
    "timezone": "America/Guyana",
    "latitude": 6.23474,
    "longitude": -57.51258
  },
  {
    "city": "Stabroek",
    "city_zh": "Stabroek",
    "country": "Guyana",
    "country_zh": "蓋亞那",
    "country_iso_code": "GY",
    "timezone": "America/Guyana",
    "latitude": 6.80848,
    "longitude": -58.16258
  },
  {
    "city": "Springlands",
    "city_zh": "Springlands",
    "country": "Guyana",
    "country_zh": "蓋亞那",
    "country_iso_code": "GY",
    "timezone": "America/Guyana",
    "latitude": 5.89298,
    "longitude": -57.14063
  },
  {
    "city": "Spring Hall",
    "city_zh": "Spring Hall",
    "country": "Guyana",
    "country_zh": "蓋亞那",
    "country_iso_code": "GY",
    "timezone": "America/Guyana",
    "latitude": 6.69895,
    "longitude": -57.92421
  },
  {
    "city": "Spring Garden",
    "city_zh": "Spring Garden",
    "country": "Guyana",
    "country_zh": "蓋亞那",
    "country_iso_code": "GY",
    "timezone": "America/Guyana",
    "latitude": 6.98236,
    "longitude": -58.50106
  },
  {
    "city": "Spring Garden",
    "city_zh": "Spring Garden",
    "country": "Guyana",
    "country_zh": "蓋亞那",
    "country_iso_code": "GY",
    "timezone": "America/Guyana",
    "latitude": 6.29734,
    "longitude": -58.26902
  },
  {
    "city": "Number Seventy-five Spring Garden",
    "city_zh": "Number Seventy-five Spring Garden",
    "country": "Guyana",
    "country_zh": "蓋亞那",
    "country_iso_code": "GY",
    "timezone": "America/Guyana",
    "latitude": 5.91294,
    "longitude": -57.16056
  },
  {
    "city": "Spooner",
    "city_zh": "Spooner",
    "country": "Guyana",
    "country_zh": "蓋亞那",
    "country_iso_code": "GY",
    "timezone": "America/Guyana",
    "latitude": 6.54763,
    "longitude": -57.79975
  },
  {
    "city": "Sparta",
    "city_zh": "Sparta",
    "country": "Guyana",
    "country_zh": "蓋亞那",
    "country_iso_code": "GY",
    "timezone": "America/Guyana",
    "latitude": 7.30218,
    "longitude": -58.47945
  },
  {
    "city": "Sparta",
    "city_zh": "Sparta",
    "country": "Guyana",
    "country_zh": "蓋亞那",
    "country_iso_code": "GY",
    "timezone": "America/Guyana",
    "latitude": 6.83556,
    "longitude": -58.45302
  },
  {
    "city": "Sparendaam",
    "city_zh": "Sparendaam",
    "country": "Guyana",
    "country_zh": "蓋亞那",
    "country_iso_code": "GY",
    "timezone": "America/Guyana",
    "latitude": 6.81993,
    "longitude": -58.09617
  },
  {
    "city": "Sophia",
    "city_zh": "Sophia",
    "country": "Guyana",
    "country_zh": "蓋亞那",
    "country_iso_code": "GY",
    "timezone": "America/Guyana",
    "latitude": 6.56791,
    "longitude": -57.79939
  },
  {
    "city": "Sophia",
    "city_zh": "Sophia",
    "country": "Guyana",
    "country_zh": "蓋亞那",
    "country_iso_code": "GY",
    "timezone": "America/Guyana",
    "latitude": 6.82035,
    "longitude": -58.12577
  },
  {
    "city": "Somerset",
    "city_zh": "Somerset",
    "country": "Guyana",
    "country_zh": "蓋亞那",
    "country_iso_code": "GY",
    "timezone": "America/Guyana",
    "latitude": 7.39659,
    "longitude": -58.56518
  },
  {
    "city": "Soesdyke",
    "city_zh": "Soesdyke",
    "country": "Guyana",
    "country_zh": "蓋亞那",
    "country_iso_code": "GY",
    "timezone": "America/Guyana",
    "latitude": 6.54276,
    "longitude": -58.229
  },
  {
    "city": "Smythfield",
    "city_zh": "Smythfield",
    "country": "Guyana",
    "country_zh": "蓋亞那",
    "country_iso_code": "GY",
    "timezone": "America/Guyana",
    "latitude": 6.24988,
    "longitude": -57.50847
  },
  {
    "city": "Skeldon",
    "city_zh": "Skeldon",
    "country": "Guyana",
    "country_zh": "蓋亞那",
    "country_iso_code": "GY",
    "timezone": "America/Guyana",
    "latitude": 5.87035,
    "longitude": -57.14681
  },
  {
    "city": "Sisipelin Village",
    "city_zh": "Sisipelin Village",
    "country": "Guyana",
    "country_zh": "蓋亞那",
    "country_iso_code": "GY",
    "timezone": "America/Guyana",
    "latitude": 4.65,
    "longitude": -59.55
  },
  {
    "city": "Sir James",
    "city_zh": "Sir James",
    "country": "Guyana",
    "country_zh": "蓋亞那",
    "country_iso_code": "GY",
    "timezone": "America/Guyana",
    "latitude": 6.28333,
    "longitude": -57.53333
  },
  {
    "city": "Siriki",
    "city_zh": "Siriki",
    "country": "Guyana",
    "country_zh": "蓋亞那",
    "country_iso_code": "GY",
    "timezone": "America/Guyana",
    "latitude": 7.32745,
    "longitude": -58.65924
  },
  {
    "city": "Sinclair Landing",
    "city_zh": "Sinclair Landing",
    "country": "Guyana",
    "country_zh": "蓋亞那",
    "country_iso_code": "GY",
    "timezone": "America/Guyana",
    "latitude": 7.77397,
    "longitude": -59.83134
  },
  {
    "city": "Simirie",
    "city_zh": "Simirie",
    "country": "Guyana",
    "country_zh": "蓋亞那",
    "country_iso_code": "GY",
    "timezone": "America/Guyana",
    "latitude": 6.51667,
    "longitude": -58.58333
  },
  {
    "city": "Simeri",
    "city_zh": "Simeri",
    "country": "Guyana",
    "country_zh": "蓋亞那",
    "country_iso_code": "GY",
    "timezone": "America/Guyana",
    "latitude": 7.21535,
    "longitude": -58.67
  },
  {
    "city": "Shulinab",
    "city_zh": "Shulinab",
    "country": "Guyana",
    "country_zh": "蓋亞那",
    "country_iso_code": "GY",
    "timezone": "America/Guyana",
    "latitude": 3.08333,
    "longitude": -59.78333
  },
  {
    "city": "Shea Village",
    "city_zh": "Shea Village",
    "country": "Guyana",
    "country_zh": "蓋亞那",
    "country_iso_code": "GY",
    "timezone": "America/Guyana",
    "latitude": 2.81667,
    "longitude": -59.13333
  },
  {
    "city": "Seafield",
    "city_zh": "Seafield",
    "country": "Guyana",
    "country_zh": "蓋亞那",
    "country_iso_code": "GY",
    "timezone": "America/Guyana",
    "latitude": 6.48079,
    "longitude": -57.67391
  },
  {
    "city": "Scottsburg",
    "city_zh": "Scottsburg",
    "country": "Guyana",
    "country_zh": "蓋亞那",
    "country_iso_code": "GY",
    "timezone": "America/Guyana",
    "latitude": 5.90676,
    "longitude": -57.14204
  },
  {
    "city": "Schoonord",
    "city_zh": "Schoonord",
    "country": "Guyana",
    "country_zh": "蓋亞那",
    "country_iso_code": "GY",
    "timezone": "America/Guyana",
    "latitude": 6.7802,
    "longitude": -58.19533
  },
  {
    "city": "Saxakalli",
    "city_zh": "Saxakalli",
    "country": "Guyana",
    "country_zh": "蓋亞那",
    "country_iso_code": "GY",
    "timezone": "America/Guyana",
    "latitude": 6.57782,
    "longitude": -58.61091
  },
  {
    "city": "Sawariwaunawa",
    "city_zh": "Sawariwaunawa",
    "country": "Guyana",
    "country_zh": "蓋亞那",
    "country_iso_code": "GY",
    "timezone": "America/Guyana",
    "latitude": 2.68333,
    "longitude": -59.65
  },
  {
    "city": "Sarah Johanna",
    "city_zh": "Sarah Johanna",
    "country": "Guyana",
    "country_zh": "蓋亞那",
    "country_iso_code": "GY",
    "timezone": "America/Guyana",
    "latitude": 6.59358,
    "longitude": -58.20878
  },
  {
    "city": "Sarah",
    "city_zh": "Sarah",
    "country": "Guyana",
    "country_zh": "蓋亞那",
    "country_iso_code": "GY",
    "timezone": "America/Guyana",
    "latitude": 6.96562,
    "longitude": -58.46381
  },
  {
    "city": "Sarah",
    "city_zh": "Sarah",
    "country": "Guyana",
    "country_zh": "蓋亞那",
    "country_iso_code": "GY",
    "timezone": "America/Guyana",
    "latitude": 6.60135,
    "longitude": -57.82398
  },
  {
    "city": "Santa Rosa Mission",
    "city_zh": "Santa Rosa Mission",
    "country": "Guyana",
    "country_zh": "蓋亞那",
    "country_iso_code": "GY",
    "timezone": "America/Guyana",
    "latitude": 7.65,
    "longitude": -58.95
  },
  {
    "city": "Santa Fe",
    "city_zh": "Santa Fe",
    "country": "Guyana",
    "country_zh": "蓋亞那",
    "country_iso_code": "GY",
    "timezone": "America/Guyana",
    "latitude": 3.78333,
    "longitude": -59.6
  },
  {
    "city": "Santa Cruz",
    "city_zh": "Santa Cruz",
    "country": "Guyana",
    "country_zh": "蓋亞那",
    "country_iso_code": "GY",
    "timezone": "America/Guyana",
    "latitude": 7.65,
    "longitude": -59.23333
  },
  {
    "city": "Sans Souci",
    "city_zh": "Sans Souci",
    "country": "Guyana",
    "country_zh": "蓋亞那",
    "country_iso_code": "GY",
    "timezone": "America/Guyana",
    "latitude": 6.95659,
    "longitude": -58.47339
  },
  {
    "city": "Sans Souci",
    "city_zh": "Sans Souci",
    "country": "Guyana",
    "country_zh": "蓋亞那",
    "country_iso_code": "GY",
    "timezone": "America/Guyana",
    "latitude": 6.44146,
    "longitude": -58.29226
  },
  {
    "city": "Sand Hills",
    "city_zh": "Sand Hills",
    "country": "Guyana",
    "country_zh": "蓋亞那",
    "country_iso_code": "GY",
    "timezone": "America/Guyana",
    "latitude": 6.4786,
    "longitude": -58.31408
  },
  {
    "city": "Sandhills",
    "city_zh": "Sandhills",
    "country": "Guyana",
    "country_zh": "蓋亞那",
    "country_iso_code": "GY",
    "timezone": "America/Guyana",
    "latitude": 5.81196,
    "longitude": -57.74032
  },
  {
    "city": "Sand Creek Village",
    "city_zh": "Sand Creek Village",
    "country": "Guyana",
    "country_zh": "蓋亞那",
    "country_iso_code": "GY",
    "timezone": "America/Guyana",
    "latitude": 3.0,
    "longitude": -59.51667
  },
  {
    "city": "Salem",
    "city_zh": "Salem",
    "country": "Guyana",
    "country_zh": "蓋亞那",
    "country_iso_code": "GY",
    "timezone": "America/Guyana",
    "latitude": 6.83892,
    "longitude": -58.44731
  },
  {
    "city": "Saint Nicholas Mission",
    "city_zh": "Saint Nicholas Mission",
    "country": "Guyana",
    "country_zh": "蓋亞那",
    "country_iso_code": "GY",
    "timezone": "America/Guyana",
    "latitude": 7.5,
    "longitude": -58.95
  },
  {
    "city": "Saint Marys",
    "city_zh": "Saint Marys",
    "country": "Guyana",
    "country_zh": "蓋亞那",
    "country_iso_code": "GY",
    "timezone": "America/Guyana",
    "latitude": 6.24385,
    "longitude": -58.58349
  },
  {
    "city": "Saint Mary’s",
    "city_zh": "Saint Mary’s",
    "country": "Guyana",
    "country_zh": "蓋亞那",
    "country_iso_code": "GY",
    "timezone": "America/Guyana",
    "latitude": 5.2,
    "longitude": -59.01667
  },
  {
    "city": "Saint Lawrence",
    "city_zh": "Saint Lawrence",
    "country": "Guyana",
    "country_zh": "蓋亞那",
    "country_iso_code": "GY",
    "timezone": "America/Guyana",
    "latitude": 6.80982,
    "longitude": -58.4743
  },
  {
    "city": "Saint Ignatius",
    "city_zh": "Saint Ignatius",
    "country": "Guyana",
    "country_zh": "蓋亞那",
    "country_iso_code": "GY",
    "timezone": "America/Guyana",
    "latitude": 3.33333,
    "longitude": -59.8
  },
  {
    "city": "Saint Edwards Mission",
    "city_zh": "Saint Edwards Mission",
    "country": "Guyana",
    "country_zh": "蓋亞那",
    "country_iso_code": "GY",
    "timezone": "America/Guyana",
    "latitude": 6.3713,
    "longitude": -58.69808
  },
  {
    "city": "Saint Cuthberts Mission",
    "city_zh": "Saint Cuthberts Mission",
    "country": "Guyana",
    "country_zh": "蓋亞那",
    "country_iso_code": "GY",
    "timezone": "America/Guyana",
    "latitude": 6.36873,
    "longitude": -58.08666
  },
  {
    "city": "Saint Benedict Mission",
    "city_zh": "Saint Benedict Mission",
    "country": "Guyana",
    "country_zh": "蓋亞那",
    "country_iso_code": "GY",
    "timezone": "America/Guyana",
    "latitude": 7.81667,
    "longitude": -59.83333
  },
  {
    "city": "Saint Bede’s Mission",
    "city_zh": "Saint Bede’s Mission",
    "country": "Guyana",
    "country_zh": "蓋亞那",
    "country_iso_code": "GY",
    "timezone": "America/Guyana",
    "latitude": 7.56667,
    "longitude": -59.46667
  },
  {
    "city": "Sage Pond",
    "city_zh": "Sage Pond",
    "country": "Guyana",
    "country_zh": "蓋亞那",
    "country_iso_code": "GY",
    "timezone": "America/Guyana",
    "latitude": 6.74609,
    "longitude": -58.1561
  },
  {
    "city": "Sabernawau Village",
    "city_zh": "Sabernawau Village",
    "country": "Guyana",
    "country_zh": "蓋亞那",
    "country_iso_code": "GY",
    "timezone": "America/Guyana",
    "latitude": 2.33333,
    "longitude": -59.23333
  },
  {
    "city": "Ruimzigt",
    "city_zh": "Ruimzigt",
    "country": "Guyana",
    "country_zh": "蓋亞那",
    "country_iso_code": "GY",
    "timezone": "America/Guyana",
    "latitude": 6.84262,
    "longitude": -58.23076
  },
  {
    "city": "Ruby",
    "city_zh": "Ruby",
    "country": "Guyana",
    "country_zh": "蓋亞那",
    "country_iso_code": "GY",
    "timezone": "America/Guyana",
    "latitude": 6.87008,
    "longitude": -58.38624
  },
  {
    "city": "Rotterdam",
    "city_zh": "Rotterdam",
    "country": "Guyana",
    "country_zh": "蓋亞那",
    "country_iso_code": "GY",
    "timezone": "America/Guyana",
    "latitude": 6.82488,
    "longitude": -58.21086
  },
  {
    "city": "Rosignol",
    "city_zh": "羅西格諾爾",
    "country": "Guyana",
    "country_zh": "蓋亞那",
    "country_iso_code": "GY",
    "timezone": "America/Guyana",
    "latitude": 6.27095,
    "longitude": -57.53697
  },
  {
    "city": "Rose Hall",
    "city_zh": "Rose Hall",
    "country": "Guyana",
    "country_zh": "蓋亞那",
    "country_iso_code": "GY",
    "timezone": "America/Guyana",
    "latitude": 6.25577,
    "longitude": -57.35502
  },
  {
    "city": "Roden Rust",
    "city_zh": "Roden Rust",
    "country": "Guyana",
    "country_zh": "蓋亞那",
    "country_iso_code": "GY",
    "timezone": "America/Guyana",
    "latitude": 6.8324,
    "longitude": -58.45749
  },
  {
    "city": "Rockstone",
    "city_zh": "Rockstone",
    "country": "Guyana",
    "country_zh": "蓋亞那",
    "country_iso_code": "GY",
    "timezone": "America/Guyana",
    "latitude": 5.98888,
    "longitude": -58.55248
  },
  {
    "city": "Robbstown",
    "city_zh": "Robbstown",
    "country": "Guyana",
    "country_zh": "蓋亞那",
    "country_iso_code": "GY",
    "timezone": "America/Guyana",
    "latitude": 6.81317,
    "longitude": -58.16686
  },
  {
    "city": "Riverview",
    "city_zh": "Riverview",
    "country": "Guyana",
    "country_zh": "蓋亞那",
    "country_iso_code": "GY",
    "timezone": "America/Guyana",
    "latitude": 6.43843,
    "longitude": -58.59254
  },
  {
    "city": "Riverstown",
    "city_zh": "Riverstown",
    "country": "Guyana",
    "country_zh": "蓋亞那",
    "country_iso_code": "GY",
    "timezone": "America/Guyana",
    "latitude": 7.06688,
    "longitude": -58.48216
  },
  {
    "city": "Rising Sun",
    "city_zh": "Rising Sun",
    "country": "Guyana",
    "country_zh": "蓋亞那",
    "country_iso_code": "GY",
    "timezone": "America/Guyana",
    "latitude": 6.08333,
    "longitude": -57.2
  },
  {
    "city": "Richmond Hill",
    "city_zh": "Richmond Hill",
    "country": "Guyana",
    "country_zh": "蓋亞那",
    "country_iso_code": "GY",
    "timezone": "America/Guyana",
    "latitude": 6.95606,
    "longitude": -58.40776
  },
  {
    "city": "Richmond",
    "city_zh": "Richmond",
    "country": "Guyana",
    "country_zh": "蓋亞那",
    "country_iso_code": "GY",
    "timezone": "America/Guyana",
    "latitude": 7.27306,
    "longitude": -58.48141
  },
  {
    "city": "Resource",
    "city_zh": "Resource",
    "country": "Guyana",
    "country_zh": "蓋亞那",
    "country_iso_code": "GY",
    "timezone": "America/Guyana",
    "latitude": 6.23998,
    "longitude": -57.34091
  },
  {
    "city": "Reliance",
    "city_zh": "Reliance",
    "country": "Guyana",
    "country_zh": "蓋亞那",
    "country_iso_code": "GY",
    "timezone": "America/Guyana",
    "latitude": 7.24356,
    "longitude": -58.48365
  },
  {
    "city": "Red Hill Settlement",
    "city_zh": "Red Hill Settlement",
    "country": "Guyana",
    "country_zh": "蓋亞那",
    "country_iso_code": "GY",
    "timezone": "America/Guyana",
    "latitude": 7.86667,
    "longitude": -59.43333
  },
  {
    "city": "Ramsburg",
    "city_zh": "Ramsburg",
    "country": "Guyana",
    "country_zh": "蓋亞那",
    "country_iso_code": "GY",
    "timezone": "America/Guyana",
    "latitude": 6.74954,
    "longitude": -58.16862
  },
  {
    "city": "Queenstown",
    "city_zh": "Queenstown",
    "country": "Guyana",
    "country_zh": "蓋亞那",
    "country_iso_code": "GY",
    "timezone": "America/Guyana",
    "latitude": 6.81302,
    "longitude": -58.14946
  },
  {
    "city": "Queenstown Village District",
    "city_zh": "Queenstown Village District",
    "country": "Guyana",
    "country_zh": "蓋亞那",
    "country_iso_code": "GY",
    "timezone": "America/Guyana",
    "latitude": 7.1939,
    "longitude": -58.49242
  },
  {
    "city": "Queenstown",
    "city_zh": "Queenstown",
    "country": "Guyana",
    "country_zh": "蓋亞那",
    "country_iso_code": "GY",
    "timezone": "America/Guyana",
    "latitude": 5.88645,
    "longitude": -57.14091
  },
  {
    "city": "Quakers Hall",
    "city_zh": "Quakers Hall",
    "country": "Guyana",
    "country_zh": "蓋亞那",
    "country_iso_code": "GY",
    "timezone": "America/Guyana",
    "latitude": 6.62595,
    "longitude": -57.8512
  },
  {
    "city": "Puwa Village",
    "city_zh": "Puwa Village",
    "country": "Guyana",
    "country_zh": "蓋亞那",
    "country_iso_code": "GY",
    "timezone": "America/Guyana",
    "latitude": 4.51667,
    "longitude": -59.98333
  },
  {
    "city": "Pukasanta Village",
    "city_zh": "Pukasanta Village",
    "country": "Guyana",
    "country_zh": "蓋亞那",
    "country_iso_code": "GY",
    "timezone": "America/Guyana",
    "latitude": 3.06667,
    "longitude": -58.9
  },
  {
    "city": "Pubu",
    "city_zh": "Pubu",
    "country": "Guyana",
    "country_zh": "蓋亞那",
    "country_iso_code": "GY",
    "timezone": "America/Guyana",
    "latitude": 5.23333,
    "longitude": -58.61667
  },
  {
    "city": "Providence Place",
    "city_zh": "Providence Place",
    "country": "Guyana",
    "country_zh": "蓋亞那",
    "country_iso_code": "GY",
    "timezone": "America/Guyana",
    "latitude": 6.22605,
    "longitude": -57.5243
  },
  {
    "city": "Providence",
    "city_zh": "Providence",
    "country": "Guyana",
    "country_zh": "蓋亞那",
    "country_iso_code": "GY",
    "timezone": "America/Guyana",
    "latitude": 6.76202,
    "longitude": -58.18001
  },
  {
    "city": "Providence",
    "city_zh": "Providence",
    "country": "Guyana",
    "country_zh": "蓋亞那",
    "country_iso_code": "GY",
    "timezone": "America/Guyana",
    "latitude": 7.48376,
    "longitude": -58.63421
  },
  {
    "city": "Prospect",
    "city_zh": "Prospect",
    "country": "Guyana",
    "country_zh": "蓋亞那",
    "country_iso_code": "GY",
    "timezone": "America/Guyana",
    "latitude": 6.63992,
    "longitude": -57.86703
  },
  {
    "city": "Profit",
    "city_zh": "Profit",
    "country": "Guyana",
    "country_zh": "蓋亞那",
    "country_iso_code": "GY",
    "timezone": "America/Guyana",
    "latitude": 6.74511,
    "longitude": -58.15249
  },
  {
    "city": "Profit",
    "city_zh": "Profit",
    "country": "Guyana",
    "country_zh": "蓋亞那",
    "country_iso_code": "GY",
    "timezone": "America/Guyana",
    "latitude": 6.52083,
    "longitude": -57.72207
  },
  {
    "city": "Princetown",
    "city_zh": "Princetown",
    "country": "Guyana",
    "country_zh": "蓋亞那",
    "country_iso_code": "GY",
    "timezone": "America/Guyana",
    "latitude": 5.90486,
    "longitude": -57.13915
  },
  {
    "city": "Princess Carolina",
    "city_zh": "Princess Carolina",
    "country": "Guyana",
    "country_zh": "蓋亞那",
    "country_iso_code": "GY",
    "timezone": "America/Guyana",
    "latitude": 6.48931,
    "longitude": -58.30364
  },
  {
    "city": "Present Hope",
    "city_zh": "Present Hope",
    "country": "Guyana",
    "country_zh": "蓋亞那",
    "country_iso_code": "GY",
    "timezone": "America/Guyana",
    "latitude": 6.80742,
    "longitude": -58.47843
  },
  {
    "city": "Prashad Nagar",
    "city_zh": "Prashad Nagar",
    "country": "Guyana",
    "country_zh": "蓋亞那",
    "country_iso_code": "GY",
    "timezone": "America/Guyana",
    "latitude": 6.81817,
    "longitude": -58.13148
  },
  {
    "city": "Powisanau Village",
    "city_zh": "Powisanau Village",
    "country": "Guyana",
    "country_zh": "蓋亞那",
    "country_iso_code": "GY",
    "timezone": "America/Guyana",
    "latitude": 2.53333,
    "longitude": -59.45
  },
  {
    "city": "Poterima",
    "city_zh": "Poterima",
    "country": "Guyana",
    "country_zh": "蓋亞那",
    "country_iso_code": "GY",
    "timezone": "America/Guyana",
    "latitude": 6.28508,
    "longitude": -58.58513
  },
  {
    "city": "Port Mourant",
    "city_zh": "Port Mourant",
    "country": "Guyana",
    "country_zh": "蓋亞那",
    "country_iso_code": "GY",
    "timezone": "America/Guyana",
    "latitude": 6.24604,
    "longitude": -57.3336
  },
  {
    "city": "Port Kaituma",
    "city_zh": "Port Kaituma",
    "country": "Guyana",
    "country_zh": "蓋亞那",
    "country_iso_code": "GY",
    "timezone": "America/Guyana",
    "latitude": 7.72987,
    "longitude": -59.87514
  },
  {
    "city": "Pomona",
    "city_zh": "Pomona",
    "country": "Guyana",
    "country_zh": "蓋亞那",
    "country_iso_code": "GY",
    "timezone": "America/Guyana",
    "latitude": 7.05883,
    "longitude": -58.48241
  },
  {
    "city": "Planters Hall",
    "city_zh": "Planters Hall",
    "country": "Guyana",
    "country_zh": "蓋亞那",
    "country_iso_code": "GY",
    "timezone": "America/Guyana",
    "latitude": 6.61716,
    "longitude": -57.84177
  },
  {
    "city": "Abary",
    "city_zh": "Abary",
    "country": "Guyana",
    "country_zh": "蓋亞那",
    "country_iso_code": "GY",
    "timezone": "America/Guyana",
    "latitude": 6.53665,
    "longitude": -57.74807
  },
  {
    "city": "Plaisance",
    "city_zh": "Plaisance",
    "country": "Guyana",
    "country_zh": "蓋亞那",
    "country_iso_code": "GY",
    "timezone": "America/Guyana",
    "latitude": 6.8139,
    "longitude": -58.09484
  },
  {
    "city": "Pirara",
    "city_zh": "Pirara",
    "country": "Guyana",
    "country_zh": "蓋亞那",
    "country_iso_code": "GY",
    "timezone": "America/Guyana",
    "latitude": 3.61667,
    "longitude": -59.66667
  },
  {
    "city": "Pine Ground",
    "city_zh": "Pine Ground",
    "country": "Guyana",
    "country_zh": "蓋亞那",
    "country_iso_code": "GY",
    "timezone": "America/Guyana",
    "latitude": 6.41505,
    "longitude": -57.78313
  },
  {
    "city": "Pilinawa",
    "city_zh": "Pilinawa",
    "country": "Guyana",
    "country_zh": "蓋亞那",
    "country_iso_code": "GY",
    "timezone": "America/Guyana",
    "latitude": 2.76667,
    "longitude": -59.68333
  },
  {
    "city": "Pickersgill",
    "city_zh": "Pickersgill",
    "country": "Guyana",
    "country_zh": "蓋亞那",
    "country_iso_code": "GY",
    "timezone": "America/Guyana",
    "latitude": 7.25624,
    "longitude": -58.72252
  },
  {
    "city": "Phoenix Town",
    "city_zh": "Phoenix Town",
    "country": "Guyana",
    "country_zh": "蓋亞那",
    "country_iso_code": "GY",
    "timezone": "America/Guyana",
    "latitude": 6.79788,
    "longitude": -58.19058
  },
  {
    "city": "Phoenix",
    "city_zh": "Phoenix",
    "country": "Guyana",
    "country_zh": "蓋亞那",
    "country_iso_code": "GY",
    "timezone": "America/Guyana",
    "latitude": 6.8912,
    "longitude": -58.44776
  },
  {
    "city": "Philadelphia",
    "city_zh": "Philadelphia",
    "country": "Guyana",
    "country_zh": "蓋亞那",
    "country_iso_code": "GY",
    "timezone": "America/Guyana",
    "latitude": 6.87488,
    "longitude": -58.36601
  },
  {
    "city": "Peters Hall",
    "city_zh": "Peters Hall",
    "country": "Guyana",
    "country_zh": "蓋亞那",
    "country_iso_code": "GY",
    "timezone": "America/Guyana",
    "latitude": 6.76645,
    "longitude": -58.17501
  },
  {
    "city": "Perth",
    "city_zh": "Perth",
    "country": "Guyana",
    "country_zh": "蓋亞那",
    "country_iso_code": "GY",
    "timezone": "America/Guyana",
    "latitude": 6.55435,
    "longitude": -57.80143
  },
  {
    "city": "Perth",
    "city_zh": "Perth",
    "country": "Guyana",
    "country_zh": "蓋亞那",
    "country_iso_code": "GY",
    "timezone": "America/Guyana",
    "latitude": 7.35618,
    "longitude": -58.49324
  },
  {
    "city": "Perseverance",
    "city_zh": "Perseverance",
    "country": "Guyana",
    "country_zh": "蓋亞那",
    "country_iso_code": "GY",
    "timezone": "America/Guyana",
    "latitude": 7.14591,
    "longitude": -58.47576
  },
  {
    "city": "Perseverance",
    "city_zh": "Perseverance",
    "country": "Guyana",
    "country_zh": "蓋亞那",
    "country_iso_code": "GY",
    "timezone": "America/Guyana",
    "latitude": 6.74087,
    "longitude": -58.14704
  },
  {
    "city": "Perseverance",
    "city_zh": "Perseverance",
    "country": "Guyana",
    "country_zh": "蓋亞那",
    "country_iso_code": "GY",
    "timezone": "America/Guyana",
    "latitude": 6.6111,
    "longitude": -57.83321
  },
  {
    "city": "Peropo",
    "city_zh": "Peropo",
    "country": "Guyana",
    "country_zh": "蓋亞那",
    "country_iso_code": "GY",
    "timezone": "America/Guyana",
    "latitude": 4.13333,
    "longitude": -59.11667
  },
  {
    "city": "Pearl",
    "city_zh": "Pearl",
    "country": "Guyana",
    "country_zh": "蓋亞那",
    "country_iso_code": "GY",
    "timezone": "America/Guyana",
    "latitude": 6.58908,
    "longitude": -58.2085
  },
  {
    "city": "Pattensen",
    "city_zh": "Pattensen",
    "country": "Guyana",
    "country_zh": "蓋亞那",
    "country_iso_code": "GY",
    "timezone": "America/Guyana",
    "latitude": 6.81433,
    "longitude": -58.11963
  },
  {
    "city": "Patientia",
    "city_zh": "Patientia",
    "country": "Guyana",
    "country_zh": "蓋亞那",
    "country_iso_code": "GY",
    "timezone": "America/Guyana",
    "latitude": 6.53991,
    "longitude": -58.61853
  },
  {
    "city": "Patentia",
    "city_zh": "Patentia",
    "country": "Guyana",
    "country_zh": "蓋亞那",
    "country_iso_code": "GY",
    "timezone": "America/Guyana",
    "latitude": 6.69847,
    "longitude": -58.20011
  },
  {
    "city": "Parishara",
    "city_zh": "Parishara",
    "country": "Guyana",
    "country_zh": "蓋亞那",
    "country_iso_code": "GY",
    "timezone": "America/Guyana",
    "latitude": 3.45422,
    "longitude": -59.573
  },
  {
    "city": "Parikaranal",
    "city_zh": "Parikaranal",
    "country": "Guyana",
    "country_zh": "蓋亞那",
    "country_iso_code": "GY",
    "timezone": "America/Guyana",
    "latitude": 3.56667,
    "longitude": -59.58333
  },
  {
    "city": "Parika",
    "city_zh": "Parika",
    "country": "Guyana",
    "country_zh": "蓋亞那",
    "country_iso_code": "GY",
    "timezone": "America/Guyana",
    "latitude": 6.83712,
    "longitude": -58.42941
  },
  {
    "city": "Parapimai",
    "city_zh": "Parapimai",
    "country": "Guyana",
    "country_zh": "蓋亞那",
    "country_iso_code": "GY",
    "timezone": "America/Guyana",
    "latitude": 7.36667,
    "longitude": -59.66667
  },
  {
    "city": "Paramakatoi",
    "city_zh": "Paramakatoi",
    "country": "Guyana",
    "country_zh": "蓋亞那",
    "country_iso_code": "GY",
    "timezone": "America/Guyana",
    "latitude": 4.71667,
    "longitude": -59.7
  },
  {
    "city": "Paradise",
    "city_zh": "Paradise",
    "country": "Guyana",
    "country_zh": "蓋亞那",
    "country_iso_code": "GY",
    "timezone": "America/Guyana",
    "latitude": 5.56667,
    "longitude": -57.91667
  },
  {
    "city": "Paradise",
    "city_zh": "Paradise",
    "country": "Guyana",
    "country_zh": "蓋亞那",
    "country_iso_code": "GY",
    "timezone": "America/Guyana",
    "latitude": 7.33474,
    "longitude": -58.48451
  },
  {
    "city": "Paradise",
    "city_zh": "Paradise",
    "country": "Guyana",
    "country_zh": "蓋亞那",
    "country_iso_code": "GY",
    "timezone": "America/Guyana",
    "latitude": 6.76292,
    "longitude": -57.99959
  },
  {
    "city": "Paradise",
    "city_zh": "Paradise",
    "country": "Guyana",
    "country_zh": "蓋亞那",
    "country_iso_code": "GY",
    "timezone": "America/Guyana",
    "latitude": 6.50309,
    "longitude": -57.69554
  },
  {
    "city": "Parabara",
    "city_zh": "Parabara",
    "country": "Guyana",
    "country_zh": "蓋亞那",
    "country_iso_code": "GY",
    "timezone": "America/Guyana",
    "latitude": 2.21667,
    "longitude": -59.3
  },
  {
    "city": "Osterbeck",
    "city_zh": "Osterbeck",
    "country": "Guyana",
    "country_zh": "蓋亞那",
    "country_iso_code": "GY",
    "timezone": "America/Guyana",
    "latitude": 6.89775,
    "longitude": -58.43851
  },
  {
    "city": "Ormsary",
    "city_zh": "Ormsary",
    "country": "Guyana",
    "country_zh": "蓋亞那",
    "country_iso_code": "GY",
    "timezone": "America/Guyana",
    "latitude": 6.58935,
    "longitude": -57.81533
  },
  {
    "city": "Orealla",
    "city_zh": "Orealla",
    "country": "Guyana",
    "country_zh": "蓋亞那",
    "country_iso_code": "GY",
    "timezone": "America/Guyana",
    "latitude": 5.31667,
    "longitude": -57.33333
  },
  {
    "city": "Orangestein",
    "city_zh": "Orangestein",
    "country": "Guyana",
    "country_zh": "蓋亞那",
    "country_iso_code": "GY",
    "timezone": "America/Guyana",
    "latitude": 6.86646,
    "longitude": -58.40467
  },
  {
    "city": "Oranapai Landing",
    "city_zh": "Oranapai Landing",
    "country": "Guyana",
    "country_zh": "蓋亞那",
    "country_iso_code": "GY",
    "timezone": "America/Guyana",
    "latitude": 6.07208,
    "longitude": -59.91776
  },
  {
    "city": "Opposite",
    "city_zh": "Opposite",
    "country": "Guyana",
    "country_zh": "蓋亞那",
    "country_iso_code": "GY",
    "timezone": "America/Guyana",
    "latitude": 7.39298,
    "longitude": -58.54427
  },
  {
    "city": "Onderneeming",
    "city_zh": "Onderneeming",
    "country": "Guyana",
    "country_zh": "蓋亞那",
    "country_iso_code": "GY",
    "timezone": "America/Guyana",
    "latitude": 7.10634,
    "longitude": -58.48532
  },
  {
    "city": "Onderneeming",
    "city_zh": "Onderneeming",
    "country": "Guyana",
    "country_zh": "蓋亞那",
    "country_iso_code": "GY",
    "timezone": "America/Guyana",
    "latitude": 6.78004,
    "longitude": -58.23037
  },
  {
    "city": "Old England",
    "city_zh": "Old England",
    "country": "Guyana",
    "country_zh": "蓋亞那",
    "country_iso_code": "GY",
    "timezone": "America/Guyana",
    "latitude": 5.97223,
    "longitude": -58.27464
  },
  {
    "city": "Okum",
    "city_zh": "Okum",
    "country": "Guyana",
    "country_zh": "蓋亞那",
    "country_iso_code": "GY",
    "timezone": "America/Guyana",
    "latitude": 6.92733,
    "longitude": -58.3721
  },
  {
    "city": "Ogle",
    "city_zh": "Ogle",
    "country": "Guyana",
    "country_zh": "蓋亞那",
    "country_iso_code": "GY",
    "timezone": "America/Guyana",
    "latitude": 6.8133,
    "longitude": -58.10198
  },
  {
    "city": "Number Twelve",
    "city_zh": "Number Twelve",
    "country": "Guyana",
    "country_zh": "蓋亞那",
    "country_iso_code": "GY",
    "timezone": "America/Guyana",
    "latitude": 6.5351,
    "longitude": -57.79974
  },
  {
    "city": "Number Twelve",
    "city_zh": "Number Twelve",
    "country": "Guyana",
    "country_zh": "蓋亞那",
    "country_iso_code": "GY",
    "timezone": "America/Guyana",
    "latitude": 6.35658,
    "longitude": -57.58314
  },
  {
    "city": "Number Ten",
    "city_zh": "Number Ten",
    "country": "Guyana",
    "country_zh": "蓋亞那",
    "country_iso_code": "GY",
    "timezone": "America/Guyana",
    "latitude": 6.56851,
    "longitude": -57.88626
  },
  {
    "city": "Number Ten",
    "city_zh": "Number Ten",
    "country": "Guyana",
    "country_zh": "蓋亞那",
    "country_iso_code": "GY",
    "timezone": "America/Guyana",
    "latitude": 6.54234,
    "longitude": -57.79976
  },
  {
    "city": "Number Sixty-two",
    "city_zh": "Number Sixty-two",
    "country": "Guyana",
    "country_zh": "蓋亞那",
    "country_iso_code": "GY",
    "timezone": "America/Guyana",
    "latitude": 5.99069,
    "longitude": -57.16158
  },
  {
    "city": "Number Sixty-six",
    "city_zh": "Number Sixty-six",
    "country": "Guyana",
    "country_zh": "蓋亞那",
    "country_iso_code": "GY",
    "timezone": "America/Guyana",
    "latitude": 5.9662,
    "longitude": -57.16142
  },
  {
    "city": "Number Sixty-seven",
    "city_zh": "Number Sixty-seven",
    "country": "Guyana",
    "country_zh": "蓋亞那",
    "country_iso_code": "GY",
    "timezone": "America/Guyana",
    "latitude": 5.96328,
    "longitude": -57.15489
  },
  {
    "city": "Number Sixty-one",
    "city_zh": "Number Sixty-one",
    "country": "Guyana",
    "country_zh": "蓋亞那",
    "country_iso_code": "GY",
    "timezone": "America/Guyana",
    "latitude": 5.99576,
    "longitude": -57.16126
  },
  {
    "city": "Number Sixty",
    "city_zh": "Number Sixty",
    "country": "Guyana",
    "country_zh": "蓋亞那",
    "country_iso_code": "GY",
    "timezone": "America/Guyana",
    "latitude": 5.9981,
    "longitude": -57.16707
  },
  {
    "city": "Number Seventy-seven",
    "city_zh": "Number Seventy-seven",
    "country": "Guyana",
    "country_zh": "蓋亞那",
    "country_iso_code": "GY",
    "timezone": "America/Guyana",
    "latitude": 5.89998,
    "longitude": -57.1445
  },
  {
    "city": "Number Forty-six",
    "city_zh": "Number Forty-six",
    "country": "Guyana",
    "country_zh": "蓋亞那",
    "country_iso_code": "GY",
    "timezone": "America/Guyana",
    "latitude": 6.08333,
    "longitude": -57.2
  },
  {
    "city": "Number Forty-one",
    "city_zh": "Number Forty-one",
    "country": "Guyana",
    "country_zh": "蓋亞那",
    "country_iso_code": "GY",
    "timezone": "America/Guyana",
    "latitude": 6.4739,
    "longitude": -57.67273
  },
  {
    "city": "Number Forty-five",
    "city_zh": "Number Forty-five",
    "country": "Guyana",
    "country_zh": "蓋亞那",
    "country_iso_code": "GY",
    "timezone": "America/Guyana",
    "latitude": 6.1,
    "longitude": -57.2
  },
  {
    "city": "Number Forty",
    "city_zh": "Number Forty",
    "country": "Guyana",
    "country_zh": "蓋亞那",
    "country_iso_code": "GY",
    "timezone": "America/Guyana",
    "latitude": 6.47003,
    "longitude": -57.66929
  },
  {
    "city": "Now or Never",
    "city_zh": "Now or Never",
    "country": "Guyana",
    "country_zh": "蓋亞那",
    "country_iso_code": "GY",
    "timezone": "America/Guyana",
    "latitude": 6.60568,
    "longitude": -57.82828
  },
  {
    "city": "Novar",
    "city_zh": "Novar",
    "country": "Guyana",
    "country_zh": "蓋亞那",
    "country_iso_code": "GY",
    "timezone": "America/Guyana",
    "latitude": 6.55038,
    "longitude": -57.76543
  },
  {
    "city": "Nouvelle Flanders",
    "city_zh": "Nouvelle Flanders",
    "country": "Guyana",
    "country_zh": "蓋亞那",
    "country_iso_code": "GY",
    "timezone": "America/Guyana",
    "latitude": 6.81603,
    "longitude": -58.20807
  },
  {
    "city": "Nooten Zuil",
    "city_zh": "Nooten Zuil",
    "country": "Guyana",
    "country_zh": "蓋亞那",
    "country_iso_code": "GY",
    "timezone": "America/Guyana",
    "latitude": 6.74902,
    "longitude": -57.96249
  },
  {
    "city": "Nonpareil",
    "city_zh": "Nonpareil",
    "country": "Guyana",
    "country_zh": "蓋亞那",
    "country_iso_code": "GY",
    "timezone": "America/Guyana",
    "latitude": 6.7794,
    "longitude": -58.01029
  },
  {
    "city": "Noitgedacht",
    "city_zh": "Noitgedacht",
    "country": "Guyana",
    "country_zh": "蓋亞那",
    "country_iso_code": "GY",
    "timezone": "America/Guyana",
    "latitude": 6.0,
    "longitude": -58.3
  },
  {
    "city": "Noitgedacht",
    "city_zh": "Noitgedacht",
    "country": "Guyana",
    "country_zh": "蓋亞那",
    "country_iso_code": "GY",
    "timezone": "America/Guyana",
    "latitude": 6.94095,
    "longitude": -58.4533
  },
  {
    "city": "Noitgedacht",
    "city_zh": "Noitgedacht",
    "country": "Guyana",
    "country_zh": "蓋亞那",
    "country_iso_code": "GY",
    "timezone": "America/Guyana",
    "latitude": 6.64741,
    "longitude": -57.89744
  },
  {
    "city": "Nog Eens",
    "city_zh": "Nog Eens",
    "country": "Guyana",
    "country_zh": "蓋亞那",
    "country_iso_code": "GY",
    "timezone": "America/Guyana",
    "latitude": 6.77027,
    "longitude": -58.04051
  },
  {
    "city": "Nismes",
    "city_zh": "Nismes",
    "country": "Guyana",
    "country_zh": "蓋亞那",
    "country_iso_code": "GY",
    "timezone": "America/Guyana",
    "latitude": 6.75422,
    "longitude": -58.20407
  },
  {
    "city": "Nile",
    "city_zh": "Nile",
    "country": "Guyana",
    "country_zh": "蓋亞那",
    "country_iso_code": "GY",
    "timezone": "America/Guyana",
    "latitude": 7.47884,
    "longitude": -58.62896
  },
  {
    "city": "Newtown",
    "city_zh": "Newtown",
    "country": "Guyana",
    "country_zh": "蓋亞那",
    "country_iso_code": "GY",
    "timezone": "America/Guyana",
    "latitude": 6.81377,
    "longitude": -58.14444
  },
  {
    "city": "New Providence",
    "city_zh": "New Providence",
    "country": "Guyana",
    "country_zh": "蓋亞那",
    "country_iso_code": "GY",
    "timezone": "America/Guyana",
    "latitude": 6.51734,
    "longitude": -57.8027
  },
  {
    "city": "Number Sixty-five New Market",
    "city_zh": "Number Sixty-five New Market",
    "country": "Guyana",
    "country_zh": "蓋亞那",
    "country_iso_code": "GY",
    "timezone": "America/Guyana",
    "latitude": 5.97388,
    "longitude": -57.15628
  },
  {
    "city": "New Haven",
    "city_zh": "New Haven",
    "country": "Guyana",
    "country_zh": "蓋亞那",
    "country_iso_code": "GY",
    "timezone": "America/Guyana",
    "latitude": 6.08333,
    "longitude": -58.13333
  },
  {
    "city": "New Friendship",
    "city_zh": "New Friendship",
    "country": "Guyana",
    "country_zh": "蓋亞那",
    "country_iso_code": "GY",
    "timezone": "America/Guyana",
    "latitude": 6.94756,
    "longitude": -58.47841
  },
  {
    "city": "Newburg",
    "city_zh": "Newburg",
    "country": "Guyana",
    "country_zh": "蓋亞那",
    "country_iso_code": "GY",
    "timezone": "America/Guyana",
    "latitude": 6.80577,
    "longitude": -58.1602
  },
  {
    "city": "New Belle Plaine",
    "city_zh": "New Belle Plaine",
    "country": "Guyana",
    "country_zh": "蓋亞那",
    "country_iso_code": "GY",
    "timezone": "America/Guyana",
    "latitude": 6.94879,
    "longitude": -58.44372
  },
  {
    "city": "New Amsterdam",
    "city_zh": "新阿姆斯特丹",
    "country": "Guyana",
    "country_zh": "蓋亞那",
    "country_iso_code": "GY",
    "timezone": "America/Guyana",
    "latitude": 6.24793,
    "longitude": -57.5171
  },
  {
    "city": "New Aanlegt",
    "city_zh": "New Aanlegt",
    "country": "Guyana",
    "country_zh": "蓋亞那",
    "country_iso_code": "GY",
    "timezone": "America/Guyana",
    "latitude": 6.73614,
    "longitude": -58.26587
  },
  {
    "city": "Neufchatel",
    "city_zh": "Neufchatel",
    "country": "Guyana",
    "country_zh": "蓋亞那",
    "country_iso_code": "GY",
    "timezone": "America/Guyana",
    "latitude": 6.65511,
    "longitude": -57.8955
  },
  {
    "city": "Fort Nassau",
    "city_zh": "Fort Nassau",
    "country": "Guyana",
    "country_zh": "蓋亞那",
    "country_iso_code": "GY",
    "timezone": "America/Guyana",
    "latitude": 5.7583,
    "longitude": -57.65743
  },
  {
    "city": "Nappi Village",
    "city_zh": "Nappi Village",
    "country": "Guyana",
    "country_zh": "蓋亞那",
    "country_iso_code": "GY",
    "timezone": "America/Guyana",
    "latitude": 3.41466,
    "longitude": -59.57597
  },
  {
    "city": "Nabaclis",
    "city_zh": "Nabaclis",
    "country": "Guyana",
    "country_zh": "蓋亞那",
    "country_iso_code": "GY",
    "timezone": "America/Guyana",
    "latitude": 6.75187,
    "longitude": -57.97822
  },
  {
    "city": "Naamryck",
    "city_zh": "Naamryck",
    "country": "Guyana",
    "country_zh": "蓋亞那",
    "country_iso_code": "GY",
    "timezone": "America/Guyana",
    "latitude": 6.84173,
    "longitude": -58.44474
  },
  {
    "city": "Naamless",
    "city_zh": "Naamless",
    "country": "Guyana",
    "country_zh": "蓋亞那",
    "country_iso_code": "GY",
    "timezone": "America/Guyana",
    "latitude": 6.80222,
    "longitude": -58.48293
  },
  {
    "city": "Mubohina",
    "city_zh": "Mubohina",
    "country": "Guyana",
    "country_zh": "蓋亞那",
    "country_iso_code": "GY",
    "timezone": "America/Guyana",
    "latitude": 7.58333,
    "longitude": -59.13333
  },
  {
    "city": "Mount Everard",
    "city_zh": "Mount Everard",
    "country": "Guyana",
    "country_zh": "蓋亞那",
    "country_iso_code": "GY",
    "timezone": "America/Guyana",
    "latitude": 7.81667,
    "longitude": -59.46667
  },
  {
    "city": "Mountain View",
    "city_zh": "Mountain View",
    "country": "Guyana",
    "country_zh": "蓋亞那",
    "country_iso_code": "GY",
    "timezone": "America/Guyana",
    "latitude": 3.51667,
    "longitude": -59.55
  },
  {
    "city": "Mountain Point",
    "city_zh": "Mountain Point",
    "country": "Guyana",
    "country_zh": "蓋亞那",
    "country_iso_code": "GY",
    "timezone": "America/Guyana",
    "latitude": 3.0,
    "longitude": -59.63333
  },
  {
    "city": "Mosquito Hall",
    "city_zh": "Mosquito Hall",
    "country": "Guyana",
    "country_zh": "蓋亞那",
    "country_iso_code": "GY",
    "timezone": "America/Guyana",
    "latitude": 6.70849,
    "longitude": -57.92462
  },
  {
    "city": "Mortice",
    "city_zh": "Mortice",
    "country": "Guyana",
    "country_zh": "蓋亞那",
    "country_iso_code": "GY",
    "timezone": "America/Guyana",
    "latitude": 6.51055,
    "longitude": -57.8048
  },
  {
    "city": "Moreiru",
    "city_zh": "Moreiru",
    "country": "Guyana",
    "country_zh": "蓋亞那",
    "country_iso_code": "GY",
    "timezone": "America/Guyana",
    "latitude": 3.9,
    "longitude": -59.55
  },
  {
    "city": "Morawhanna",
    "city_zh": "Morawhanna",
    "country": "Guyana",
    "country_zh": "蓋亞那",
    "country_iso_code": "GY",
    "timezone": "America/Guyana",
    "latitude": 8.26867,
    "longitude": -59.7561
  },
  {
    "city": "Morasi",
    "city_zh": "Morasi",
    "country": "Guyana",
    "country_zh": "蓋亞那",
    "country_iso_code": "GY",
    "timezone": "America/Guyana",
    "latitude": 6.76434,
    "longitude": -58.50395
  },
  {
    "city": "Mora Point",
    "city_zh": "Mora Point",
    "country": "Guyana",
    "country_zh": "蓋亞那",
    "country_iso_code": "GY",
    "timezone": "America/Guyana",
    "latitude": 6.43729,
    "longitude": -57.77764
  },
  {
    "city": "Saint Francis Mission",
    "city_zh": "Saint Francis Mission",
    "country": "Guyana",
    "country_zh": "蓋亞那",
    "country_iso_code": "GY",
    "timezone": "America/Guyana",
    "latitude": 6.09855,
    "longitude": -57.95084
  },
  {
    "city": "Mora",
    "city_zh": "Mora",
    "country": "Guyana",
    "country_zh": "蓋亞那",
    "country_iso_code": "GY",
    "timezone": "America/Guyana",
    "latitude": 6.83576,
    "longitude": -58.45012
  },
  {
    "city": "Moorfarm",
    "city_zh": "Moorfarm",
    "country": "Guyana",
    "country_zh": "蓋亞那",
    "country_iso_code": "GY",
    "timezone": "America/Guyana",
    "latitude": 6.98711,
    "longitude": -58.40922
  },
  {
    "city": "Montrose",
    "city_zh": "Montrose",
    "country": "Guyana",
    "country_zh": "蓋亞那",
    "country_iso_code": "GY",
    "timezone": "America/Guyana",
    "latitude": 6.81948,
    "longitude": -58.08407
  },
  {
    "city": "Mon Repos",
    "city_zh": "Mon Repos",
    "country": "Guyana",
    "country_zh": "蓋亞那",
    "country_iso_code": "GY",
    "timezone": "America/Guyana",
    "latitude": 6.80845,
    "longitude": -58.05291
  },
  {
    "city": "Monkey Mountain",
    "city_zh": "Monkey Mountain",
    "country": "Guyana",
    "country_zh": "蓋亞那",
    "country_iso_code": "GY",
    "timezone": "America/Guyana",
    "latitude": 4.48333,
    "longitude": -59.68333
  },
  {
    "city": "Monkey Jump",
    "city_zh": "Monkey Jump",
    "country": "Guyana",
    "country_zh": "蓋亞那",
    "country_iso_code": "GY",
    "timezone": "America/Guyana",
    "latitude": 6.25,
    "longitude": -58.56667
  },
  {
    "city": "Mongreppo",
    "city_zh": "Mongreppo",
    "country": "Guyana",
    "country_zh": "蓋亞那",
    "country_iso_code": "GY",
    "timezone": "America/Guyana",
    "latitude": 6.39768,
    "longitude": -58.6208
  },
  {
    "city": "Mon Desir",
    "city_zh": "Mon Desir",
    "country": "Guyana",
    "country_zh": "蓋亞那",
    "country_iso_code": "GY",
    "timezone": "America/Guyana",
    "latitude": 6.72091,
    "longitude": -58.25679
  },
  {
    "city": "Moco-Moco Village",
    "city_zh": "Moco-Moco Village",
    "country": "Guyana",
    "country_zh": "蓋亞那",
    "country_iso_code": "GY",
    "timezone": "America/Guyana",
    "latitude": 3.33333,
    "longitude": -59.66667
  },
  {
    "city": "Moca Moca",
    "city_zh": "Moca Moca",
    "country": "Guyana",
    "country_zh": "蓋亞那",
    "country_iso_code": "GY",
    "timezone": "America/Guyana",
    "latitude": 6.4745,
    "longitude": -57.78682
  },
  {
    "city": "Mocha",
    "city_zh": "Mocha",
    "country": "Guyana",
    "country_zh": "蓋亞那",
    "country_iso_code": "GY",
    "timezone": "America/Guyana",
    "latitude": 7.19374,
    "longitude": -58.48925
  },
  {
    "city": "Mission Landing",
    "city_zh": "Mission Landing",
    "country": "Guyana",
    "country_zh": "蓋亞那",
    "country_iso_code": "GY",
    "timezone": "America/Guyana",
    "latitude": 7.75892,
    "longitude": -59.86031
  },
  {
    "city": "Middlesex",
    "city_zh": "Middlesex",
    "country": "Guyana",
    "country_zh": "蓋亞那",
    "country_iso_code": "GY",
    "timezone": "America/Guyana",
    "latitude": 7.0413,
    "longitude": -58.48719
  },
  {
    "city": "Mibikuri",
    "city_zh": "Mibikuri",
    "country": "Guyana",
    "country_zh": "蓋亞那",
    "country_iso_code": "GY",
    "timezone": "America/Guyana",
    "latitude": 6.10546,
    "longitude": -57.2824
  },
  {
    "city": "Met en Meerzorg",
    "city_zh": "Met en Meerzorg",
    "country": "Guyana",
    "country_zh": "蓋亞那",
    "country_iso_code": "GY",
    "timezone": "America/Guyana",
    "latitude": 6.87843,
    "longitude": -58.32366
  },
  {
    "city": "Mes Delices",
    "city_zh": "Mes Delices",
    "country": "Guyana",
    "country_zh": "蓋亞那",
    "country_iso_code": "GY",
    "timezone": "America/Guyana",
    "latitude": 6.65081,
    "longitude": -57.8819
  },
  {
    "city": "Meritizero",
    "city_zh": "Meritizero",
    "country": "Guyana",
    "country_zh": "蓋亞那",
    "country_iso_code": "GY",
    "timezone": "America/Guyana",
    "latitude": 3.75,
    "longitude": -59.58333
  },
  {
    "city": "Melville",
    "city_zh": "Melville",
    "country": "Guyana",
    "country_zh": "蓋亞那",
    "country_iso_code": "GY",
    "timezone": "America/Guyana",
    "latitude": 6.95414,
    "longitude": -58.46913
  },
  {
    "city": "Meerzorg",
    "city_zh": "Meerzorg",
    "country": "Guyana",
    "country_zh": "蓋亞那",
    "country_iso_code": "GY",
    "timezone": "America/Guyana",
    "latitude": 6.98375,
    "longitude": -58.43872
  },
  {
    "city": "Meer Zorgen",
    "city_zh": "Meer Zorgen",
    "country": "Guyana",
    "country_zh": "蓋亞那",
    "country_iso_code": "GY",
    "timezone": "America/Guyana",
    "latitude": 6.77686,
    "longitude": -58.20099
  },
  {
    "city": "Meadow Bank",
    "city_zh": "Meadow Bank",
    "country": "Guyana",
    "country_zh": "蓋亞那",
    "country_iso_code": "GY",
    "timezone": "America/Guyana",
    "latitude": 6.78936,
    "longitude": -58.16961
  },
  {
    "city": "Mc Doom",
    "city_zh": "Mc Doom",
    "country": "Guyana",
    "country_zh": "蓋亞那",
    "country_iso_code": "GY",
    "timezone": "America/Guyana",
    "latitude": 6.78092,
    "longitude": -58.17034
  },
  {
    "city": "Number Seventy Massiah",
    "city_zh": "Number Seventy Massiah",
    "country": "Guyana",
    "country_zh": "蓋亞那",
    "country_iso_code": "GY",
    "timezone": "America/Guyana",
    "latitude": 5.94025,
    "longitude": -57.16611
  },
  {
    "city": "Massara",
    "city_zh": "Massara",
    "country": "Guyana",
    "country_zh": "蓋亞那",
    "country_iso_code": "GY",
    "timezone": "America/Guyana",
    "latitude": 3.9,
    "longitude": -59.3
  },
  {
    "city": "Masabona",
    "city_zh": "Masabona",
    "country": "Guyana",
    "country_zh": "蓋亞那",
    "country_iso_code": "GY",
    "timezone": "America/Guyana",
    "latitude": 5.6,
    "longitude": -58.38333
  },
  {
    "city": "Maryville",
    "city_zh": "Maryville",
    "country": "Guyana",
    "country_zh": "蓋亞那",
    "country_iso_code": "GY",
    "timezone": "America/Guyana",
    "latitude": 6.91107,
    "longitude": -58.41483
  },
  {
    "city": "Marys Hope",
    "city_zh": "Marys Hope",
    "country": "Guyana",
    "country_zh": "蓋亞那",
    "country_iso_code": "GY",
    "timezone": "America/Guyana",
    "latitude": 6.66045,
    "longitude": -57.93264
  },
  {
    "city": "Number Seventy-eight Mary and Eliza",
    "city_zh": "Number Seventy-eight Mary and Eliza",
    "country": "Guyana",
    "country_zh": "蓋亞那",
    "country_iso_code": "GY",
    "timezone": "America/Guyana",
    "latitude": 5.89871,
    "longitude": -57.14674
  },
  {
    "city": "Mary",
    "city_zh": "Mary",
    "country": "Guyana",
    "country_zh": "蓋亞那",
    "country_iso_code": "GY",
    "timezone": "America/Guyana",
    "latitude": 6.57427,
    "longitude": -57.79804
  },
  {
    "city": "Marurawaunawa Village",
    "city_zh": "Marurawaunawa Village",
    "country": "Guyana",
    "country_zh": "蓋亞那",
    "country_iso_code": "GY",
    "timezone": "America/Guyana",
    "latitude": 2.75,
    "longitude": -59.16667
  },
  {
    "city": "Martins Burial Ground",
    "city_zh": "Martins Burial Ground",
    "country": "Guyana",
    "country_zh": "蓋亞那",
    "country_iso_code": "GY",
    "timezone": "America/Guyana",
    "latitude": 6.52861,
    "longitude": -57.88962
  },
  {
    "city": "Marlborough",
    "city_zh": "Marlborough",
    "country": "Guyana",
    "country_zh": "蓋亞那",
    "country_iso_code": "GY",
    "timezone": "America/Guyana",
    "latitude": 7.49185,
    "longitude": -58.64352
  },
  {
    "city": "Mariwa Village",
    "city_zh": "Mariwa Village",
    "country": "Guyana",
    "country_zh": "蓋亞那",
    "country_iso_code": "GY",
    "timezone": "America/Guyana",
    "latitude": 3.05,
    "longitude": -59.66667
  },
  {
    "city": "Maripa",
    "city_zh": "Maripa",
    "country": "Guyana",
    "country_zh": "蓋亞那",
    "country_iso_code": "GY",
    "timezone": "America/Guyana",
    "latitude": 6.75339,
    "longitude": -58.5066
  },
  {
    "city": "Marionville",
    "city_zh": "Marionville",
    "country": "Guyana",
    "country_zh": "蓋亞那",
    "country_iso_code": "GY",
    "timezone": "America/Guyana",
    "latitude": 6.95599,
    "longitude": -58.43727
  },
  {
    "city": "Marias Pleasure",
    "city_zh": "Marias Pleasure",
    "country": "Guyana",
    "country_zh": "蓋亞那",
    "country_iso_code": "GY",
    "timezone": "America/Guyana",
    "latitude": 6.97783,
    "longitude": -58.43316
  },
  {
    "city": "Marias Lodge",
    "city_zh": "Marias Lodge",
    "country": "Guyana",
    "country_zh": "蓋亞那",
    "country_iso_code": "GY",
    "timezone": "America/Guyana",
    "latitude": 7.11407,
    "longitude": -58.47803
  },
  {
    "city": "Marias Delight",
    "city_zh": "Marias Delight",
    "country": "Guyana",
    "country_zh": "蓋亞那",
    "country_iso_code": "GY",
    "timezone": "America/Guyana",
    "latitude": 7.39206,
    "longitude": -58.53915
  },
  {
    "city": "Maria Johanna",
    "city_zh": "Maria Johanna",
    "country": "Guyana",
    "country_zh": "蓋亞那",
    "country_iso_code": "GY",
    "timezone": "America/Guyana",
    "latitude": 6.93464,
    "longitude": -58.46198
  },
  {
    "city": "Marakanata",
    "city_zh": "Marakanata",
    "country": "Guyana",
    "country_zh": "蓋亞那",
    "country_iso_code": "GY",
    "timezone": "America/Guyana",
    "latitude": 3.6,
    "longitude": -59.55
  },
  {
    "city": "Manilla",
    "city_zh": "Manilla",
    "country": "Guyana",
    "country_zh": "蓋亞那",
    "country_iso_code": "GY",
    "timezone": "America/Guyana",
    "latitude": 6.65633,
    "longitude": -57.88988
  },
  {
    "city": "Manawarin",
    "city_zh": "Manawarin",
    "country": "Guyana",
    "country_zh": "蓋亞那",
    "country_iso_code": "GY",
    "timezone": "America/Guyana",
    "latitude": 7.58333,
    "longitude": -58.86667
  },
  {
    "city": "Manari Village",
    "city_zh": "Manari Village",
    "country": "Guyana",
    "country_zh": "蓋亞那",
    "country_iso_code": "GY",
    "timezone": "America/Guyana",
    "latitude": 7.51667,
    "longitude": -59.83333
  },
  {
    "city": "Manari",
    "city_zh": "Manari",
    "country": "Guyana",
    "country_zh": "蓋亞那",
    "country_iso_code": "GY",
    "timezone": "America/Guyana",
    "latitude": 3.43333,
    "longitude": -59.76667
  },
  {
    "city": "Manaka",
    "city_zh": "Manaka",
    "country": "Guyana",
    "country_zh": "蓋亞那",
    "country_iso_code": "GY",
    "timezone": "America/Guyana",
    "latitude": 6.7136,
    "longitude": -58.60151
  },
  {
    "city": "Mamir Pawa",
    "city_zh": "Mamir Pawa",
    "country": "Guyana",
    "country_zh": "蓋亞那",
    "country_iso_code": "GY",
    "timezone": "America/Guyana",
    "latitude": 1.941,
    "longitude": -59.73333
  },
  {
    "city": "Malgre Tout",
    "city_zh": "Malgre Tout",
    "country": "Guyana",
    "country_zh": "蓋亞那",
    "country_iso_code": "GY",
    "timezone": "America/Guyana",
    "latitude": 6.79466,
    "longitude": -58.18803
  },
  {
    "city": "Malali",
    "city_zh": "Malali",
    "country": "Guyana",
    "country_zh": "蓋亞那",
    "country_iso_code": "GY",
    "timezone": "America/Guyana",
    "latitude": 5.61667,
    "longitude": -58.35
  },
  {
    "city": "Makouria",
    "city_zh": "Makouria",
    "country": "Guyana",
    "country_zh": "蓋亞那",
    "country_iso_code": "GY",
    "timezone": "America/Guyana",
    "latitude": 6.47557,
    "longitude": -58.58413
  },
  {
    "city": "Makeshift",
    "city_zh": "Makeshift",
    "country": "Guyana",
    "country_zh": "蓋亞那",
    "country_iso_code": "GY",
    "timezone": "America/Guyana",
    "latitude": 7.00897,
    "longitude": -58.49031
  },
  {
    "city": "Makasima",
    "city_zh": "Makasima",
    "country": "Guyana",
    "country_zh": "蓋亞那",
    "country_iso_code": "GY",
    "timezone": "America/Guyana",
    "latitude": 7.24137,
    "longitude": -58.74501
  },
  {
    "city": "Makari",
    "city_zh": "Makari",
    "country": "Guyana",
    "country_zh": "蓋亞那",
    "country_iso_code": "GY",
    "timezone": "America/Guyana",
    "latitude": 4.54547,
    "longitude": -58.55385
  },
  {
    "city": "Mainstay",
    "city_zh": "Mainstay",
    "country": "Guyana",
    "country_zh": "蓋亞那",
    "country_iso_code": "GY",
    "timezone": "America/Guyana",
    "latitude": 7.24003,
    "longitude": -58.48365
  },
  {
    "city": "Mahdia",
    "city_zh": "Mahdia",
    "country": "Guyana",
    "country_zh": "蓋亞那",
    "country_iso_code": "GY",
    "timezone": "America/Guyana",
    "latitude": 5.26667,
    "longitude": -59.15
  },
  {
    "city": "Mahaicony Village",
    "city_zh": "Mahaicony Village",
    "country": "Guyana",
    "country_zh": "蓋亞那",
    "country_iso_code": "GY",
    "timezone": "America/Guyana",
    "latitude": 6.57212,
    "longitude": -57.80624
  },
  {
    "city": "Mahaica Village",
    "city_zh": "Mahaica Village",
    "country": "Guyana",
    "country_zh": "蓋亞那",
    "country_iso_code": "GY",
    "timezone": "America/Guyana",
    "latitude": 6.6817,
    "longitude": -57.92181
  },
  {
    "city": "Macusi Village",
    "city_zh": "Macusi Village",
    "country": "Guyana",
    "country_zh": "蓋亞那",
    "country_iso_code": "GY",
    "timezone": "America/Guyana",
    "latitude": 3.06667,
    "longitude": -59.71667
  },
  {
    "city": "Macouba",
    "city_zh": "Macouba",
    "country": "Guyana",
    "country_zh": "蓋亞那",
    "country_iso_code": "GY",
    "timezone": "America/Guyana",
    "latitude": 6.38111,
    "longitude": -57.78811
  },
  {
    "city": "Mackenzie",
    "city_zh": "Mackenzie",
    "country": "Guyana",
    "country_zh": "蓋亞那",
    "country_iso_code": "GY",
    "timezone": "America/Guyana",
    "latitude": 6.00535,
    "longitude": -58.30457
  },
  {
    "city": "Mashabo",
    "city_zh": "Mashabo",
    "country": "Guyana",
    "country_zh": "蓋亞那",
    "country_iso_code": "GY",
    "timezone": "America/Guyana",
    "latitude": 7.05279,
    "longitude": -58.55302
  },
  {
    "city": "Macaw",
    "city_zh": "Macaw",
    "country": "Guyana",
    "country_zh": "蓋亞那",
    "country_iso_code": "GY",
    "timezone": "America/Guyana",
    "latitude": 6.08333,
    "longitude": -57.58333
  },
  {
    "city": "Mabaruma",
    "city_zh": "Mabaruma",
    "country": "Guyana",
    "country_zh": "蓋亞那",
    "country_iso_code": "GY",
    "timezone": "America/Guyana",
    "latitude": 8.2,
    "longitude": -59.78333
  },
  {
    "city": "Lusignan",
    "city_zh": "Lusignan",
    "country": "Guyana",
    "country_zh": "蓋亞那",
    "country_iso_code": "GY",
    "timezone": "America/Guyana",
    "latitude": 6.79994,
    "longitude": -58.03905
  },
  {
    "city": "L’Union",
    "city_zh": "L’Union",
    "country": "Guyana",
    "country_zh": "蓋亞那",
    "country_iso_code": "GY",
    "timezone": "America/Guyana",
    "latitude": 7.18808,
    "longitude": -58.49021
  },
  {
    "city": "Lumidpau",
    "city_zh": "Lumidpau",
    "country": "Guyana",
    "country_zh": "蓋亞那",
    "country_iso_code": "GY",
    "timezone": "America/Guyana",
    "latitude": 2.4,
    "longitude": -59.48333
  },
  {
    "city": "Lucky Spot",
    "city_zh": "Lucky Spot",
    "country": "Guyana",
    "country_zh": "蓋亞那",
    "country_iso_code": "GY",
    "timezone": "America/Guyana",
    "latitude": 5.96525,
    "longitude": -58.31725
  },
  {
    "city": "Low Wood",
    "city_zh": "Low Wood",
    "country": "Guyana",
    "country_zh": "蓋亞那",
    "country_iso_code": "GY",
    "timezone": "America/Guyana",
    "latitude": 6.42526,
    "longitude": -58.28764
  },
  {
    "city": "Lowlands",
    "city_zh": "Lowlands",
    "country": "Guyana",
    "country_zh": "蓋亞那",
    "country_iso_code": "GY",
    "timezone": "America/Guyana",
    "latitude": 6.74292,
    "longitude": -57.95809
  },
  {
    "city": "Lower Kamaria",
    "city_zh": "Lower Kamaria",
    "country": "Guyana",
    "country_zh": "蓋亞那",
    "country_iso_code": "GY",
    "timezone": "America/Guyana",
    "latitude": 6.4116,
    "longitude": -58.76286
  },
  {
    "city": "Louisiana",
    "city_zh": "Louisiana",
    "country": "Guyana",
    "country_zh": "蓋亞那",
    "country_iso_code": "GY",
    "timezone": "America/Guyana",
    "latitude": 6.89323,
    "longitude": -58.44371
  },
  {
    "city": "Lorenza",
    "city_zh": "Lorenza",
    "country": "Guyana",
    "country_zh": "蓋亞那",
    "country_iso_code": "GY",
    "timezone": "America/Guyana",
    "latitude": 6.7,
    "longitude": -58.2
  },
  {
    "city": "Loo Lands",
    "city_zh": "Loo Lands",
    "country": "Guyana",
    "country_zh": "蓋亞那",
    "country_iso_code": "GY",
    "timezone": "America/Guyana",
    "latitude": 6.29337,
    "longitude": -58.2646
  },
  {
    "city": "Loo Lands",
    "city_zh": "Loo Lands",
    "country": "Guyana",
    "country_zh": "蓋亞那",
    "country_iso_code": "GY",
    "timezone": "America/Guyana",
    "latitude": 6.25428,
    "longitude": -58.27357
  },
  {
    "city": "Look Out",
    "city_zh": "Look Out",
    "country": "Guyana",
    "country_zh": "蓋亞那",
    "country_iso_code": "GY",
    "timezone": "America/Guyana",
    "latitude": 6.8446,
    "longitude": -58.44043
  },
  {
    "city": "Lookabu",
    "city_zh": "Lookabu",
    "country": "Guyana",
    "country_zh": "蓋亞那",
    "country_iso_code": "GY",
    "timezone": "America/Guyana",
    "latitude": 6.80457,
    "longitude": -58.48088
  },
  {
    "city": "Lodge",
    "city_zh": "Lodge",
    "country": "Guyana",
    "country_zh": "蓋亞那",
    "country_iso_code": "GY",
    "timezone": "America/Guyana",
    "latitude": 6.80141,
    "longitude": -58.14634
  },
  {
    "city": "Number Seventy-one Little Massiah",
    "city_zh": "Number Seventy-one Little Massiah",
    "country": "Guyana",
    "country_zh": "蓋亞那",
    "country_iso_code": "GY",
    "timezone": "America/Guyana",
    "latitude": 5.93559,
    "longitude": -57.15821
  },
  {
    "city": "Alliance",
    "city_zh": "Alliance",
    "country": "Guyana",
    "country_zh": "蓋亞那",
    "country_iso_code": "GY",
    "timezone": "America/Guyana",
    "latitude": 7.20303,
    "longitude": -58.48911
  },
  {
    "city": "Linden",
    "city_zh": "Linden",
    "country": "Guyana",
    "country_zh": "蓋亞那",
    "country_iso_code": "GY",
    "timezone": "America/Guyana",
    "latitude": 6.00809,
    "longitude": -58.30714
  },
  {
    "city": "Lima",
    "city_zh": "Lima",
    "country": "Guyana",
    "country_zh": "蓋亞那",
    "country_iso_code": "GY",
    "timezone": "America/Guyana",
    "latitude": 7.28811,
    "longitude": -58.47935
  },
  {
    "city": "Liliendaal",
    "city_zh": "Liliendaal",
    "country": "Guyana",
    "country_zh": "蓋亞那",
    "country_iso_code": "GY",
    "timezone": "America/Guyana",
    "latitude": 6.8235,
    "longitude": -58.12189
  },
  {
    "city": "Lichfield",
    "city_zh": "Lichfield",
    "country": "Guyana",
    "country_zh": "蓋亞那",
    "country_iso_code": "GY",
    "timezone": "America/Guyana",
    "latitude": 6.46761,
    "longitude": -57.66147
  },
  {
    "city": "Lethem",
    "city_zh": "Lethem",
    "country": "Guyana",
    "country_zh": "蓋亞那",
    "country_iso_code": "GY",
    "timezone": "America/Guyana",
    "latitude": 3.38333,
    "longitude": -59.8
  },
  {
    "city": "Lesbeholden",
    "city_zh": "Lesbeholden",
    "country": "Guyana",
    "country_zh": "蓋亞那",
    "country_iso_code": "GY",
    "timezone": "America/Guyana",
    "latitude": 6.14633,
    "longitude": -57.30187
  },
  {
    "city": "Le Ressouvenir",
    "city_zh": "Le Ressouvenir",
    "country": "Guyana",
    "country_zh": "蓋亞那",
    "country_iso_code": "GY",
    "timezone": "America/Guyana",
    "latitude": 6.81509,
    "longitude": -58.07389
  },
  {
    "city": "Leonora",
    "city_zh": "Leonora",
    "country": "Guyana",
    "country_zh": "蓋亞那",
    "country_iso_code": "GY",
    "timezone": "America/Guyana",
    "latitude": 6.86923,
    "longitude": -58.28903
  },
  {
    "city": "Leeds",
    "city_zh": "Leeds",
    "country": "Guyana",
    "country_zh": "蓋亞那",
    "country_iso_code": "GY",
    "timezone": "America/Guyana",
    "latitude": 6.0549,
    "longitude": -57.1761
  },
  {
    "city": "Le Destin",
    "city_zh": "Le Destin",
    "country": "Guyana",
    "country_zh": "蓋亞那",
    "country_iso_code": "GY",
    "timezone": "America/Guyana",
    "latitude": 6.86894,
    "longitude": -58.3941
  },
  {
    "city": "La Retraite",
    "city_zh": "La Retraite",
    "country": "Guyana",
    "country_zh": "蓋亞那",
    "country_iso_code": "GY",
    "timezone": "America/Guyana",
    "latitude": 6.73666,
    "longitude": -58.20478
  },
  {
    "city": "La Resource",
    "city_zh": "La Resource",
    "country": "Guyana",
    "country_zh": "蓋亞那",
    "country_iso_code": "GY",
    "timezone": "America/Guyana",
    "latitude": 7.39044,
    "longitude": -58.53037
  },
  {
    "city": "La Reconnaissance",
    "city_zh": "La Reconnaissance",
    "country": "Guyana",
    "country_zh": "蓋亞那",
    "country_iso_code": "GY",
    "timezone": "America/Guyana",
    "latitude": 6.79351,
    "longitude": -58.03
  },
  {
    "city": "La Raisonable",
    "city_zh": "La Raisonable",
    "country": "Guyana",
    "country_zh": "蓋亞那",
    "country_iso_code": "GY",
    "timezone": "America/Guyana",
    "latitude": 6.58398,
    "longitude": -57.80977
  },
  {
    "city": "La Penitence",
    "city_zh": "La Penitence",
    "country": "Guyana",
    "country_zh": "蓋亞那",
    "country_iso_code": "GY",
    "timezone": "America/Guyana",
    "latitude": 6.79515,
    "longitude": -58.15148
  },
  {
    "city": "La Parfaite Harmonie",
    "city_zh": "La Parfaite Harmonie",
    "country": "Guyana",
    "country_zh": "蓋亞那",
    "country_iso_code": "GY",
    "timezone": "America/Guyana",
    "latitude": 6.7796,
    "longitude": -58.2246
  },
  {
    "city": "Land of Plenty",
    "city_zh": "Land of Plenty",
    "country": "Guyana",
    "country_zh": "蓋亞那",
    "country_iso_code": "GY",
    "timezone": "America/Guyana",
    "latitude": 7.23496,
    "longitude": -58.48452
  },
  {
    "city": "Land of Canaan",
    "city_zh": "Land of Canaan",
    "country": "Guyana",
    "country_zh": "蓋亞那",
    "country_iso_code": "GY",
    "timezone": "America/Guyana",
    "latitude": 6.60198,
    "longitude": -58.20002
  },
  {
    "city": "Lancaster",
    "city_zh": "Lancaster",
    "country": "Guyana",
    "country_zh": "蓋亞那",
    "country_iso_code": "GY",
    "timezone": "America/Guyana",
    "latitude": 5.83333,
    "longitude": -58.25
  },
  {
    "city": "Lancaster",
    "city_zh": "Lancaster",
    "country": "Guyana",
    "country_zh": "蓋亞那",
    "country_iso_code": "GY",
    "timezone": "America/Guyana",
    "latitude": 6.70754,
    "longitude": -57.92987
  },
  {
    "city": "Lanaballi",
    "city_zh": "Lanaballi",
    "country": "Guyana",
    "country_zh": "蓋亞那",
    "country_iso_code": "GY",
    "timezone": "America/Guyana",
    "latitude": 6.61793,
    "longitude": -58.57263
  },
  {
    "city": "Lana",
    "city_zh": "Lana",
    "country": "Guyana",
    "country_zh": "蓋亞那",
    "country_iso_code": "GY",
    "timezone": "America/Guyana",
    "latitude": 6.49395,
    "longitude": -58.28784
  },
  {
    "city": "Lamaha Gardens",
    "city_zh": "Lamaha Gardens",
    "country": "Guyana",
    "country_zh": "蓋亞那",
    "country_iso_code": "GY",
    "timezone": "America/Guyana",
    "latitude": 6.80916,
    "longitude": -58.13224
  },
  {
    "city": "La Jeanette",
    "city_zh": "La Jeanette",
    "country": "Guyana",
    "country_zh": "蓋亞那",
    "country_iso_code": "GY",
    "timezone": "America/Guyana",
    "latitude": 6.64229,
    "longitude": -57.89849
  },
  {
    "city": "La Jalousie",
    "city_zh": "La Jalousie",
    "country": "Guyana",
    "country_zh": "蓋亞那",
    "country_iso_code": "GY",
    "timezone": "America/Guyana",
    "latitude": 6.85241,
    "longitude": -58.24753
  },
  {
    "city": "La Grange",
    "city_zh": "La Grange",
    "country": "Guyana",
    "country_zh": "蓋亞那",
    "country_iso_code": "GY",
    "timezone": "America/Guyana",
    "latitude": 6.76673,
    "longitude": -58.19888
  },
  {
    "city": "Lacytown",
    "city_zh": "Lacytown",
    "country": "Guyana",
    "country_zh": "蓋亞那",
    "country_iso_code": "GY",
    "timezone": "America/Guyana",
    "latitude": 6.81123,
    "longitude": -58.16404
  },
  {
    "city": "La Bonne Mere",
    "city_zh": "La Bonne Mere",
    "country": "Guyana",
    "country_zh": "蓋亞那",
    "country_iso_code": "GY",
    "timezone": "America/Guyana",
    "latitude": 6.65809,
    "longitude": -57.93355
  },
  {
    "city": "La Bonne Intention",
    "city_zh": "La Bonne Intention",
    "country": "Guyana",
    "country_zh": "蓋亞那",
    "country_iso_code": "GY",
    "timezone": "America/Guyana",
    "latitude": 6.81334,
    "longitude": -58.06233
  },
  {
    "city": "La Belle Alliance",
    "city_zh": "La Belle Alliance",
    "country": "Guyana",
    "country_zh": "蓋亞那",
    "country_iso_code": "GY",
    "timezone": "America/Guyana",
    "latitude": 7.28128,
    "longitude": -58.47758
  },
  {
    "city": "La Bagatelle",
    "city_zh": "La Bagatelle",
    "country": "Guyana",
    "country_zh": "蓋亞那",
    "country_iso_code": "GY",
    "timezone": "America/Guyana",
    "latitude": 6.924,
    "longitude": -58.40774
  },
  {
    "city": "Bagatelle",
    "city_zh": "Bagatelle",
    "country": "Guyana",
    "country_zh": "蓋亞那",
    "country_iso_code": "GY",
    "timezone": "America/Guyana",
    "latitude": 6.6454,
    "longitude": -57.91964
  },
  {
    "city": "Kwatata",
    "city_zh": "Kwatata",
    "country": "Guyana",
    "country_zh": "蓋亞那",
    "country_iso_code": "GY",
    "timezone": "America/Guyana",
    "latitude": 3.63333,
    "longitude": -59.5
  },
  {
    "city": "Kwakwani",
    "city_zh": "Kwakwani",
    "country": "Guyana",
    "country_zh": "蓋亞那",
    "country_iso_code": "GY",
    "timezone": "America/Guyana",
    "latitude": 5.28333,
    "longitude": -58.05
  },
  {
    "city": "Kwaimatta Village",
    "city_zh": "Kwaimatta Village",
    "country": "Guyana",
    "country_zh": "蓋亞那",
    "country_iso_code": "GY",
    "timezone": "America/Guyana",
    "latitude": 3.81667,
    "longitude": -59.33333
  },
  {
    "city": "Kwabanna",
    "city_zh": "Kwabanna",
    "country": "Guyana",
    "country_zh": "蓋亞那",
    "country_iso_code": "GY",
    "timezone": "America/Guyana",
    "latitude": 7.56667,
    "longitude": -59.15
  },
  {
    "city": "Kurukuru-Baibari",
    "city_zh": "Kurukuru-Baibari",
    "country": "Guyana",
    "country_zh": "蓋亞那",
    "country_iso_code": "GY",
    "timezone": "America/Guyana",
    "latitude": 1.73333,
    "longitude": -58.61667
  },
  {
    "city": "Kurukabaru Village",
    "city_zh": "Kurukabaru Village",
    "country": "Guyana",
    "country_zh": "蓋亞那",
    "country_iso_code": "GY",
    "timezone": "America/Guyana",
    "latitude": 4.75,
    "longitude": -59.88333
  },
  {
    "city": "Kumaka",
    "city_zh": "Kumaka",
    "country": "Guyana",
    "country_zh": "蓋亞那",
    "country_iso_code": "GY",
    "timezone": "America/Guyana",
    "latitude": 8.19154,
    "longitude": -59.79744
  },
  {
    "city": "Kumaka",
    "city_zh": "Kumaka",
    "country": "Guyana",
    "country_zh": "蓋亞那",
    "country_iso_code": "GY",
    "timezone": "America/Guyana",
    "latitude": 7.65,
    "longitude": -58.95
  },
  {
    "city": "Kumaka",
    "city_zh": "Kumaka",
    "country": "Guyana",
    "country_zh": "蓋亞那",
    "country_iso_code": "GY",
    "timezone": "America/Guyana",
    "latitude": 5.58333,
    "longitude": -57.93333
  },
  {
    "city": "Kumaka",
    "city_zh": "Kumaka",
    "country": "Guyana",
    "country_zh": "蓋亞那",
    "country_iso_code": "GY",
    "timezone": "America/Guyana",
    "latitude": 3.9,
    "longitude": -58.38333
  },
  {
    "city": "Kukui-Eng Village",
    "city_zh": "Kukui-Eng Village",
    "country": "Guyana",
    "country_zh": "蓋亞那",
    "country_iso_code": "GY",
    "timezone": "America/Guyana",
    "latitude": 4.58333,
    "longitude": -59.66667
  },
  {
    "city": "Kotoewau",
    "city_zh": "Kotoewau",
    "country": "Guyana",
    "country_zh": "蓋亞那",
    "country_iso_code": "GY",
    "timezone": "America/Guyana",
    "latitude": 2.3,
    "longitude": -59.15
  },
  {
    "city": "Koriabo",
    "city_zh": "Koriabo",
    "country": "Guyana",
    "country_zh": "蓋亞那",
    "country_iso_code": "GY",
    "timezone": "America/Guyana",
    "latitude": 7.61591,
    "longitude": -59.64243
  },
  {
    "city": "Kopinang Mission",
    "city_zh": "Kopinang Mission",
    "country": "Guyana",
    "country_zh": "蓋亞那",
    "country_iso_code": "GY",
    "timezone": "America/Guyana",
    "latitude": 4.93333,
    "longitude": -59.8
  },
  {
    "city": "Konashen",
    "city_zh": "Konashen",
    "country": "Guyana",
    "country_zh": "蓋亞那",
    "country_iso_code": "GY",
    "timezone": "America/Guyana",
    "latitude": 1.56667,
    "longitude": -58.68333
  },
  {
    "city": "Kokerite",
    "city_zh": "Kokerite",
    "country": "Guyana",
    "country_zh": "蓋亞那",
    "country_iso_code": "GY",
    "timezone": "America/Guyana",
    "latitude": 7.3338,
    "longitude": -59.58998
  },