[
  {
    "city": "Te Tautua",
    "city_zh": "Te Tautua",
    "country": "Cook Islands",
    "country_zh": "Cook Islands",
    "country_iso_code": "CK",
    "timezone": "Pacific/Rarotonga",
    "latitude": -8.95873,
    "longitude": -157.92621
  },
  {
    "city": "Omoka",
    "city_zh": "Omoka",
    "country": "Cook Islands",
    "country_zh": "Cook Islands",
    "country_iso_code": "CK",
    "timezone": "Pacific/Rarotonga",
    "latitude": -8.97982,
    "longitude": -158.05307
  },
  {
    "city": "Vaipae",
    "city_zh": "Vaipae",
    "country": "Cook Islands",
    "country_zh": "Cook Islands",
    "country_iso_code": "CK",
    "timezone": "Pacific/Rarotonga",
    "latitude": -18.87102,
    "longitude": -159.77818
  },
  {
    "city": "Tukao",
    "city_zh": "Tukao",
    "country": "Cook Islands",
    "country_zh": "Cook Islands",
    "country_iso_code": "CK",
    "timezone": "Pacific/Rarotonga",
    "latitude": -10.37518,
    "longitude": -161.01018
  },
  {
    "city": "Titikaveka",
    "city_zh": "Titikaveka",
    "country": "Cook Islands",
    "country_zh": "Cook Islands",
    "country_iso_code": "CK",
    "timezone": "Pacific/Rarotonga",
    "latitude": -21.27128,
    "longitude": -159.75867
  },
  {
    "city": "Tengatangi Village",
    "city_zh": "Tengatangi Village",
    "country": "Cook Islands",
    "country_zh": "Cook Islands",
    "country_iso_code": "CK",
    "timezone": "Pacific/Rarotonga",
    "latitude": -19.99347,
    "longitude": -158.1147
  },
  {
    "city": "Teenui Village",
    "city_zh": "Teenui Village",
    "country": "Cook Islands",
    "country_zh": "Cook Islands",
    "country_iso_code": "CK",
    "timezone": "Pacific/Rarotonga",
    "latitude": -19.99273,
    "longitude": -158.12265
  },
  {
    "city": "Tauhunu",
    "city_zh": "Tauhunu",
    "country": "Cook Islands",
    "country_zh": "Cook Islands",
    "country_iso_code": "CK",
    "timezone": "Pacific/Rarotonga",
    "latitude": -10.42361,
    "longitude": -161.03398
  },
  {
    "city": "Tamarua Village",
    "city_zh": "Tamarua Village",
    "country": "Cook Islands",
    "country_zh": "Cook Islands",
    "country_iso_code": "CK",
    "timezone": "Pacific/Rarotonga",
    "latitude": -21.95045,
    "longitude": -157.90799
  },
  {
    "city": "Oneroa",
    "city_zh": "Oneroa",
    "country": "Cook Islands",
    "country_zh": "Cook Islands",
    "country_iso_code": "CK",
    "timezone": "Pacific/Rarotonga",
    "latitude": -21.92,
    "longitude": -157.96028
  },
  {
    "city": "Nukuao",
    "city_zh": "Nukuao",
    "country": "Cook Islands",
    "country_zh": "Cook Islands",
    "country_iso_code": "CK",
    "timezone": "Pacific/Rarotonga",
    "latitude": -20.13333,
    "longitude": -157.36667
  },
  {
    "city": "Nukatere",
    "city_zh": "Nukatere",
    "country": "Cook Islands",
    "country_zh": "Cook Islands",
    "country_iso_code": "CK",
    "timezone": "Pacific/Rarotonga",
    "latitude": -19.81667,
    "longitude": -157.71667
  },
  {
    "city": "Ngatiarua Village",
    "city_zh": "Ngatiarua Village",
    "country": "Cook Islands",
    "country_zh": "Cook Islands",
    "country_iso_code": "CK",
    "timezone": "Pacific/Rarotonga",
    "latitude": -19.99813,
    "longitude": -158.12058
  },
  {
    "city": "Ngatiarua",
    "city_zh": "Ngatiarua",
    "country": "Cook Islands",
    "country_zh": "Cook Islands",
    "country_iso_code": "CK",
    "timezone": "Pacific/Rarotonga",
    "latitude": -20.15278,
    "longitude": -157.34333
  },
  {
    "city": "Ngatangiia",
    "city_zh": "Ngatangiia",
    "country": "Cook Islands",
    "country_zh": "Cook Islands",
    "country_iso_code": "CK",
    "timezone": "Pacific/Rarotonga",
    "latitude": -21.23774,
    "longitude": -159.73158
  },
  {
    "city": "Natikitea",
    "city_zh": "Natikitea",
    "country": "Cook Islands",
    "country_zh": "Cook Islands",
    "country_iso_code": "CK",
    "timezone": "Pacific/Rarotonga",
    "latitude": -20.01667,
    "longitude": -158.11667
  },
  {
    "city": "Muri",
    "city_zh": "Muri",
    "country": "Cook Islands",
    "country_zh": "Cook Islands",
    "country_iso_code": "CK",
    "timezone": "Pacific/Rarotonga",
    "latitude": -21.2565,
    "longitude": -159.73205
  },
  {
    "city": "Mapumai Village",
    "city_zh": "Mapumai Village",
    "country": "Cook Islands",
    "country_zh": "Cook Islands",
    "country_iso_code": "CK",
    "timezone": "Pacific/Rarotonga",
    "latitude": -19.98909,
    "longitude": -158.11942
  },
  {
    "city": "Ivirua Village",
    "city_zh": "Ivirua Village",
    "country": "Cook Islands",
    "country_zh": "Cook Islands",
    "country_iso_code": "CK",
    "timezone": "Pacific/Rarotonga",
    "latitude": -21.9177,
    "longitude": -157.89527
  },
  {
    "city": "Avatiu",
    "city_zh": "Avatiu",
    "country": "Cook Islands",
    "country_zh": "Cook Islands",
    "country_iso_code": "CK",
    "timezone": "Pacific/Rarotonga",
    "latitude": -21.20379,
    "longitude": -159.78662
  },
  {
    "city": "Avarua",
    "city_zh": "阿瓦鲁阿",
    "country": "Cook Islands",
    "country_zh": "Cook Islands",
    "country_iso_code": "CK",
    "timezone": "Pacific/Rarotonga",
    "latitude": -21.2075,
    "longitude": -159.77546
  },
  {
    "city": "Arutanga",
    "city_zh": "阿鲁汤加",
    "country": "Cook Islands",
    "country_zh": "Cook Islands",
    "country_iso_code": "CK",
    "timezone": "Pacific/Rarotonga",
    "latitude": -18.86509,
    "longitude": -159.79808
  },
  {
    "city": "Arorangi District",
    "city_zh": "Arorangi District",
    "country": "Cook Islands",
    "country_zh": "Cook Islands",
    "country_iso_code": "CK",
    "timezone": "Pacific/Rarotonga",
    "latitude": -21.2395,
    "longitude": -159.81807
  },
  {
    "city": "Areora",
    "city_zh": "Areora",
    "country": "Cook Islands",
    "country_zh": "Cook Islands",
    "country_iso_code": "CK",
    "timezone": "Pacific/Rarotonga",
    "latitude": -19.99926,
    "longitude": -158.11609
  },
  {
    "city": "Areora",
    "city_zh": "Areora",
    "country": "Cook Islands",
    "country_zh": "Cook Islands",
    "country_iso_code": "CK",
    "timezone": "Pacific/Rarotonga",
    "latitude": -20.16333,
    "longitude": -157.34444
  },
  {
    "city": "Amuri",
    "city_zh": "Amuri",
    "country": "Cook Islands",
    "country_zh": "Cook Islands",
    "country_iso_code": "CK",
    "timezone": "Pacific/Rarotonga",
    "latitude": -18.85195,
    "longitude": -159.79293
  },
  {
    "city": "Palmerston",
    "city_zh": "Palmerston",
    "country": "Cook Islands",
    "country_zh": "Cook Islands",
    "country_iso_code": "CK",
    "timezone": "Pacific/Rarotonga",
    "latitude": -18.05525,
    "longitude": -163.20884
  },
  {
    "city": "Mangarei Village",
    "city_zh": "Mangarei Village",
    "country": "Cook Islands",
    "country_zh": "Cook Islands",
    "country_iso_code": "CK",
    "timezone": "Pacific/Rarotonga",
    "latitude": -19.69722,
    "longitude": -157.71667
  },
  {
    "city": "Kimiangatau Village",
    "city_zh": "Kimiangatau Village",
    "country": "Cook Islands",
    "country_zh": "Cook Islands",
    "country_iso_code": "CK",
    "timezone": "Pacific/Rarotonga",
    "latitude": -20.14367,
    "longitude": -157.35648
  },
  {
    "city": "Temakatea Village",
    "city_zh": "Temakatea Village",
    "country": "Cook Islands",
    "country_zh": "Cook Islands",
    "country_iso_code": "CK",
    "timezone": "Pacific/Rarotonga",
    "latitude": -21.92924,
    "longitude": -157.95225
  },
  {
    "city": "Kaumata Village",
    "city_zh": "Kaumata Village",
    "country": "Cook Islands",
    "country_zh": "Cook Islands",
    "country_iso_code": "CK",
    "timezone": "Pacific/Rarotonga",
    "latitude": -21.92822,
    "longitude": -157.95872
  },
  {
    "city": "Tava’enga Village",
    "city_zh": "Tava’enga Village",
    "country": "Cook Islands",
    "country_zh": "Cook Islands",
    "country_iso_code": "CK",
    "timezone": "Pacific/Rarotonga",
    "latitude": -21.91693,
    "longitude": -157.95414
  },
  {
    "city": "Karanga Village",
    "city_zh": "Karanga Village",
    "country": "Cook Islands",
    "country_zh": "Cook Islands",
    "country_iso_code": "CK",
    "timezone": "Pacific/Rarotonga",
    "latitude": -21.90784,
    "longitude": -157.90212
  },
  {
    "city": "Nikao",
    "city_zh": "Nikao",
    "country": "Cook Islands",
    "country_zh": "Cook Islands",
    "country_iso_code": "CK",
    "timezone": "Pacific/Rarotonga",
    "latitude": -21.20667,
    "longitude": -159.80944
  },
  {
    "city": "Pue",
    "city_zh": "Pue",
    "country": "Cook Islands",
    "country_zh": "Cook Islands",
    "country_iso_code": "CK",
    "timezone": "Pacific/Rarotonga",
    "latitude": -21.20491,
    "longitude": -159.75823
  },
  {
    "city": "Matavera",
    "city_zh": "Matavera",
    "country": "Cook Islands",
    "country_zh": "Cook Islands",
    "country_iso_code": "CK",
    "timezone": "Pacific/Rarotonga",
    "latitude": -21.22444,
    "longitude": -159.73333
  },
  {
    "city": "Tautu",
    "city_zh": "Tautu",
    "country": "Cook Islands",
    "country_zh": "Cook Islands",
    "country_iso_code": "CK",
    "timezone": "Pacific/Rarotonga",
    "latitude": -18.87437,
    "longitude": -159.78537
  },
  {
    "city": "Vaipeka",
    "city_zh": "Vaipeka",
    "country": "Cook Islands",
    "country_zh": "Cook Islands",
    "country_iso_code": "CK",
    "timezone": "Pacific/Rarotonga",
    "latitude": -18.84535,
    "longitude": -159.77459
  },
  {
    "city": "Nikaupara",
    "city_zh": "Nikaupara",
    "country": "Cook Islands",
    "country_zh": "Cook Islands",
    "country_iso_code": "CK",
    "timezone": "Pacific/Rarotonga",
    "latitude": -18.87116,
    "longitude": -159.8007
  },
  {
    "city": "Reureu",
    "city_zh": "Reureu",
    "country": "Cook Islands",
    "country_zh": "Cook Islands",
    "country_iso_code": "CK",
    "timezone": "Pacific/Rarotonga",
    "latitude": -18.86802,
    "longitude": -159.79916
  },
  {
    "city": "Vaimaanga Tapere",
    "city_zh": "Vaimaanga Tapere",
    "country": "Cook Islands",
    "country_zh": "Cook Islands",
    "country_iso_code": "CK",
    "timezone": "Pacific/Rarotonga",
    "latitude": -21.2571,
    "longitude": -159.79168
  },
  {
    "city": "Ruatonga Tapere",
    "city_zh": "Ruatonga Tapere",
    "country": "Cook Islands",
    "country_zh": "Cook Islands",
    "country_iso_code": "CK",
    "timezone": "Pacific/Rarotonga",
    "latitude": -21.21742,
    "longitude": -159.78649
  },
  {
    "city": "Areanu Tabpere",
    "city_zh": "Areanu Tabpere",
    "country": "Cook Islands",
    "country_zh": "Cook Islands",
    "country_iso_code": "CK",
    "timezone": "Pacific/Rarotonga",
    "latitude": -21.20122,
    "longitude": -159.79807
  },
  {
    "city": "Vai Toka",
    "city_zh": "Vai Toka",
    "country": "Cook Islands",
    "country_zh": "Cook Islands",
    "country_iso_code": "CK",
    "timezone": "Pacific/Rarotonga",
    "latitude": -19.26432,
    "longitude": -158.96317
  },
  {
    "city": "Arerenga Tepere",
    "city_zh": "Arerenga Tepere",
    "country": "Cook Islands",
    "country_zh": "Cook Islands",
    "country_iso_code": "CK",
    "timezone": "Pacific/Rarotonga",
    "latitude": -21.22714,
    "longitude": -159.82232
  },
  {
    "city": "Akaoa Tapere",
    "city_zh": "Akaoa Tapere",
    "country": "Cook Islands",
    "country_zh": "Cook Islands",
    "country_iso_code": "CK",
    "timezone": "Pacific/Rarotonga",
    "latitude": -21.23574,
    "longitude": -159.81962
  },
  {
    "city": "Vaiakura Tapere",
    "city_zh": "Vaiakura Tapere",
    "country": "Cook Islands",
    "country_zh": "Cook Islands",
    "country_iso_code": "CK",
    "timezone": "Pacific/Rarotonga",
    "latitude": -21.24026,
    "longitude": -159.81361
  },
  {
    "city": "Mangarei",
    "city_zh": "Mangarei",
    "country": "Cook Islands",
    "country_zh": "Cook Islands",
    "country_iso_code": "CK",
    "timezone": "Pacific/Rarotonga",
    "latitude": -19.85961,
    "longitude": -157.71801
  },
  {
    "city": "Motu Koe",
    "city_zh": "Motu Koe",
    "country": "Cook Islands",
    "country_zh": "Cook Islands",
    "country_iso_code": "CK",
    "timezone": "Pacific/Rarotonga",
    "latitude": -10.91229,
    "longitude": -165.83682
  },
  {
    "city": "Moto Kavata",
    "city_zh": "Moto Kavata",
    "country": "Cook Islands",
    "country_zh": "Cook Islands",
    "country_iso_code": "CK",
    "timezone": "Pacific/Rarotonga",
    "latitude": -10.89261,
    "longitude": -165.86772
  },
  {
    "city": "Nivano",
    "city_zh": "Nivano",
    "country": "Cook Islands",
    "country_zh": "Cook Islands",
    "country_iso_code": "CK",
    "timezone": "Pacific/Rarotonga",
    "latitude": -10.03174,
    "longitude": -161.10176
  },
  {
    "city": "Matara",
    "city_zh": "Matara",
    "country": "Cook Islands",
    "country_zh": "Cook Islands",
    "country_iso_code": "CK",
    "timezone": "Pacific/Rarotonga",
    "latitude": -10.03145,
    "longitude": -161.10129
  },
  {
    "city": "Auta Village",
    "city_zh": "Auta Village",
    "country": "Cook Islands",
    "country_zh": "Cook Islands",
    "country_iso_code": "CK",
    "timezone": "Pacific/Rarotonga",
    "latitude": -19.8589,
    "longitude": -157.71793
  },
  {
    "city": "Atai Village",
    "city_zh": "Atai Village",
    "country": "Cook Islands",
    "country_zh": "Cook Islands",
    "country_iso_code": "CK",
    "timezone": "Pacific/Rarotonga",
    "latitude": -19.85763,
    "longitude": -157.71863
  },
  {
    "city": "Takaue Village",
    "city_zh": "Takaue Village",
    "country": "Cook Islands",
    "country_zh": "Cook Islands",
    "country_iso_code": "CK",
    "timezone": "Pacific/Rarotonga",
    "latitude": -19.86237,
    "longitude": -157.71898
  },
  {
    "city": "Ureia",
    "city_zh": "Ureia",
    "country": "Cook Islands",
    "country_zh": "Cook Islands",
    "country_iso_code": "CK",
    "timezone": "Pacific/Rarotonga",
    "latitude": -18.86156,
    "longitude": -159.79692
  },
  {
    "city": "Oiretumu Village",
    "city_zh": "Oiretumu Village",
    "country": "Cook Islands",
    "country_zh": "Cook Islands",
    "country_iso_code": "CK",
    "timezone": "Pacific/Rarotonga",
    "latitude": -20.15268,
    "longitude": -157.34564
  }
]