[
  {
    "city": "Zîrneşti",
    "city_zh": "Zîrneşti",
    "country": "Moldova",
    "country_zh": "摩爾多瓦",
    "country_iso_code": "MD",
    "timezone": "Europe/Chisinau",
    "latitude": 46.01207,
    "longitude": 28.16294
  },
  {
    "city": "Zîmbreni",
    "city_zh": "Zîmbreni",
    "country": "Moldova",
    "country_zh": "摩爾多瓦",
    "country_iso_code": "MD",
    "timezone": "Europe/Chisinau",
    "latitude": 46.83887,
    "longitude": 28.84595
  },
  {
    "city": "Zubreşti",
    "city_zh": "Zubreşti",
    "country": "Moldova",
    "country_zh": "摩爾多瓦",
    "country_iso_code": "MD",
    "timezone": "Europe/Chisinau",
    "latitude": 47.2417,
    "longitude": 28.5241
  },
  {
    "city": "Zăzuleni",
    "city_zh": "Zăzuleni",
    "country": "Moldova",
    "country_zh": "摩爾多瓦",
    "country_iso_code": "MD",
    "timezone": "Europe/Chisinau",
    "latitude": 47.61371,
    "longitude": 28.99116
  },
  {
    "city": "Zorile",
    "city_zh": "Zorile",
    "country": "Moldova",
    "country_zh": "摩爾多瓦",
    "country_iso_code": "MD",
    "timezone": "Europe/Chisinau",
    "latitude": 47.4592,
    "longitude": 28.74046
  },
  {
    "city": "Zolotievca",
    "city_zh": "Zolotievca",
    "country": "Moldova",
    "country_zh": "摩爾多瓦",
    "country_iso_code": "MD",
    "timezone": "Europe/Chisinau",
    "latitude": 46.73833,
    "longitude": 29.18925
  },
  {
    "city": "Jura",
    "city_zh": "Jura",
    "country": "Moldova",
    "country_zh": "摩爾多瓦",
    "country_iso_code": "MD",
    "timezone": "Europe/Chisinau",
    "latitude": 47.51768,
    "longitude": 29.04272
  },
  {
    "city": "Jevreni",
    "city_zh": "Jevreni",
    "country": "Moldova",
    "country_zh": "摩爾多瓦",
    "country_iso_code": "MD",
    "timezone": "Europe/Chisinau",
    "latitude": 47.25838,
    "longitude": 29.06303
  },
  {
    "city": "Jeloboc",
    "city_zh": "Jeloboc",
    "country": "Moldova",
    "country_zh": "摩爾多瓦",
    "country_iso_code": "MD",
    "timezone": "Europe/Chisinau",
    "latitude": 47.35618,
    "longitude": 28.9116
  },
  {
    "city": "Javgur",
    "city_zh": "Javgur",
    "country": "Moldova",
    "country_zh": "摩爾多瓦",
    "country_iso_code": "MD",
    "timezone": "Europe/Chisinau",
    "latitude": 46.53983,
    "longitude": 28.61511
  },
  {
    "city": "Japca",
    "city_zh": "Japca",
    "country": "Moldova",
    "country_zh": "摩爾多瓦",
    "country_iso_code": "MD",
    "timezone": "Europe/Chisinau",
    "latitude": 47.98091,
    "longitude": 28.70413
  },
  {
    "city": "Zguriţa",
    "city_zh": "Zguriţa",
    "country": "Moldova",
    "country_zh": "摩爾多瓦",
    "country_iso_code": "MD",
    "timezone": "Europe/Chisinau",
    "latitude": 48.11981,
    "longitude": 28.01452
  },
  {
    "city": "Zgărdeşti",
    "city_zh": "Zgărdeşti",
    "country": "Moldova",
    "country_zh": "摩爾多瓦",
    "country_iso_code": "MD",
    "timezone": "Europe/Chisinau",
    "latitude": 47.53058,
    "longitude": 28.1905
  },
  {
    "city": "Zereshty",
    "city_zh": "Zereshty",
    "country": "Moldova",
    "country_zh": "摩爾多瓦",
    "country_iso_code": "MD",
    "timezone": "Europe/Chisinau",
    "latitude": 46.18333,
    "longitude": 28.16667
  },
  {
    "city": "Zberoaia",
    "city_zh": "Zberoaia",
    "country": "Moldova",
    "country_zh": "摩爾多瓦",
    "country_iso_code": "MD",
    "timezone": "Europe/Chisinau",
    "latitude": 46.96896,
    "longitude": 28.10506
  },
  {
    "city": "Zăicani",
    "city_zh": "Zăicani",
    "country": "Moldova",
    "country_zh": "摩爾多瓦",
    "country_iso_code": "MD",
    "timezone": "Europe/Chisinau",
    "latitude": 47.97604,
    "longitude": 27.36898
  },
  {
    "city": "Zaporojeţ",
    "city_zh": "Zaporojeţ",
    "country": "Moldova",
    "country_zh": "摩爾多瓦",
    "country_iso_code": "MD",
    "timezone": "Europe/Chisinau",
    "latitude": 47.58893,
    "longitude": 29.13789
  },
  {
    "city": "Zamciogi",
    "city_zh": "Zamciogi",
    "country": "Moldova",
    "country_zh": "摩爾多瓦",
    "country_iso_code": "MD",
    "timezone": "Europe/Chisinau",
    "latitude": 47.20502,
    "longitude": 28.72216
  },
  {
    "city": "Zăluceni",
    "city_zh": "Zăluceni",
    "country": "Moldova",
    "country_zh": "摩爾多瓦",
    "country_iso_code": "MD",
    "timezone": "Europe/Chisinau",
    "latitude": 48.05113,
    "longitude": 28.55473
  },
  {
    "city": "Tiraspolul Nou",
    "city_zh": "Tiraspolul Nou",
    "country": "Moldova",
    "country_zh": "摩爾多瓦",
    "country_iso_code": "MD",
    "timezone": "Europe/Chisinau",
    "latitude": 46.82874,
    "longitude": 29.52174
  },
  {
    "city": "Zaim",
    "city_zh": "Zaim",
    "country": "Moldova",
    "country_zh": "摩爾多瓦",
    "country_iso_code": "MD",
    "timezone": "Europe/Chisinau",
    "latitude": 46.61939,
    "longitude": 29.34825
  },
  {
    "city": "Zahorna",
    "city_zh": "Zahorna",
    "country": "Moldova",
    "country_zh": "摩爾多瓦",
    "country_iso_code": "MD",
    "timezone": "Europe/Chisinau",
    "latitude": 47.7956,
    "longitude": 28.5543
  },
  {
    "city": "Zahoreni",
    "city_zh": "Zahoreni",
    "country": "Moldova",
    "country_zh": "摩爾多瓦",
    "country_iso_code": "MD",
    "timezone": "Europe/Chisinau",
    "latitude": 47.57673,
    "longitude": 28.72775
  },
  {
    "city": "Zagarancea",
    "city_zh": "Zagarancea",
    "country": "Moldova",
    "country_zh": "摩爾多瓦",
    "country_iso_code": "MD",
    "timezone": "Europe/Chisinau",
    "latitude": 47.24504,
    "longitude": 27.766
  },
  {
    "city": "Zăicani",
    "city_zh": "Zăicani",
    "country": "Moldova",
    "country_zh": "摩爾多瓦",
    "country_iso_code": "MD",
    "timezone": "Europe/Chisinau",
    "latitude": 47.52222,
    "longitude": 28.50273
  },
  {
    "city": "Zăicana",
    "city_zh": "Zăicana",
    "country": "Moldova",
    "country_zh": "摩爾多瓦",
    "country_iso_code": "MD",
    "timezone": "Europe/Chisinau",
    "latitude": 47.16799,
    "longitude": 28.95278
  },
  {
    "city": "Zăbriceni",
    "city_zh": "Zăbriceni",
    "country": "Moldova",
    "country_zh": "摩爾多瓦",
    "country_iso_code": "MD",
    "timezone": "Europe/Chisinau",
    "latitude": 48.07364,
    "longitude": 27.25265
  },
  {
    "city": "Iurievca",
    "city_zh": "Iurievca",
    "country": "Moldova",
    "country_zh": "摩爾多瓦",
    "country_iso_code": "MD",
    "timezone": "Europe/Chisinau",
    "latitude": 46.66857,
    "longitude": 28.76471
  },
  {
    "city": "Iurceni",
    "city_zh": "Iurceni",
    "country": "Moldova",
    "country_zh": "摩爾多瓦",
    "country_iso_code": "MD",
    "timezone": "Europe/Chisinau",
    "latitude": 47.07954,
    "longitude": 28.25985
  },
  {
    "city": "Hârjău",
    "city_zh": "Hârjău",
    "country": "Moldova",
    "country_zh": "摩爾多瓦",
    "country_iso_code": "MD",
    "timezone": "Europe/Chisinau",
    "latitude": 47.80476,
    "longitude": 29.00771
  },
  {
    "city": "Ermoclia",
    "city_zh": "Ermoclia",
    "country": "Moldova",
    "country_zh": "摩爾多瓦",
    "country_iso_code": "MD",
    "timezone": "Europe/Chisinau",
    "latitude": 46.58045,
    "longitude": 29.51203
  },
  {
    "city": "Iepureni",
    "city_zh": "Iepureni",
    "country": "Moldova",
    "country_zh": "摩爾多瓦",
    "country_iso_code": "MD",
    "timezone": "Europe/Chisinau",
    "latitude": 46.26241,
    "longitude": 28.21945
  },
  {
    "city": "Enichioi",
    "city_zh": "Enichioi",
    "country": "Moldova",
    "country_zh": "摩爾多瓦",
    "country_iso_code": "MD",
    "timezone": "Europe/Chisinau",
    "latitude": 46.219,
    "longitude": 28.41562
  },
  {
    "city": "Elizavetovca",
    "city_zh": "Elizavetovca",
    "country": "Moldova",
    "country_zh": "摩爾多瓦",
    "country_iso_code": "MD",
    "timezone": "Europe/Chisinau",
    "latitude": 48.27815,
    "longitude": 27.71659
  },
  {
    "city": "Elizaveta",
    "city_zh": "Elizaveta",
    "country": "Moldova",
    "country_zh": "摩爾多瓦",
    "country_iso_code": "MD",
    "timezone": "Europe/Chisinau",
    "latitude": 47.78177,
    "longitude": 28.01738
  },
  {
    "city": "Ilenuța",
    "city_zh": "Ilenuța",
    "country": "Moldova",
    "country_zh": "摩爾多瓦",
    "country_iso_code": "MD",
    "timezone": "Europe/Chisinau",
    "latitude": 47.63495,
    "longitude": 27.7119
  },
  {
    "city": "Echimăuţi",
    "city_zh": "Echimăuţi",
    "country": "Moldova",
    "country_zh": "摩爾多瓦",
    "country_iso_code": "MD",
    "timezone": "Europe/Chisinau",
    "latitude": 47.69381,
    "longitude": 28.90138
  },
  {
    "city": "Ecaterinovca",
    "city_zh": "Ecaterinovca",
    "country": "Moldova",
    "country_zh": "摩爾多瓦",
    "country_iso_code": "MD",
    "timezone": "Europe/Chisinau",
    "latitude": 46.58336,
    "longitude": 28.7473
  },
  {
    "city": "Egorovca",
    "city_zh": "Egorovca",
    "country": "Moldova",
    "country_zh": "摩爾多瓦",
    "country_iso_code": "MD",
    "timezone": "Europe/Chisinau",
    "latitude": 47.61664,
    "longitude": 27.75843
  },
  {
    "city": "Egoreni",
    "city_zh": "Egoreni",
    "country": "Moldova",
    "country_zh": "摩爾多瓦",
    "country_iso_code": "MD",
    "timezone": "Europe/Chisinau",
    "latitude": 48.20162,
    "longitude": 28.35953
  },
  {
    "city": "Edineţ",
    "city_zh": "Edineţ",
    "country": "Moldova",
    "country_zh": "摩爾多瓦",
    "country_iso_code": "MD",
    "timezone": "Europe/Chisinau",
    "latitude": 48.17215,
    "longitude": 27.30337
  },
  {
    "city": "Iasnaia Poleana",
    "city_zh": "Iasnaia Poleana",
    "country": "Moldova",
    "country_zh": "摩爾多瓦",
    "country_iso_code": "MD",
    "timezone": "Europe/Chisinau",
    "latitude": 46.14117,
    "longitude": 28.30498
  },
  {
    "city": "Iarova",
    "city_zh": "Iarova",
    "country": "Moldova",
    "country_zh": "摩爾多瓦",
    "country_iso_code": "MD",
    "timezone": "Europe/Chisinau",
    "latitude": 48.31731,
    "longitude": 28.04502
  },
  {
    "city": "Iargara",
    "city_zh": "亞爾加拉",
    "country": "Moldova",
    "country_zh": "摩爾多瓦",
    "country_iso_code": "MD",
    "timezone": "Europe/Chisinau",
    "latitude": 46.4252,
    "longitude": 28.42676
  },
  {
    "city": "Ialpug",
    "city_zh": "Ialpug",
    "country": "Moldova",
    "country_zh": "摩爾多瓦",
    "country_iso_code": "MD",
    "timezone": "Europe/Chisinau",
    "latitude": 46.64964,
    "longitude": 28.58736
  },
  {
    "city": "Ialpugeni",
    "city_zh": "Ialpugeni",
    "country": "Moldova",
    "country_zh": "摩爾多瓦",
    "country_iso_code": "MD",
    "timezone": "Europe/Chisinau",
    "latitude": 46.58545,
    "longitude": 28.61975
  },
  {
    "city": "Iagorlâc",
    "city_zh": "Iagorlâc",
    "country": "Moldova",
    "country_zh": "摩爾多瓦",
    "country_iso_code": "MD",
    "timezone": "Europe/Chisinau",
    "latitude": 47.39038,
    "longitude": 29.16064
  },
  {
    "city": "Iabloana",
    "city_zh": "Iabloana",
    "country": "Moldova",
    "country_zh": "摩爾多瓦",
    "country_iso_code": "MD",
    "timezone": "Europe/Chisinau",
    "latitude": 47.80873,
    "longitude": 27.61797
  },
  {
    "city": "Vîşcăuţi",
    "city_zh": "Vîşcăuţi",
    "country": "Moldova",
    "country_zh": "摩爾多瓦",
    "country_iso_code": "MD",
    "timezone": "Europe/Chisinau",
    "latitude": 47.43129,
    "longitude": 29.07554
  },
  {
    "city": "Vîprova",
    "city_zh": "Vîprova",
    "country": "Moldova",
    "country_zh": "摩爾多瓦",
    "country_iso_code": "MD",
    "timezone": "Europe/Chisinau",
    "latitude": 47.37902,
    "longitude": 28.57072
  },
  {
    "city": "Vînători",
    "city_zh": "Vînători",
    "country": "Moldova",
    "country_zh": "摩爾多瓦",
    "country_iso_code": "MD",
    "timezone": "Europe/Chisinau",
    "latitude": 47.18483,
    "longitude": 28.10249
  },
  {
    "city": "Vîlcele",
    "city_zh": "Vîlcele",
    "country": "Moldova",
    "country_zh": "摩爾多瓦",
    "country_iso_code": "MD",
    "timezone": "Europe/Chisinau",
    "latitude": 46.38155,
    "longitude": 28.25249
  },
  {
    "city": "Ofatinţi",
    "city_zh": "Ofatinţi",
    "country": "Moldova",
    "country_zh": "摩爾多瓦",
    "country_iso_code": "MD",
    "timezone": "Europe/Chisinau",
    "latitude": 47.66593,
    "longitude": 28.99829
  },
  {
    "city": "Vulpeşti",
    "city_zh": "Vulpeşti",
    "country": "Moldova",
    "country_zh": "摩爾多瓦",
    "country_iso_code": "MD",
    "timezone": "Europe/Chisinau",
    "latitude": 47.23583,
    "longitude": 27.90806
  },
  {
    "city": "Vulcăneşti",
    "city_zh": "Vulcăneşti",
    "country": "Moldova",
    "country_zh": "摩爾多瓦",
    "country_iso_code": "MD",
    "timezone": "Europe/Chisinau",
    "latitude": 47.15399,
    "longitude": 28.1906
  },
  {
    "city": "Vulcăneşti",
    "city_zh": "Vulcăneşti",
    "country": "Moldova",
    "country_zh": "摩爾多瓦",
    "country_iso_code": "MD",
    "timezone": "Europe/Chisinau",
    "latitude": 45.68492,
    "longitude": 28.40613
  },
  {
    "city": "Vozneseni",
    "city_zh": "Vozneseni",
    "country": "Moldova",
    "country_zh": "摩爾多瓦",
    "country_iso_code": "MD",
    "timezone": "Europe/Chisinau",
    "latitude": 46.58295,
    "longitude": 28.46864
  },
  {
    "city": "Voinova",
    "city_zh": "Voinova",
    "country": "Moldova",
    "country_zh": "摩爾多瓦",
    "country_iso_code": "MD",
    "timezone": "Europe/Chisinau",
    "latitude": 47.27131,
    "longitude": 28.48755
  },
  {
    "city": "Voroteţ",
    "city_zh": "Voroteţ",
    "country": "Moldova",
    "country_zh": "摩爾多瓦",
    "country_iso_code": "MD",
    "timezone": "Europe/Chisinau",
    "latitude": 47.55917,
    "longitude": 28.85468
  },
  {
    "city": "Octeabriscoe",
    "city_zh": "Octeabriscoe",
    "country": "Moldova",
    "country_zh": "摩爾多瓦",
    "country_iso_code": "MD",
    "timezone": "Europe/Chisinau",
    "latitude": 47.95506,
    "longitude": 28.53593
  },
  {
    "city": "Lazo",
    "city_zh": "Lazo",
    "country": "Moldova",
    "country_zh": "摩爾多瓦",
    "country_iso_code": "MD",
    "timezone": "Europe/Chisinau",
    "latitude": 47.88917,
    "longitude": 27.925
  },
  {
    "city": "Vărăncău",
    "city_zh": "Vărăncău",
    "country": "Moldova",
    "country_zh": "摩爾多瓦",
    "country_iso_code": "MD",
    "timezone": "Europe/Chisinau",
    "latitude": 48.06723,
    "longitude": 28.5126
  },
  {
    "city": "Vărăncău",
    "city_zh": "Vărăncău",
    "country": "Moldova",
    "country_zh": "摩爾多瓦",
    "country_iso_code": "MD",
    "timezone": "Europe/Chisinau",
    "latitude": 47.70498,
    "longitude": 29.11779
  },
  {
    "city": "Vorniceni",
    "city_zh": "Vorniceni",
    "country": "Moldova",
    "country_zh": "摩爾多瓦",
    "country_iso_code": "MD",
    "timezone": "Europe/Chisinau",
    "latitude": 47.1527,
    "longitude": 28.43077
  },
  {
    "city": "Voloave",
    "city_zh": "Voloave",
    "country": "Moldova",
    "country_zh": "摩爾多瓦",
    "country_iso_code": "MD",
    "timezone": "Europe/Chisinau",
    "latitude": 48.09331,
    "longitude": 28.28726
  },
  {
    "city": "Voloviţa",
    "city_zh": "Voloviţa",
    "country": "Moldova",
    "country_zh": "摩爾多瓦",
    "country_iso_code": "MD",
    "timezone": "Europe/Chisinau",
    "latitude": 48.10306,
    "longitude": 28.32052
  },
  {
    "city": "Volintiri",
    "city_zh": "Volintiri",
    "country": "Moldova",
    "country_zh": "摩爾多瓦",
    "country_iso_code": "MD",
    "timezone": "Europe/Chisinau",
    "latitude": 46.42733,
    "longitude": 29.60632
  },
  {
    "city": "Vălcineţ",
    "city_zh": "Vălcineţ",
    "country": "Moldova",
    "country_zh": "摩爾多瓦",
    "country_iso_code": "MD",
    "timezone": "Europe/Chisinau",
    "latitude": 48.45139,
    "longitude": 27.73234
  },
  {
    "city": "Vălcineţ",
    "city_zh": "Vălcineţ",
    "country": "Moldova",
    "country_zh": "摩爾多瓦",
    "country_iso_code": "MD",
    "timezone": "Europe/Chisinau",
    "latitude": 47.26808,
    "longitude": 28.12694
  },
  {
    "city": "Vădeni",
    "city_zh": "Vădeni",
    "country": "Moldova",
    "country_zh": "摩爾多瓦",
    "country_iso_code": "MD",
    "timezone": "Europe/Chisinau",
    "latitude": 48.0118,
    "longitude": 28.22477
  },
  {
    "city": "Vladimireuca",
    "city_zh": "Vladimireuca",
    "country": "Moldova",
    "country_zh": "摩爾多瓦",
    "country_iso_code": "MD",
    "timezone": "Europe/Chisinau",
    "latitude": 47.65906,
    "longitude": 28.2329
  },
  {
    "city": "Vladimirovca",
    "city_zh": "Vladimirovca",
    "country": "Moldova",
    "country_zh": "摩爾多瓦",
    "country_iso_code": "MD",
    "timezone": "Europe/Chisinau",
    "latitude": 46.84498,
    "longitude": 29.82898
  },
  {
    "city": "Vladimirovca",
    "city_zh": "Vladimirovca",
    "country": "Moldova",
    "country_zh": "摩爾多瓦",
    "country_iso_code": "MD",
    "timezone": "Europe/Chisinau",
    "latitude": 45.78764,
    "longitude": 28.36476
  },
  {
    "city": "Visoca",
    "city_zh": "Visoca",
    "country": "Moldova",
    "country_zh": "摩爾多瓦",
    "country_iso_code": "MD",
    "timezone": "Europe/Chisinau",
    "latitude": 48.24549,
    "longitude": 27.9225
  },
  {
    "city": "Vişniovca",
    "city_zh": "Vişniovca",
    "country": "Moldova",
    "country_zh": "摩爾多瓦",
    "country_iso_code": "MD",
    "timezone": "Europe/Chisinau",
    "latitude": 46.3326,
    "longitude": 28.44797
  },
  {
    "city": "Vinogradovca",
    "city_zh": "Vinogradovca",
    "country": "Moldova",
    "country_zh": "摩爾多瓦",
    "country_iso_code": "MD",
    "timezone": "Europe/Chisinau",
    "latitude": 45.80263,
    "longitude": 28.5327
  },
  {
    "city": "Vinogradnoe",
    "city_zh": "Vinogradnoe",
    "country": "Moldova",
    "country_zh": "摩爾多瓦",
    "country_iso_code": "MD",
    "timezone": "Europe/Chisinau",
    "latitude": 47.08322,
    "longitude": 29.49096
  },
  {
    "city": "Victoria",
    "city_zh": "Victoria",
    "country": "Moldova",
    "country_zh": "摩爾多瓦",
    "country_iso_code": "MD",
    "timezone": "Europe/Chisinau",
    "latitude": 46.17833,
    "longitude": 28.29167
  },
  {
    "city": "Victoria",
    "city_zh": "Victoria",
    "country": "Moldova",
    "country_zh": "摩爾多瓦",
    "country_iso_code": "MD",
    "timezone": "Europe/Chisinau",
    "latitude": 46.61613,
    "longitude": 28.41484
  },
  {
    "city": "Viişoara",
    "city_zh": "Viişoara",
    "country": "Moldova",
    "country_zh": "摩爾多瓦",
    "country_iso_code": "MD",
    "timezone": "Europe/Chisinau",
    "latitude": 48.09527,
    "longitude": 27.04498
  },
  {
    "city": "Viişoara",
    "city_zh": "Viişoara",
    "country": "Moldova",
    "country_zh": "摩爾多瓦",
    "country_iso_code": "MD",
    "timezone": "Europe/Chisinau",
    "latitude": 47.61731,
    "longitude": 27.44804
  },
  {
    "city": "Vesioloe",
    "city_zh": "Vesioloe",
    "country": "Moldova",
    "country_zh": "摩爾多瓦",
    "country_iso_code": "MD",
    "timezone": "Europe/Chisinau",
    "latitude": 47.20243,
    "longitude": 29.55423
  },
  {
    "city": "Vertlujeni",
    "city_zh": "Vertlujeni",
    "country": "Moldova",
    "country_zh": "摩爾多瓦",
    "country_iso_code": "MD",
    "timezone": "Europe/Chisinau",
    "latitude": 47.99495,
    "longitude": 28.53731
  },
  {
    "city": "Jora de Sus",
    "city_zh": "Jora de Sus",
    "country": "Moldova",
    "country_zh": "摩爾多瓦",
    "country_iso_code": "MD",
    "timezone": "Europe/Chisinau",
    "latitude": 47.48574,
    "longitude": 29.0769
  },
  {
    "city": "Marianca de Sus",
    "city_zh": "Marianca de Sus",
    "country": "Moldova",
    "country_zh": "摩爾多瓦",
    "country_iso_code": "MD",
    "timezone": "Europe/Chisinau",
    "latitude": 46.64668,
    "longitude": 29.31348
  },
  {
    "city": "Bălţata de Sus",
    "city_zh": "Bălţata de Sus",
    "country": "Moldova",
    "country_zh": "摩爾多瓦",
    "country_iso_code": "MD",
    "timezone": "Europe/Chisinau",
    "latitude": 47.0658,
    "longitude": 29.03504
  },
  {
    "city": "Albota de Sus",
    "city_zh": "Albota de Sus",
    "country": "Moldova",
    "country_zh": "摩爾多瓦",
    "country_iso_code": "MD",
    "timezone": "Europe/Chisinau",
    "latitude": 45.96996,
    "longitude": 28.47545
  },
  {
    "city": "Mincenii de Sus",
    "city_zh": "Mincenii de Sus",
    "country": "Moldova",
    "country_zh": "摩爾多瓦",
    "country_iso_code": "MD",
    "timezone": "Europe/Chisinau",
    "latitude": 47.6495,
    "longitude": 28.89176
  },
  {
    "city": "Cuhureştii de Sus",
    "city_zh": "Cuhureştii de Sus",
    "country": "Moldova",
    "country_zh": "摩爾多瓦",
    "country_iso_code": "MD",
    "timezone": "Europe/Chisinau",
    "latitude": 47.92376,
    "longitude": 28.55825
  },
  {
    "city": "Halahora de Sus",
    "city_zh": "Halahora de Sus",
    "country": "Moldova",
    "country_zh": "摩爾多瓦",
    "country_iso_code": "MD",
    "timezone": "Europe/Chisinau",
    "latitude": 48.25658,
    "longitude": 27.18263
  },
  {
    "city": "Buzduganii de Sus",
    "city_zh": "Buzduganii de Sus",
    "country": "Moldova",
    "country_zh": "摩爾多瓦",
    "country_iso_code": "MD",
    "timezone": "Europe/Chisinau",
    "latitude": 47.15829,
    "longitude": 27.86379
  },
  {
    "city": "Andruşul de Sus",
    "city_zh": "Andruşul de Sus",
    "country": "Moldova",
    "country_zh": "摩爾多瓦",
    "country_iso_code": "MD",
    "timezone": "Europe/Chisinau",
    "latitude": 46.00879,
    "longitude": 28.24611
  },
  {
    "city": "Verejeni",
    "city_zh": "Verejeni",
    "country": "Moldova",
    "country_zh": "摩爾多瓦",
    "country_iso_code": "MD",
    "timezone": "Europe/Chisinau",
    "latitude": 48.4394,
    "longitude": 27.61746
  },
  {
    "city": "Verejeni",
    "city_zh": "Verejeni",
    "country": "Moldova",
    "country_zh": "摩爾多瓦",
    "country_iso_code": "MD",
    "timezone": "Europe/Chisinau",
    "latitude": 47.53343,
    "longitude": 28.46988
  },
  {
    "city": "Vatici",
    "city_zh": "Vatici",
    "country": "Moldova",
    "country_zh": "摩爾多瓦",
    "country_iso_code": "MD",
    "timezone": "Europe/Chisinau",
    "latitude": 47.33966,
    "longitude": 28.62379
  },
  {
    "city": "Văscăuţi",
    "city_zh": "Văscăuţi",
    "country": "Moldova",
    "country_zh": "摩爾多瓦",
    "country_iso_code": "MD",
    "timezone": "Europe/Chisinau",
    "latitude": 47.95519,
    "longitude": 28.51072
  },
  {
    "city": "Văsieni",
    "city_zh": "Văsieni",
    "country": "Moldova",
    "country_zh": "摩爾多瓦",
    "country_iso_code": "MD",
    "timezone": "Europe/Chisinau",
    "latitude": 47.46002,
    "longitude": 28.44351
  },
  {
    "city": "Văsieni",
    "city_zh": "Văsieni",
    "country": "Moldova",
    "country_zh": "摩爾多瓦",
    "country_iso_code": "MD",
    "timezone": "Europe/Chisinau",
    "latitude": 46.96666,
    "longitude": 28.59216
  },
  {
    "city": "Vasilievca",
    "city_zh": "Vasilievca",
    "country": "Moldova",
    "country_zh": "摩爾多瓦",
    "country_iso_code": "MD",
    "timezone": "Europe/Chisinau",
    "latitude": 47.93963,
    "longitude": 29.11102
  },
  {
    "city": "Vasilcau",
    "city_zh": "Vasilcau",
    "country": "Moldova",
    "country_zh": "摩爾多瓦",
    "country_iso_code": "MD",
    "timezone": "Europe/Chisinau",
    "latitude": 48.13916,
    "longitude": 28.42214
  },
  {
    "city": "Vasileuţi",
    "city_zh": "Vasileuţi",
    "country": "Moldova",
    "country_zh": "摩爾多瓦",
    "country_iso_code": "MD",
    "timezone": "Europe/Chisinau",
    "latitude": 48.00748,
    "longitude": 27.51175
  },
  {
    "city": "Vărzăreşti",
    "city_zh": "Vărzăreşti",
    "country": "Moldova",
    "country_zh": "摩爾多瓦",
    "country_iso_code": "MD",
    "timezone": "Europe/Chisinau",
    "latitude": 47.10523,
    "longitude": 28.19296
  },
  {
    "city": "Prioziornoe",
    "city_zh": "Prioziornoe",
    "country": "Moldova",
    "country_zh": "摩爾多瓦",
    "country_iso_code": "MD",
    "timezone": "Europe/Chisinau",
    "latitude": 46.79536,
    "longitude": 29.93161
  },
  {
    "city": "Vărvăreuca",
    "city_zh": "Vărvăreuca",
    "country": "Moldova",
    "country_zh": "摩爾多瓦",
    "country_iso_code": "MD",
    "timezone": "Europe/Chisinau",
    "latitude": 47.87967,
    "longitude": 28.31438
  },
  {
    "city": "Varniţa",
    "city_zh": "Varniţa",
    "country": "Moldova",
    "country_zh": "摩爾多瓦",
    "country_iso_code": "MD",
    "timezone": "Europe/Chisinau",
    "latitude": 46.86606,
    "longitude": 29.46636
  },
  {
    "city": "Văratic",
    "city_zh": "Văratic",
    "country": "Moldova",
    "country_zh": "摩爾多瓦",
    "country_iso_code": "MD",
    "timezone": "Europe/Chisinau",
    "latitude": 47.9172,
    "longitude": 27.26067
  },
  {
    "city": "Valea -Trestieni",
    "city_zh": "Valea -Trestieni",
    "country": "Moldova",
    "country_zh": "摩爾多瓦",
    "country_iso_code": "MD",
    "timezone": "Europe/Chisinau",
    "latitude": 47.07143,
    "longitude": 28.0686
  },
  {
    "city": "Valea Satului",
    "city_zh": "Valea Satului",
    "country": "Moldova",
    "country_zh": "摩爾多瓦",
    "country_iso_code": "MD",
    "timezone": "Europe/Chisinau",
    "latitude": 47.03657,
    "longitude": 29.00223
  },
  {
    "city": "Valea Rusului",
    "city_zh": "Valea Rusului",
    "country": "Moldova",
    "country_zh": "摩爾多瓦",
    "country_iso_code": "MD",
    "timezone": "Europe/Chisinau",
    "latitude": 47.47386,
    "longitude": 27.58572
  },
  {
    "city": "Valea Rădoaiei",
    "city_zh": "Valea Rădoaiei",
    "country": "Moldova",
    "country_zh": "摩爾多瓦",
    "country_iso_code": "MD",
    "timezone": "Europe/Chisinau",
    "latitude": 47.75527,
    "longitude": 28.26266
  },
  {
    "city": "Valea Perjei",
    "city_zh": "Valea Perjei",
    "country": "Moldova",
    "country_zh": "摩爾多瓦",
    "country_iso_code": "MD",
    "timezone": "Europe/Chisinau",
    "latitude": 46.62194,
    "longitude": 28.72297
  },
  {
    "city": "Valea Perjei",
    "city_zh": "Valea Perjei",
    "country": "Moldova",
    "country_zh": "摩爾多瓦",
    "country_iso_code": "MD",
    "timezone": "Europe/Chisinau",
    "latitude": 46.02895,
    "longitude": 28.92769
  },
  {
    "city": "Valea Mare",
    "city_zh": "Valea Mare",
    "country": "Moldova",
    "country_zh": "摩爾多瓦",
    "country_iso_code": "MD",
    "timezone": "Europe/Chisinau",
    "latitude": 47.14177,
    "longitude": 27.83162
  },
  {
    "city": "Valea lui Vlad",
    "city_zh": "Valea lui Vlad",
    "country": "Moldova",
    "country_zh": "摩爾多瓦",
    "country_iso_code": "MD",
    "timezone": "Europe/Chisinau",
    "latitude": 47.48197,
    "longitude": 28.12826
  },
  {
    "city": "Valea Coloniţei",
    "city_zh": "Valea Coloniţei",
    "country": "Moldova",
    "country_zh": "摩爾多瓦",
    "country_iso_code": "MD",
    "timezone": "Europe/Chisinau",
    "latitude": 47.02338,
    "longitude": 28.97812
  },
  {
    "city": "Valea Adâncă",
    "city_zh": "Valea Adâncă",
    "country": "Moldova",
    "country_zh": "摩爾多瓦",
    "country_iso_code": "MD",
    "timezone": "Europe/Chisinau",
    "latitude": 48.00456,
    "longitude": 28.83826
  },
  {
    "city": "Văleni",
    "city_zh": "Văleni",
    "country": "Moldova",
    "country_zh": "摩爾多瓦",
    "country_iso_code": "MD",
    "timezone": "Europe/Chisinau",
    "latitude": 45.632,
    "longitude": 28.17605
  },
  {
    "city": "Vadul Turcului",
    "city_zh": "Vadul Turcului",
    "country": "Moldova",
    "country_zh": "摩爾多瓦",
    "country_iso_code": "MD",
    "timezone": "Europe/Chisinau",
    "latitude": 47.93057,
    "longitude": 28.98683
  },
  {
    "city": "Vadul-Raşcov",
    "city_zh": "Vadul-Raşcov",
    "country": "Moldova",
    "country_zh": "摩爾多瓦",
    "country_iso_code": "MD",
    "timezone": "Europe/Chisinau",
    "latitude": 47.92948,
    "longitude": 28.82333
  },
  {
    "city": "Vadul lui Vodă",
    "city_zh": "瓦杜尔卢伊沃代",
    "country": "Moldova",
    "country_zh": "摩爾多瓦",
    "country_iso_code": "MD",
    "timezone": "Europe/Chisinau",
    "latitude": 47.09009,
    "longitude": 29.0757
  },
  {
    "city": "Vadul lui Isac",
    "city_zh": "Vadul lui Isac",
    "country": "Moldova",
    "country_zh": "摩爾多瓦",
    "country_iso_code": "MD",
    "timezone": "Europe/Chisinau",
    "latitude": 45.76318,
    "longitude": 28.17122
  },
  {
    "city": "Vadul-Leca",
    "city_zh": "Vadul-Leca",
    "country": "Moldova",
    "country_zh": "摩爾多瓦",
    "country_iso_code": "MD",
    "timezone": "Europe/Chisinau",
    "latitude": 47.62498,
    "longitude": 28.46358
  },
  {
    "city": "Uiutnoe",
    "city_zh": "Uiutnoe",
    "country": "Moldova",
    "country_zh": "摩爾多瓦",
    "country_iso_code": "MD",
    "timezone": "Europe/Chisinau",
    "latitude": 46.84174,
    "longitude": 29.8673
  },
  {
    "city": "Ustia",
    "city_zh": "Ustia",
    "country": "Moldova",
    "country_zh": "摩爾多瓦",
    "country_iso_code": "MD",
    "timezone": "Europe/Chisinau",
    "latitude": 47.66242,
    "longitude": 27.59273
  },
  {
    "city": "Inculeţ",
    "city_zh": "Inculeţ",
    "country": "Moldova",
    "country_zh": "摩爾多瓦",
    "country_iso_code": "MD",
    "timezone": "Europe/Chisinau",
    "latitude": 47.44939,
    "longitude": 28.72203
  },
  {
    "city": "Ustia",
    "city_zh": "Ustia",
    "country": "Moldova",
    "country_zh": "摩爾多瓦",
    "country_iso_code": "MD",
    "timezone": "Europe/Chisinau",
    "latitude": 47.25524,
    "longitude": 29.12406
  },
  {
    "city": "Uşurei",
    "city_zh": "Uşurei",
    "country": "Moldova",
    "country_zh": "摩爾多瓦",
    "country_iso_code": "MD",
    "timezone": "Europe/Chisinau",
    "latitude": 47.8919,
    "longitude": 27.59438
  },
  {
    "city": "Ursoaia",
    "city_zh": "Ursoaia",
    "country": "Moldova",
    "country_zh": "摩爾多瓦",
    "country_iso_code": "MD",
    "timezone": "Europe/Chisinau",
    "latitude": 45.85159,
    "longitude": 28.31496
  },
  {
    "city": "Ursoaia",
    "city_zh": "Ursoaia",
    "country": "Moldova",
    "country_zh": "摩爾多瓦",
    "country_iso_code": "MD",
    "timezone": "Europe/Chisinau",
    "latitude": 46.70507,
    "longitude": 29.44623
  },
  {
    "city": "Ursari",
    "city_zh": "Ursari",
    "country": "Moldova",
    "country_zh": "摩爾多瓦",
    "country_iso_code": "MD",
    "timezone": "Europe/Chisinau",
    "latitude": 47.22139,
    "longitude": 28.18781
  },
  {
    "city": "Unţeşti",
    "city_zh": "Unţeşti",
    "country": "Moldova",
    "country_zh": "摩爾多瓦",
    "country_iso_code": "MD",
    "timezone": "Europe/Chisinau",
    "latitude": 47.23,
    "longitude": 27.91
  },
  {
    "city": "Unchiteşti",
    "city_zh": "Unchiteşti",
    "country": "Moldova",
    "country_zh": "摩爾多瓦",
    "country_iso_code": "MD",
    "timezone": "Europe/Chisinau",
    "latitude": 47.92847,
    "longitude": 28.52791
  },
  {
    "city": "Unguri",
    "city_zh": "Unguri",
    "country": "Moldova",
    "country_zh": "摩爾多瓦",
    "country_iso_code": "MD",
    "timezone": "Europe/Chisinau",
    "latitude": 48.39869,
    "longitude": 27.87025
  },
  {
    "city": "Ungheni",
    "city_zh": "溫格內",
    "country": "Moldova",
    "country_zh": "摩爾多瓦",
    "country_iso_code": "MD",
    "timezone": "Europe/Chisinau",
    "latitude": 47.21079,
    "longitude": 27.80047
  },
  {
    "city": "Ulmu",
    "city_zh": "Ulmu",
    "country": "Moldova",
    "country_zh": "摩爾多瓦",
    "country_iso_code": "MD",
    "timezone": "Europe/Chisinau",
    "latitude": 47.01842,
    "longitude": 28.54643
  },
  {
    "city": "Ucrainca",
    "city_zh": "Ucrainca",
    "country": "Moldova",
    "country_zh": "摩爾多瓦",
    "country_iso_code": "MD",
    "timezone": "Europe/Chisinau",
    "latitude": 46.43229,
    "longitude": 29.27548
  },
  {
    "city": "Tîrzieni",
    "city_zh": "Tîrzieni",
    "country": "Moldova",
    "country_zh": "摩爾多瓦",
    "country_iso_code": "MD",
    "timezone": "Europe/Chisinau",
    "latitude": 47.44349,
    "longitude": 28.62516
  },
  {
    "city": "Tîrnova",
    "city_zh": "Tîrnova",
    "country": "Moldova",
    "country_zh": "摩爾多瓦",
    "country_iso_code": "MD",
    "timezone": "Europe/Chisinau",
    "latitude": 48.20424,
    "longitude": 27.1762
  },
  {
    "city": "Tîrnova",
    "city_zh": "Tîrnova",
    "country": "Moldova",
    "country_zh": "摩爾多瓦",
    "country_iso_code": "MD",
    "timezone": "Europe/Chisinau",
    "latitude": 48.16598,
    "longitude": 27.66148
  },
  {
    "city": "Tvardița",
    "city_zh": "Tvardița",
    "country": "Moldova",
    "country_zh": "摩爾多瓦",
    "country_iso_code": "MD",
    "timezone": "Europe/Chisinau",
    "latitude": 46.14826,
    "longitude": 28.96491
  },
  {
    "city": "Tuzara",
    "city_zh": "Tuzara",
    "country": "Moldova",
    "country_zh": "摩爾多瓦",
    "country_iso_code": "MD",
    "timezone": "Europe/Chisinau",
    "latitude": 47.24243,
    "longitude": 28.304
  },
  {
    "city": "Tutovanu",
    "city_zh": "Tutovanu",
    "country": "Moldova",
    "country_zh": "摩爾多瓦",
    "country_iso_code": "MD",
    "timezone": "Europe/Chisinau",
    "latitude": 46.18306,
    "longitude": 28.29444
  },
  {
    "city": "Tudora",
    "city_zh": "Tudora",
    "country": "Moldova",
    "country_zh": "摩爾多瓦",
    "country_iso_code": "MD",
    "timezone": "Europe/Chisinau",
    "latitude": 46.43661,
    "longitude": 30.04492
  },
  {
    "city": "Ţîra",
    "city_zh": "Ţîra",
    "country": "Moldova",
    "country_zh": "摩爾多瓦",
    "country_iso_code": "MD",
    "timezone": "Europe/Chisinau",
    "latitude": 47.8421,
    "longitude": 28.40361
  },
  {
    "city": "Ţipleteşti",
    "city_zh": "Ţipleteşti",
    "country": "Moldova",
    "country_zh": "摩爾多瓦",
    "country_iso_code": "MD",
    "timezone": "Europe/Chisinau",
    "latitude": 47.81704,
    "longitude": 28.12303
  },
  {
    "city": "Ţipala",
    "city_zh": "Ţipala",
    "country": "Moldova",
    "country_zh": "摩爾多瓦",
    "country_iso_code": "MD",
    "timezone": "Europe/Chisinau",
    "latitude": 46.83028,
    "longitude": 28.97422
  },
  {
    "city": "Ţînţăreni",
    "city_zh": "Ţînţăreni",
    "country": "Moldova",
    "country_zh": "摩爾多瓦",
    "country_iso_code": "MD",
    "timezone": "Europe/Chisinau",
    "latitude": 47.57195,
    "longitude": 28.56297
  },
  {
    "city": "Ţînţăreni",
    "city_zh": "Ţînţăreni",
    "country": "Moldova",
    "country_zh": "摩爾多瓦",
    "country_iso_code": "MD",
    "timezone": "Europe/Chisinau",
    "latitude": 46.90294,
    "longitude": 29.13528
  },
  {
    "city": "Ţîghira",
    "city_zh": "Ţîghira",
    "country": "Moldova",
    "country_zh": "摩爾多瓦",
    "country_iso_code": "MD",
    "timezone": "Europe/Chisinau",
    "latitude": 47.44642,
    "longitude": 27.89993
  },
  {
    "city": "Ţigăneşti",
    "city_zh": "Ţigăneşti",
    "country": "Moldova",
    "country_zh": "摩爾多瓦",
    "country_iso_code": "MD",
    "timezone": "Europe/Chisinau",
    "latitude": 47.30093,
    "longitude": 28.55057
  },
  {
    "city": "Ţâbuleuca",
    "city_zh": "Ţâbuleuca",
    "country": "Moldova",
    "country_zh": "摩爾多瓦",
    "country_iso_code": "MD",
    "timezone": "Europe/Chisinau",
    "latitude": 47.40472,
    "longitude": 29.10606
  },
  {
    "city": "Țipova",
    "city_zh": "Țipova",
    "country": "Moldova",
    "country_zh": "摩爾多瓦",
    "country_iso_code": "MD",
    "timezone": "Europe/Chisinau",
    "latitude": 47.6032,
    "longitude": 28.98026
  },
  {
    "city": "Tipordei",
    "city_zh": "Tipordei",
    "country": "Moldova",
    "country_zh": "摩爾多瓦",
    "country_iso_code": "MD",
    "timezone": "Europe/Chisinau",
    "latitude": 47.93544,
    "longitude": 28.61518
  },
  {
    "city": "Ţibirica",
    "city_zh": "Ţibirica",
    "country": "Moldova",
    "country_zh": "摩爾多瓦",
    "country_iso_code": "MD",
    "timezone": "Europe/Chisinau",
    "latitude": 47.37148,
    "longitude": 28.36685
  },
  {
    "city": "Ţepilova",
    "city_zh": "Ţepilova",
    "country": "Moldova",
    "country_zh": "摩爾多瓦",
    "country_iso_code": "MD",
    "timezone": "Europe/Chisinau",
    "latitude": 48.12363,
    "longitude": 28.22795
  },
  {
    "city": "Ţahnăuţi",
    "city_zh": "Ţahnăuţi",
    "country": "Moldova",
    "country_zh": "摩爾多瓦",
    "country_iso_code": "MD",
    "timezone": "Europe/Chisinau",
    "latitude": 47.74245,
    "longitude": 28.85959
  },
  {
    "city": "Ţaul",
    "city_zh": "Ţaul",
    "country": "Moldova",
    "country_zh": "摩爾多瓦",
    "country_iso_code": "MD",
    "timezone": "Europe/Chisinau",
    "latitude": 48.2126,
    "longitude": 27.68145
  },
  {
    "city": "Ţareuca",
    "city_zh": "Ţareuca",
    "country": "Moldova",
    "country_zh": "摩爾多瓦",
    "country_iso_code": "MD",
    "timezone": "Europe/Chisinau",
    "latitude": 47.75001,
    "longitude": 28.8823
  },
  {
    "city": "Ţărăncuţa",
    "city_zh": "Ţărăncuţa",
    "country": "Moldova",
    "country_zh": "摩爾多瓦",
    "country_iso_code": "MD",
    "timezone": "Europe/Chisinau",
    "latitude": 46.10758,
    "longitude": 28.41019
  },
  {
    "city": "Ţapoc",
    "city_zh": "Ţapoc",
    "country": "Moldova",
    "country_zh": "摩爾多瓦",
    "country_iso_code": "MD",
    "timezone": "Europe/Chisinau",
    "latitude": 47.7082,
    "longitude": 27.89638
  },
  {
    "city": "Ţambula",
    "city_zh": "Ţambula",
    "country": "Moldova",
    "country_zh": "摩爾多瓦",
    "country_iso_code": "MD",
    "timezone": "Europe/Chisinau",
    "latitude": 47.69689,
    "longitude": 27.92447
  },
  {
    "city": "Truşeni",
    "city_zh": "Truşeni",
    "country": "Moldova",
    "country_zh": "摩爾多瓦",
    "country_iso_code": "MD",
    "timezone": "Europe/Chisinau",
    "latitude": 47.07164,
    "longitude": 28.68081
  },
  {
    "city": "Iujnoe",
    "city_zh": "Iujnoe",
    "country": "Moldova",
    "country_zh": "摩爾多瓦",
    "country_iso_code": "MD",
    "timezone": "Europe/Chisinau",
    "latitude": 45.74905,
    "longitude": 28.47793
  },
  {
    "city": "Troiţcoe",
    "city_zh": "Troiţcoe",
    "country": "Moldova",
    "country_zh": "摩爾多瓦",
    "country_iso_code": "MD",
    "timezone": "Europe/Chisinau",
    "latitude": 46.51361,
    "longitude": 29.02702
  },
  {
    "city": "Troiţca",
    "city_zh": "Troiţca",
    "country": "Moldova",
    "country_zh": "摩爾多瓦",
    "country_iso_code": "MD",
    "timezone": "Europe/Chisinau",
    "latitude": 46.61139,
    "longitude": 28.54778
  },
  {
    "city": "Trinca",
    "city_zh": "Trinca",
    "country": "Moldova",
    "country_zh": "摩爾多瓦",
    "country_iso_code": "MD",
    "timezone": "Europe/Chisinau",
    "latitude": 48.20939,
    "longitude": 27.11566
  },
  {
    "city": "Trifeşti",
    "city_zh": "Trifeşti",
    "country": "Moldova",
    "country_zh": "摩爾多瓦",
    "country_iso_code": "MD",
    "timezone": "Europe/Chisinau",
    "latitude": 47.67503,
    "longitude": 28.80484
  },
  {
    "city": "Trifăuţi",
    "city_zh": "Trifăuţi",
    "country": "Moldova",
    "country_zh": "摩爾多瓦",
    "country_iso_code": "MD",
    "timezone": "Europe/Chisinau",
    "latitude": 48.16129,
    "longitude": 28.37909
  },
  {
    "city": "Trifăneşti",
    "city_zh": "Trifăneşti",
    "country": "Moldova",
    "country_zh": "摩爾多瓦",
    "country_iso_code": "MD",
    "timezone": "Europe/Chisinau",
    "latitude": 47.944,
    "longitude": 28.13125
  },
  {
    "city": "Trifăneşti",
    "city_zh": "Trifăneşti",
    "country": "Moldova",
    "country_zh": "摩爾多瓦",
    "country_iso_code": "MD",
    "timezone": "Europe/Chisinau",
    "latitude": 47.74294,
    "longitude": 28.09713
  },
  {
    "city": "Străisteni",
    "city_zh": "Străisteni",
    "country": "Moldova",
    "country_zh": "摩爾多瓦",
    "country_iso_code": "MD",
    "timezone": "Europe/Chisinau",
    "latitude": 46.90629,
    "longitude": 28.85782
  },
  {
    "city": "Treteşti",
    "city_zh": "Treteşti",
    "country": "Moldova",
    "country_zh": "摩爾多瓦",
    "country_iso_code": "MD",
    "timezone": "Europe/Chisinau",
    "latitude": 46.0,
    "longitude": 28.16667
  },
  {
    "city": "Trestieni",
    "city_zh": "Trestieni",
    "country": "Moldova",
    "country_zh": "摩爾多瓦",
    "country_iso_code": "MD",
    "timezone": "Europe/Chisinau",
    "latitude": 48.27067,
    "longitude": 27.13111
  },
  {
    "city": "Trebujeni",
    "city_zh": "Trebujeni",
    "country": "Moldova",
    "country_zh": "摩爾多瓦",
    "country_iso_code": "MD",
    "timezone": "Europe/Chisinau",
    "latitude": 47.31336,
    "longitude": 28.97418
  },
  {
    "city": "Trebisăuţi",
    "city_zh": "Trebisăuţi",
    "country": "Moldova",
    "country_zh": "摩爾多瓦",
    "country_iso_code": "MD",
    "timezone": "Europe/Chisinau",
    "latitude": 48.35448,
    "longitude": 27.18757
  },
  {
    "city": "Topala",
    "city_zh": "Topala",
    "country": "Moldova",
    "country_zh": "摩爾多瓦",
    "country_iso_code": "MD",
    "timezone": "Europe/Chisinau",
    "latitude": 46.46074,
    "longitude": 28.6744
  },
  {
    "city": "Tomeştii Vechi",
    "city_zh": "Tomeştii Vechi",
    "country": "Moldova",
    "country_zh": "摩爾多瓦",
    "country_iso_code": "MD",
    "timezone": "Europe/Chisinau",
    "latitude": 47.65531,
    "longitude": 27.33634
  },
  {
    "city": "Tomeştii Noi",
    "city_zh": "Tomeştii Noi",
    "country": "Moldova",
    "country_zh": "摩爾多瓦",
    "country_iso_code": "MD",
    "timezone": "Europe/Chisinau",
    "latitude": 47.66667,
    "longitude": 27.35
  },
  {
    "city": "Tomai",
    "city_zh": "Tomai",
    "country": "Moldova",
    "country_zh": "摩爾多瓦",
    "country_iso_code": "MD",
    "timezone": "Europe/Chisinau",
    "latitude": 46.57352,
    "longitude": 28.32178
  },
  {
    "city": "Tomai",
    "city_zh": "Tomai",
    "country": "Moldova",
    "country_zh": "摩爾多瓦",
    "country_iso_code": "MD",
    "timezone": "Europe/Chisinau",
    "latitude": 46.18546,
    "longitude": 28.76634
  },
  {
    "city": "Tocuz",
    "city_zh": "Tocuz",
    "country": "Moldova",
    "country_zh": "摩爾多瓦",
    "country_iso_code": "MD",
    "timezone": "Europe/Chisinau",
    "latitude": 46.52631,
    "longitude": 29.29943
  },
  {
    "city": "Tocmagiu",
    "city_zh": "Tocmagiu",
    "country": "Moldova",
    "country_zh": "摩爾多瓦",
    "country_iso_code": "MD",
    "timezone": "Europe/Chisinau",
    "latitude": 46.94462,
    "longitude": 29.37822
  },
  {
    "city": "Tochile-Răducani",
    "city_zh": "Tochile-Răducani",
    "country": "Moldova",
    "country_zh": "摩爾多瓦",
    "country_iso_code": "MD",
    "timezone": "Europe/Chisinau",
    "latitude": 46.57698,
    "longitude": 28.2443
  },
  {
    "city": "Tohatin",
    "city_zh": "Tohatin",
    "country": "Moldova",
    "country_zh": "摩爾多瓦",
    "country_iso_code": "MD",
    "timezone": "Europe/Chisinau",
    "latitude": 47.06203,
    "longitude": 28.94473
  },
  {
    "city": "Todirești",
    "city_zh": "Todirești",
    "country": "Moldova",
    "country_zh": "摩爾多瓦",
    "country_iso_code": "MD",
    "timezone": "Europe/Chisinau",
    "latitude": 47.31695,
    "longitude": 27.82245
  },
  {
    "city": "Todireşti",
    "city_zh": "Todireşti",
    "country": "Moldova",
    "country_zh": "摩爾多瓦",
    "country_iso_code": "MD",
    "timezone": "Europe/Chisinau",
    "latitude": 46.90922,
    "longitude": 29.08313
  },
  {
    "city": "Toceni",
    "city_zh": "Toceni",
    "country": "Moldova",
    "country_zh": "摩爾多瓦",
    "country_iso_code": "MD",
    "timezone": "Europe/Chisinau",
    "latitude": 46.36679,
    "longitude": 28.21792
  },
  {
    "city": "Tiraspol",
    "city_zh": "蒂拉斯波尔",
    "country": "Moldova",
    "country_zh": "摩爾多瓦",
    "country_iso_code": "MD",
    "timezone": "Europe/Chisinau",
    "latitude": 46.84274,
    "longitude": 29.62909
  },
  {
    "city": "Tigichanka",
    "city_zh": "Tigichanka",
    "country": "Moldova",
    "country_zh": "摩爾多瓦",
    "country_iso_code": "MD",
    "timezone": "Europe/Chisinau",
    "latitude": 46.46583,
    "longitude": 28.26
  },
  {
    "city": "Tigheci",
    "city_zh": "Tigheci",
    "country": "Moldova",
    "country_zh": "摩爾多瓦",
    "country_iso_code": "MD",
    "timezone": "Europe/Chisinau",
    "latitude": 46.3877,
    "longitude": 28.37726
  },
  {
    "city": "Telu",
    "city_zh": "Telu",
    "country": "Moldova",
    "country_zh": "摩爾多瓦",
    "country_iso_code": "MD",
    "timezone": "Europe/Chisinau",
    "latitude": 46.95732,
    "longitude": 29.39641
  },
  {
    "city": "Teţcani",
    "city_zh": "Teţcani",
    "country": "Moldova",
    "country_zh": "摩爾多瓦",
    "country_iso_code": "MD",
    "timezone": "Europe/Chisinau",
    "latitude": 48.18087,
    "longitude": 26.97555
  },
  {
    "city": "Teşcureni",
    "city_zh": "Teşcureni",
    "country": "Moldova",
    "country_zh": "摩爾多瓦",
    "country_iso_code": "MD",
    "timezone": "Europe/Chisinau",
    "latitude": 47.41125,
    "longitude": 27.95138
  },
  {
    "city": "Târnauca",
    "city_zh": "Târnauca",
    "country": "Moldova",
    "country_zh": "摩爾多瓦",
    "country_iso_code": "MD",
    "timezone": "Europe/Chisinau",
    "latitude": 46.81242,
    "longitude": 29.5545
  },
  {
    "city": "Terebna",
    "city_zh": "Terebna",
    "country": "Moldova",
    "country_zh": "摩爾多瓦",
    "country_iso_code": "MD",
    "timezone": "Europe/Chisinau",
    "latitude": 48.04968,
    "longitude": 27.25019
  },
  {
    "city": "Temeleuţi",
    "city_zh": "Temeleuţi",
    "country": "Moldova",
    "country_zh": "摩爾多瓦",
    "country_iso_code": "MD",
    "timezone": "Europe/Chisinau",
    "latitude": 47.97949,
    "longitude": 28.49956
  },
  {
    "city": "Temeleuţi",
    "city_zh": "Temeleuţi",
    "country": "Moldova",
    "country_zh": "摩爾多瓦",
    "country_iso_code": "MD",
    "timezone": "Europe/Chisinau",
    "latitude": 47.2538,
    "longitude": 28.07343
  },
  {
    "city": "Teliţa",
    "city_zh": "Teliţa",
    "country": "Moldova",
    "country_zh": "摩爾多瓦",
    "country_iso_code": "MD",
    "timezone": "Europe/Chisinau",
    "latitude": 46.95708,
    "longitude": 29.3068
  },
  {
    "city": "Teleşeu",
    "city_zh": "Teleşeu",
    "country": "Moldova",
    "country_zh": "摩爾多瓦",
    "country_iso_code": "MD",
    "timezone": "Europe/Chisinau",
    "latitude": 47.26692,
    "longitude": 28.70274
  },
  {
    "city": "Teleşeuca",
    "city_zh": "Teleşeuca",
    "country": "Moldova",
    "country_zh": "摩爾多瓦",
    "country_iso_code": "MD",
    "timezone": "Europe/Chisinau",
    "latitude": 48.28206,
    "longitude": 27.90208
  },
  {
    "city": "Teleneşti",
    "city_zh": "Teleneşti",
    "country": "Moldova",
    "country_zh": "摩爾多瓦",
    "country_iso_code": "MD",
    "timezone": "Europe/Chisinau",
    "latitude": 47.5011,
    "longitude": 28.36536
  },
  {
    "city": "Tătărăuca Nouă",
    "city_zh": "Tătărăuca Nouă",
    "country": "Moldova",
    "country_zh": "摩爾多瓦",
    "country_iso_code": "MD",
    "timezone": "Europe/Chisinau",
    "latitude": 48.31681,
    "longitude": 27.97303
  },
  {
    "city": "Tătăreşti",
    "city_zh": "Tătăreşti",
    "country": "Moldova",
    "country_zh": "摩爾多瓦",
    "country_iso_code": "MD",
    "timezone": "Europe/Chisinau",
    "latitude": 47.20472,
    "longitude": 28.53758
  },
  {
    "city": "Tătăreşti",
    "city_zh": "Tătăreşti",
    "country": "Moldova",
    "country_zh": "摩爾多瓦",
    "country_iso_code": "MD",
    "timezone": "Europe/Chisinau",
    "latitude": 46.02497,
    "longitude": 28.34692
  },
  {
    "city": "Tătărăşeni",
    "city_zh": "Tătărăşeni",
    "country": "Moldova",
    "country_zh": "摩爾多瓦",
    "country_iso_code": "MD",
    "timezone": "Europe/Chisinau",
    "latitude": 46.34222,
    "longitude": 28.30253
  },
  {
    "city": "Taşlâc",
    "city_zh": "Taşlâc",
    "country": "Moldova",
    "country_zh": "摩爾多瓦",
    "country_iso_code": "MD",
    "timezone": "Europe/Chisinau",
    "latitude": 47.0743,
    "longitude": 29.39424
  },
  {
    "city": "Tartaul de Salcie",
    "city_zh": "Tartaul de Salcie",
    "country": "Moldova",
    "country_zh": "摩爾多瓦",
    "country_iso_code": "MD",
    "timezone": "Europe/Chisinau",
    "latitude": 45.96977,
    "longitude": 28.41057
  },
  {
    "city": "Tartaul",
    "city_zh": "Tartaul",
    "country": "Moldova",
    "country_zh": "摩爾多瓦",
    "country_iso_code": "MD",
    "timezone": "Europe/Chisinau",
    "latitude": 46.20671,
    "longitude": 28.32039
  },
  {
    "city": "Tarasova",
    "city_zh": "Tarasova",
    "country": "Moldova",
    "country_zh": "摩爾多瓦",
    "country_iso_code": "MD",
    "timezone": "Europe/Chisinau",
    "latitude": 47.8777,
    "longitude": 28.96007
  },
  {
    "city": "Taraclia de Salcie",
    "city_zh": "Taraclia de Salcie",
    "country": "Moldova",
    "country_zh": "摩爾多瓦",
    "country_iso_code": "MD",
    "timezone": "Europe/Chisinau",
    "latitude": 46.01281,
    "longitude": 28.41955
  },
  {
    "city": "Taraclia",
    "city_zh": "Taraclia",
    "country": "Moldova",
    "country_zh": "摩爾多瓦",
    "country_iso_code": "MD",
    "timezone": "Europe/Chisinau",
    "latitude": 46.21537,
    "longitude": 28.51825
  },
  {
    "city": "Taraclia",
    "city_zh": "Taraclia",
    "country": "Moldova",
    "country_zh": "摩爾多瓦",
    "country_iso_code": "MD",
    "timezone": "Europe/Chisinau",
    "latitude": 46.21954,
    "longitude": 28.2261
  },
  {
    "city": "Taraclia",
    "city_zh": "Taraclia",
    "country": "Moldova",
    "country_zh": "摩爾多瓦",
    "country_iso_code": "MD",
    "timezone": "Europe/Chisinau",
    "latitude": 46.5678,
    "longitude": 29.11796
  },
  {
    "city": "Taraclia",
    "city_zh": "Taraclia",
    "country": "Moldova",
    "country_zh": "摩爾多瓦",
    "country_iso_code": "MD",
    "timezone": "Europe/Chisinau",
    "latitude": 45.90273,
    "longitude": 28.66816
  },
  {
    "city": "Tănătari",
    "city_zh": "Tănătari",
    "country": "Moldova",
    "country_zh": "摩爾多瓦",
    "country_iso_code": "MD",
    "timezone": "Europe/Chisinau",
    "latitude": 46.72566,
    "longitude": 29.41519
  },
  {
    "city": "Talmaza",
    "city_zh": "Talmaza",
    "country": "Moldova",
    "country_zh": "摩爾多瓦",
    "country_iso_code": "MD",
    "timezone": "Europe/Chisinau",
    "latitude": 46.63679,
    "longitude": 29.66651
  },
  {
    "city": "Tălăieşti",
    "city_zh": "Tălăieşti",
    "country": "Moldova",
    "country_zh": "摩爾多瓦",
    "country_iso_code": "MD",
    "timezone": "Europe/Chisinau",
    "latitude": 46.80028,
    "longitude": 28.26639
  },
  {
    "city": "Taxobeni",
    "city_zh": "Taxobeni",
    "country": "Moldova",
    "country_zh": "摩爾多瓦",
    "country_iso_code": "MD",
    "timezone": "Europe/Chisinau",
    "latitude": 47.38938,
    "longitude": 27.59047
  },
  {
    "city": "Tabani",
    "city_zh": "Tabani",
    "country": "Moldova",
    "country_zh": "摩爾多瓦",
    "country_iso_code": "MD",
    "timezone": "Europe/Chisinau",
    "latitude": 48.31134,
    "longitude": 27.10025
  },
  {
    "city": "Syruchan",
    "city_zh": "Syruchan",
    "country": "Moldova",
    "country_zh": "摩爾多瓦",
    "country_iso_code": "MD",
    "timezone": "Europe/Chisinau",
    "latitude": 47.1075,
    "longitude": 29.05444
  },
  {
    "city": "Sîrma",
    "city_zh": "Sîrma",
    "country": "Moldova",
    "country_zh": "摩爾多瓦",
    "country_iso_code": "MD",
    "timezone": "Europe/Chisinau",
    "latitude": 46.52668,
    "longitude": 28.24909
  },
  {
    "city": "Sîrcova",
    "city_zh": "Sîrcova",
    "country": "Moldova",
    "country_zh": "摩爾多瓦",
    "country_iso_code": "MD",
    "timezone": "Europe/Chisinau",
    "latitude": 47.74215,
    "longitude": 28.7876
  },
  {
    "city": "Sîngera",
    "city_zh": "Sîngera",
    "country": "Moldova",
    "country_zh": "摩爾多瓦",
    "country_iso_code": "MD",
    "timezone": "Europe/Chisinau",
    "latitude": 46.91557,
    "longitude": 28.96673
  },
  {
    "city": "Singureni",
    "city_zh": "Singureni",
    "country": "Moldova",
    "country_zh": "摩爾多瓦",
    "country_iso_code": "MD",
    "timezone": "Europe/Chisinau",
    "latitude": 47.82417,
    "longitude": 27.85444
  },
  {
    "city": "Svetlîi",
    "city_zh": "Svetlîi",
    "country": "Moldova",
    "country_zh": "摩爾多瓦",
    "country_iso_code": "MD",
    "timezone": "Europe/Chisinau",
    "latitude": 46.01743,
    "longitude": 28.56822
  },
  {
    "city": "Sverdiac",
    "city_zh": "Sverdiac",
    "country": "Moldova",
    "country_zh": "摩爾多瓦",
    "country_iso_code": "MD",
    "timezone": "Europe/Chisinau",
    "latitude": 47.89575,
    "longitude": 27.72842
  },
  {
    "city": "Ştefan Vodă",
    "city_zh": "Ştefan Vodă",
    "country": "Moldova",
    "country_zh": "摩爾多瓦",
    "country_iso_code": "MD",
    "timezone": "Europe/Chisinau",
    "latitude": 46.51287,
    "longitude": 29.66193
  },
  {
    "city": "Alexandru Ioan Cuza",
    "city_zh": "Alexandru Ioan Cuza",
    "country": "Moldova",
    "country_zh": "摩爾多瓦",
    "country_iso_code": "MD",
    "timezone": "Europe/Chisinau",
    "latitude": 45.59692,
    "longitude": 28.45039
  },
  {
    "city": "Suvorovca",
    "city_zh": "Suvorovca",
    "country": "Moldova",
    "country_zh": "摩爾多瓦",
    "country_iso_code": "MD",
    "timezone": "Europe/Chisinau",
    "latitude": 47.6407,
    "longitude": 27.88974
  },
  {
    "city": "Susleni",
    "city_zh": "Susleni",
    "country": "Moldova",
    "country_zh": "摩爾多瓦",
    "country_iso_code": "MD",
    "timezone": "Europe/Chisinau",
    "latitude": 47.41239,
    "longitude": 28.99034
  },
  {
    "city": "Suruceni",
    "city_zh": "Suruceni",
    "country": "Moldova",
    "country_zh": "摩爾多瓦",
    "country_iso_code": "MD",
    "timezone": "Europe/Chisinau",
    "latitude": 46.97911,
    "longitude": 28.66331
  },
  {
    "city": "Surchiceni",
    "city_zh": "Surchiceni",
    "country": "Moldova",
    "country_zh": "摩爾多瓦",
    "country_iso_code": "MD",
    "timezone": "Europe/Chisinau",
    "latitude": 46.6215,
    "longitude": 29.05497
  },
  {
    "city": "Suric",
    "city_zh": "Suric",
    "country": "Moldova",
    "country_zh": "摩爾多瓦",
    "country_iso_code": "MD",
    "timezone": "Europe/Chisinau",
    "latitude": 46.63018,
    "longitude": 28.87488
  },
  {
    "city": "Sucleia",
    "city_zh": "Sucleia",
    "country": "Moldova",
    "country_zh": "摩爾多瓦",
    "country_iso_code": "MD",
    "timezone": "Europe/Chisinau",
    "latitude": 46.82379,
    "longitude": 29.66468
  },
  {
    "city": "Suhuluceni",
    "city_zh": "Suhuluceni",
    "country": "Moldova",
    "country_zh": "摩爾多瓦",
    "country_iso_code": "MD",
    "timezone": "Europe/Chisinau",
    "latitude": 47.46555,
    "longitude": 28.51973
  },
  {
    "city": "Sudarca",
    "city_zh": "Sudarca",
    "country": "Moldova",
    "country_zh": "摩爾多瓦",
    "country_iso_code": "MD",
    "timezone": "Europe/Chisinau",
    "latitude": 48.30536,
    "longitude": 27.78488
  },
  {
    "city": "Stîrceni",
    "city_zh": "Stîrceni",
    "country": "Moldova",
    "country_zh": "摩爾多瓦",
    "country_iso_code": "MD",
    "timezone": "Europe/Chisinau",
    "latitude": 47.87634,
    "longitude": 28.3651
  },
  {
    "city": "Stîrcea",
    "city_zh": "Stîrcea",
    "country": "Moldova",
    "country_zh": "摩爾多瓦",
    "country_iso_code": "MD",
    "timezone": "Europe/Chisinau",
    "latitude": 47.79312,
    "longitude": 27.52561
  },
  {
    "city": "Petropavlovca",
    "city_zh": "Petropavlovca",
    "country": "Moldova",
    "country_zh": "摩爾多瓦",
    "country_iso_code": "MD",
    "timezone": "Europe/Chisinau",
    "latitude": 47.59686,
    "longitude": 28.2047
  },
  {
    "city": "Sturzovca",
    "city_zh": "Sturzovca",
    "country": "Moldova",
    "country_zh": "摩爾多瓦",
    "country_iso_code": "MD",
    "timezone": "Europe/Chisinau",
    "latitude": 47.80394,
    "longitude": 27.72198
  },
  {
    "city": "Sturzeni",
    "city_zh": "Sturzeni",
    "country": "Moldova",
    "country_zh": "摩爾多瓦",
    "country_iso_code": "MD",
    "timezone": "Europe/Chisinau",
    "latitude": 47.9171,
    "longitude": 27.46133
  },
  {
    "city": "Strîmbeni",
    "city_zh": "Strîmbeni",
    "country": "Moldova",
    "country_zh": "摩爾多瓦",
    "country_iso_code": "MD",
    "timezone": "Europe/Chisinau",
    "latitude": 46.86539,
    "longitude": 28.26171
  },
  {
    "city": "Stroieşti",
    "city_zh": "Stroieşti",
    "country": "Moldova",
    "country_zh": "摩爾多瓦",
    "country_iso_code": "MD",
    "timezone": "Europe/Chisinau",
    "latitude": 47.88944,
    "longitude": 28.93327
  },
  {
    "city": "Strășeni",
    "city_zh": "Strășeni",
    "country": "Moldova",
    "country_zh": "摩爾多瓦",
    "country_iso_code": "MD",
    "timezone": "Europe/Chisinau",
    "latitude": 47.14216,
    "longitude": 28.60774
  },
  {
    "city": "Stoicani",
    "city_zh": "Stoicani",
    "country": "Moldova",
    "country_zh": "摩爾多瓦",
    "country_iso_code": "MD",
    "timezone": "Europe/Chisinau",
    "latitude": 48.02644,
    "longitude": 28.36167
  },
  {
    "city": "Stoianovca",
    "city_zh": "Stoianovca",
    "country": "Moldova",
    "country_zh": "摩爾多瓦",
    "country_iso_code": "MD",
    "timezone": "Europe/Chisinau",
    "latitude": 46.25917,
    "longitude": 28.16444
  },
  {
    "city": "Stoianovca",
    "city_zh": "Stoianovca",
    "country": "Moldova",
    "country_zh": "摩爾多瓦",
    "country_iso_code": "MD",
    "timezone": "Europe/Chisinau",
    "latitude": 46.0275,
    "longitude": 28.20444
  },
  {
    "city": "Stolniceni",
    "city_zh": "Stolniceni",
    "country": "Moldova",
    "country_zh": "摩爾多瓦",
    "country_iso_code": "MD",
    "timezone": "Europe/Chisinau",
    "latitude": 48.04004,
    "longitude": 27.34668
  },
  {
    "city": "Stolniceni",
    "city_zh": "Stolniceni",
    "country": "Moldova",
    "country_zh": "摩爾多瓦",
    "country_iso_code": "MD",
    "timezone": "Europe/Chisinau",
    "latitude": 47.41111,
    "longitude": 27.71389
  },
  {
    "city": "Stolniceni",
    "city_zh": "Stolniceni",
    "country": "Moldova",
    "country_zh": "摩爾多瓦",
    "country_iso_code": "MD",
    "timezone": "Europe/Chisinau",
    "latitude": 46.96081,
    "longitude": 28.50002
  },
  {
    "city": "Sitohnia",
    "city_zh": "Sitohnia",
    "country": "Moldova",
    "country_zh": "摩爾多瓦",
    "country_iso_code": "MD",
    "timezone": "Europe/Chisinau",
    "latitude": 47.72778,
    "longitude": 28.96083
  },
  {
    "city": "Stodolna",
    "city_zh": "Stodolna",
    "country": "Moldova",
    "country_zh": "摩爾多瓦",
    "country_iso_code": "MD",
    "timezone": "Europe/Chisinau",
    "latitude": 47.55,
    "longitude": 29.01667
  },
  {
    "city": "Stejăreni",
    "city_zh": "Stejăreni",
    "country": "Moldova",
    "country_zh": "摩爾多瓦",
    "country_iso_code": "MD",
    "timezone": "Europe/Chisinau",
    "latitude": 47.10825,
    "longitude": 28.417
  },
  {
    "city": "Steţcani",
    "city_zh": "Steţcani",
    "country": "Moldova",
    "country_zh": "摩爾多瓦",
    "country_iso_code": "MD",
    "timezone": "Europe/Chisinau",
    "latitude": 47.23586,
    "longitude": 28.82095
  },
  {
    "city": "Step-Soci",
    "city_zh": "Step-Soci",
    "country": "Moldova",
    "country_zh": "摩爾多瓦",
    "country_iso_code": "MD",
    "timezone": "Europe/Chisinau",
    "latitude": 47.45256,
    "longitude": 28.79102
  },
  {
    "city": "Ştefăneşti",
    "city_zh": "Ştefăneşti",
    "country": "Moldova",
    "country_zh": "摩爾多瓦",
    "country_iso_code": "MD",
    "timezone": "Europe/Chisinau",
    "latitude": 46.70466,
    "longitude": 29.37444
  },
  {
    "city": "Shtefaneshty",
    "city_zh": "Shtefaneshty",
    "country": "Moldova",
    "country_zh": "摩爾多瓦",
    "country_iso_code": "MD",
    "timezone": "Europe/Chisinau",
    "latitude": 47.88778,
    "longitude": 28.01556
  },
  {
    "city": "Ştefăneşti",
    "city_zh": "Ştefăneşti",
    "country": "Moldova",
    "country_zh": "摩爾多瓦",
    "country_iso_code": "MD",
    "timezone": "Europe/Chisinau",
    "latitude": 46.44563,
    "longitude": 29.68944
  },
  {
    "city": "Stăuceni",
    "city_zh": "Stăuceni",
    "country": "Moldova",
    "country_zh": "摩爾多瓦",
    "country_iso_code": "MD",
    "timezone": "Europe/Chisinau",
    "latitude": 47.09643,
    "longitude": 28.86791
  },
  {
    "city": "Moscovei Vechi",
    "city_zh": "Moscovei Vechi",
    "country": "Moldova",
    "country_zh": "摩爾多瓦",
    "country_iso_code": "MD",
    "timezone": "Europe/Chisinau",
    "latitude": 45.91167,
    "longitude": 28.37639
  },
  {
    "city": "Zăzulenii Vechi",
    "city_zh": "Zăzulenii Vechi",
    "country": "Moldova",
    "country_zh": "摩爾多瓦",
    "country_iso_code": "MD",
    "timezone": "Europe/Chisinau",
    "latitude": 47.40869,
    "longitude": 27.85843
  },
  {
    "city": "Iezărenii Vechi",
    "city_zh": "Iezărenii Vechi",
    "country": "Moldova",
    "country_zh": "摩爾多瓦",
    "country_iso_code": "MD",
    "timezone": "Europe/Chisinau",
    "latitude": 47.56559,
    "longitude": 28.08777
  },
  {
    "city": "Tîrşiţei",
    "city_zh": "Tîrşiţei",
    "country": "Moldova",
    "country_zh": "摩爾多瓦",
    "country_iso_code": "MD",
    "timezone": "Europe/Chisinau",
    "latitude": 47.69076,
    "longitude": 28.57721
  },
  {
    "city": "Sărătenii Vechi",
    "city_zh": "Sărătenii Vechi",
    "country": "Moldova",
    "country_zh": "摩爾多瓦",
    "country_iso_code": "MD",
    "timezone": "Europe/Chisinau",
    "latitude": 47.52652,
    "longitude": 28.55447
  },
  {
    "city": "Ruseştii Vechi",
    "city_zh": "Ruseştii Vechi",
    "country": "Moldova",
    "country_zh": "摩爾多瓦",
    "country_iso_code": "MD",
    "timezone": "Europe/Chisinau",
    "latitude": 46.91943,
    "longitude": 28.62523
  },
  {
    "city": "Roşieticii Vechi",
    "city_zh": "Roşieticii Vechi",
    "country": "Moldova",
    "country_zh": "摩爾多瓦",
    "country_iso_code": "MD",
    "timezone": "Europe/Chisinau",
    "latitude": 47.81306,
    "longitude": 28.4
  },
  {
    "city": "Rădenii Vechi",
    "city_zh": "Rădenii Vechi",
    "country": "Moldova",
    "country_zh": "摩爾多瓦",
    "country_iso_code": "MD",
    "timezone": "Europe/Chisinau",
    "latitude": 47.30066,
    "longitude": 28.00052
  },
  {
    "city": "Rădulenii Vechi",
    "city_zh": "Rădulenii Vechi",
    "country": "Moldova",
    "country_zh": "摩爾多瓦",
    "country_iso_code": "MD",
    "timezone": "Europe/Chisinau",
    "latitude": 47.98476,
    "longitude": 28.26413
  },
  {
    "city": "Prodăneştii Vechi",
    "city_zh": "Prodăneştii Vechi",
    "country": "Moldova",
    "country_zh": "摩爾多瓦",
    "country_iso_code": "MD",
    "timezone": "Europe/Chisinau",
    "latitude": 47.71461,
    "longitude": 28.44432
  },
  {
    "city": "Negurenii Vechi",
    "city_zh": "Negurenii Vechi",
    "country": "Moldova",
    "country_zh": "摩爾多瓦",
    "country_iso_code": "MD",
    "timezone": "Europe/Chisinau",
    "latitude": 47.41261,
    "longitude": 27.88049
  },
  {
    "city": "Morenii Vechi",
    "city_zh": "Morenii Vechi",
    "country": "Moldova",
    "country_zh": "摩爾多瓦",
    "country_iso_code": "MD",
    "timezone": "Europe/Chisinau",
    "latitude": 47.1325,
    "longitude": 27.86974
  },
  {
    "city": "Limbenii Vechi",
    "city_zh": "Limbenii Vechi",
    "country": "Moldova",
    "country_zh": "摩爾多瓦",
    "country_iso_code": "MD",
    "timezone": "Europe/Chisinau",
    "latitude": 47.69151,
    "longitude": 27.60822
  },
  {
    "city": "Cucuieţii Vechi",
    "city_zh": "Cucuieţii Vechi",
    "country": "Moldova",
    "country_zh": "摩爾多瓦",
    "country_iso_code": "MD",
    "timezone": "Europe/Chisinau",
    "latitude": 47.90782,
    "longitude": 27.43264
  },
  {
    "city": "Cuconeştii Vechi",
    "city_zh": "Cuconeştii Vechi",
    "country": "Moldova",
    "country_zh": "摩爾多瓦",
    "country_iso_code": "MD",
    "timezone": "Europe/Chisinau",
    "latitude": 47.96683,
    "longitude": 27.14845
  },
  {
    "city": "Cuzmenii Vechi",
    "city_zh": "Cuzmenii Vechi",
    "country": "Moldova",
    "country_zh": "摩爾多瓦",
    "country_iso_code": "MD",
    "timezone": "Europe/Chisinau",
    "latitude": 47.52643,
    "longitude": 27.56615
  },
  {
    "city": "Clococenii Vechi",
    "city_zh": "Clococenii Vechi",
    "country": "Moldova",
    "country_zh": "摩爾多瓦",
    "country_iso_code": "MD",
    "timezone": "Europe/Chisinau",
    "latitude": 47.71854,
    "longitude": 27.41575
  },
  {
    "city": "Chiţcanii Vechi",
    "city_zh": "Chiţcanii Vechi",
    "country": "Moldova",
    "country_zh": "摩爾多瓦",
    "country_iso_code": "MD",
    "timezone": "Europe/Chisinau",
    "latitude": 47.59182,
    "longitude": 28.50075
  },
  {
    "city": "Crihana Veche",
    "city_zh": "Crihana Veche",
    "country": "Moldova",
    "country_zh": "摩爾多瓦",
    "country_iso_code": "MD",
    "timezone": "Europe/Chisinau",
    "latitude": 45.84664,
    "longitude": 28.19464
  },
  {
    "city": "Căuşanii-Vechi",
    "city_zh": "Căuşanii-Vechi",
    "country": "Moldova",
    "country_zh": "摩爾多瓦",
    "country_iso_code": "MD",
    "timezone": "Europe/Chisinau",
    "latitude": 46.64722,
    "longitude": 29.44028
  },
  {
    "city": "Caracuşenii Vechi",
    "city_zh": "Caracuşenii Vechi",
    "country": "Moldova",
    "country_zh": "摩爾多瓦",
    "country_iso_code": "MD",
    "timezone": "Europe/Chisinau",
    "latitude": 48.2714,
    "longitude": 27.07274
  },
  {
    "city": "Heciul Vechi",
    "city_zh": "Heciul Vechi",
    "country": "Moldova",
    "country_zh": "摩爾多瓦",
    "country_iso_code": "MD",
    "timezone": "Europe/Chisinau",
    "latitude": 47.79744,
    "longitude": 28.10011
  },
  {
    "city": "Fundurii Vechi",
    "city_zh": "Fundurii Vechi",
    "country": "Moldova",
    "country_zh": "摩爾多瓦",
    "country_iso_code": "MD",
    "timezone": "Europe/Chisinau",
    "latitude": 47.74195,
    "longitude": 27.71693
  },
  {
    "city": "Dubăsarii Vechi",
    "city_zh": "Dubăsarii Vechi",
    "country": "Moldova",
    "country_zh": "摩爾多瓦",
    "country_iso_code": "MD",
    "timezone": "Europe/Chisinau",
    "latitude": 47.13486,
    "longitude": 29.19941
  },
  {
    "city": "Cioropcanii Vechi",
    "city_zh": "Cioropcanii Vechi",
    "country": "Moldova",
    "country_zh": "摩爾多瓦",
    "country_iso_code": "MD",
    "timezone": "Europe/Chisinau",
    "latitude": 47.395,
    "longitude": 27.71139
  },
  {
    "city": "Brînzenii Vechi",
    "city_zh": "Brînzenii Vechi",
    "country": "Moldova",
    "country_zh": "摩爾多瓦",
    "country_iso_code": "MD",
    "timezone": "Europe/Chisinau",
    "latitude": 47.65768,
    "longitude": 28.47298
  },
  {
    "city": "Boghenii Vechi",
    "city_zh": "Boghenii Vechi",
    "country": "Moldova",
    "country_zh": "摩爾多瓦",
    "country_iso_code": "MD",
    "timezone": "Europe/Chisinau",
    "latitude": 47.39679,
    "longitude": 28.02783
  },
  {
    "city": "Bilicenii Vechi",
    "city_zh": "Bilicenii Vechi",
    "country": "Moldova",
    "country_zh": "摩爾多瓦",
    "country_iso_code": "MD",
    "timezone": "Europe/Chisinau",
    "latitude": 47.6558,
    "longitude": 28.04734
  },
  {
    "city": "Bădragii Vechi",
    "city_zh": "Bădragii Vechi",
    "country": "Moldova",
    "country_zh": "摩爾多瓦",
    "country_iso_code": "MD",
    "timezone": "Europe/Chisinau",
    "latitude": 48.03712,
    "longitude": 27.10896
  },
  {
    "city": "Albineţul Vechi",
    "city_zh": "Albineţul Vechi",
    "country": "Moldova",
    "country_zh": "摩爾多瓦",
    "country_iso_code": "MD",
    "timezone": "Europe/Chisinau",
    "latitude": 47.559,
    "longitude": 27.63544
  },
  {
    "city": "Tăura Veche",
    "city_zh": "Tăura Veche",
    "country": "Moldova",
    "country_zh": "摩爾多瓦",
    "country_iso_code": "MD",
    "timezone": "Europe/Chisinau",
    "latitude": 47.53889,
    "longitude": 27.951
  },
  {
    "city": "Tătărăuca Veche",
    "city_zh": "Tătărăuca Veche",
    "country": "Moldova",
    "country_zh": "摩爾多瓦",
    "country_iso_code": "MD",
    "timezone": "Europe/Chisinau",
    "latitude": 48.29843,
    "longitude": 27.98229
  },
  {
    "city": "Sărata Veche",
    "city_zh": "Sărata Veche",
    "country": "Moldova",
    "country_zh": "摩爾多瓦",
    "country_iso_code": "MD",
    "timezone": "Europe/Chisinau",
    "latitude": 47.50259,
    "longitude": 27.74709
  },
  {
    "city": "Obreja Veche",
    "city_zh": "Obreja Veche",
    "country": "Moldova",
    "country_zh": "摩爾多瓦",
    "country_iso_code": "MD",
    "timezone": "Europe/Chisinau",
    "latitude": 47.67995,
    "longitude": 27.66045
  },
  {
    "city": "Larga Veche",
    "city_zh": "Larga Veche",
    "country": "Moldova",
    "country_zh": "摩爾多瓦",
    "country_iso_code": "MD",
    "timezone": "Europe/Chisinau",
    "latitude": 46.06867,
    "longitude": 28.24302
  },
  {
    "city": "Cobusca Veche",
    "city_zh": "Cobusca Veche",
    "country": "Moldova",
    "country_zh": "摩爾多瓦",
    "country_iso_code": "MD",
    "timezone": "Europe/Chisinau",
    "latitude": 46.96923,
    "longitude": 29.1814
  },
  {
    "city": "Floriţoaia Veche",
    "city_zh": "Floriţoaia Veche",
    "country": "Moldova",
    "country_zh": "摩爾多瓦",
    "country_iso_code": "MD",
    "timezone": "Europe/Chisinau",
    "latitude": 47.20146,
    "longitude": 27.90447
  },
  {
    "city": "Dobrogea Veche",
    "city_zh": "Dobrogea Veche",
    "country": "Moldova",
    "country_zh": "摩爾多瓦",
    "country_iso_code": "MD",
    "timezone": "Europe/Chisinau",
    "latitude": 47.84029,
    "longitude": 27.93285
  },
  {
    "city": "Ciolacu Vechi",
    "city_zh": "Ciolacu Vechi",
    "country": "Moldova",
    "country_zh": "摩爾多瓦",
    "country_iso_code": "MD",
    "timezone": "Europe/Chisinau",
    "latitude": 47.47645,
    "longitude": 27.86097
  },
  {
    "city": "Bogdanovca Veche",
    "city_zh": "Bogdanovca Veche",
    "country": "Moldova",
    "country_zh": "摩爾多瓦",
    "country_iso_code": "MD",
    "timezone": "Europe/Chisinau",
    "latitude": 46.47439,
    "longitude": 28.82467
  },
  {
    "city": "Andriasevca Veche",
    "city_zh": "Andriasevca Veche",
    "country": "Moldova",
    "country_zh": "摩爾多瓦",
    "country_iso_code": "MD",
    "timezone": "Europe/Chisinau",
    "latitude": 46.82078,
    "longitude": 29.97098
  },
  {
    "city": "Jora de Mijloc",
    "city_zh": "Jora de Mijloc",
    "country": "Moldova",
    "country_zh": "摩爾多瓦",
    "country_iso_code": "MD",
    "timezone": "Europe/Chisinau",
    "latitude": 47.47609,
    "longitude": 29.09404
  },
  {
    "city": "Spicoasa",
    "city_zh": "Spicoasa",
    "country": "Moldova",
    "country_zh": "摩爾多瓦",
    "country_iso_code": "MD",
    "timezone": "Europe/Chisinau",
    "latitude": 46.03415,
    "longitude": 28.37612
  },
  {
    "city": "Speia",
    "city_zh": "Speia",
    "country": "Moldova",
    "country_zh": "摩爾多瓦",
    "country_iso_code": "MD",
    "timezone": "Europe/Chisinau",
    "latitude": 47.01005,
    "longitude": 29.29798
  },
  {
    "city": "Speia",
    "city_zh": "Speia",
    "country": "Moldova",
    "country_zh": "摩爾多瓦",
    "country_iso_code": "MD",
    "timezone": "Europe/Chisinau",
    "latitude": 46.98283,
    "longitude": 29.32558
  },
  {
    "city": "Şipoteni",
    "city_zh": "Şipoteni",
    "country": "Moldova",
    "country_zh": "摩爾多瓦",
    "country_iso_code": "MD",
    "timezone": "Europe/Chisinau",
    "latitude": 46.94193,
    "longitude": 28.45353
  },
  {
    "city": "Soroca",
    "city_zh": "Soroca",
    "country": "Moldova",
    "country_zh": "摩爾多瓦",
    "country_iso_code": "MD",
    "timezone": "Europe/Chisinau",
    "latitude": 48.15659,
    "longitude": 28.28489
  },
  {
    "city": "Soltăneşti",
    "city_zh": "Soltăneşti",
    "country": "Moldova",
    "country_zh": "摩爾多瓦",
    "country_iso_code": "MD",
    "timezone": "Europe/Chisinau",
    "latitude": 47.05787,
    "longitude": 28.11146
  },
  {
    "city": "Soloneţ",
    "city_zh": "Soloneţ",
    "country": "Moldova",
    "country_zh": "摩爾多瓦",
    "country_iso_code": "MD",
    "timezone": "Europe/Chisinau",
    "latitude": 47.99888,
    "longitude": 28.40455
  },
  {
    "city": "Solonceni",
    "city_zh": "Solonceni",
    "country": "Moldova",
    "country_zh": "摩爾多瓦",
    "country_iso_code": "MD",
    "timezone": "Europe/Chisinau",
    "latitude": 47.82845,
    "longitude": 29.00458
  },
  {
    "city": "Şoldăneşti",
    "city_zh": "Şoldăneşti",
    "country": "Moldova",
    "country_zh": "摩爾多瓦",
    "country_iso_code": "MD",
    "timezone": "Europe/Chisinau",
    "latitude": 47.81608,
    "longitude": 28.79718
  },
  {
    "city": "Socoleni",
    "city_zh": "Socoleni",
    "country": "Moldova",
    "country_zh": "摩爾多瓦",
    "country_iso_code": "MD",
    "timezone": "Europe/Chisinau",
    "latitude": 46.90736,
    "longitude": 29.18907
  },
  {
    "city": "Socola",
    "city_zh": "Socola",
    "country": "Moldova",
    "country_zh": "摩爾多瓦",
    "country_iso_code": "MD",
    "timezone": "Europe/Chisinau",
    "latitude": 47.90698,
    "longitude": 28.81557
  },
  {
    "city": "Sofievca",
    "city_zh": "Sofievca",
    "country": "Moldova",
    "country_zh": "摩爾多瓦",
    "country_iso_code": "MD",
    "timezone": "Europe/Chisinau",
    "latitude": 46.00923,
    "longitude": 28.47079
  },
  {
    "city": "Sofia",
    "city_zh": "Sofia",
    "country": "Moldova",
    "country_zh": "摩爾多瓦",
    "country_iso_code": "MD",
    "timezone": "Europe/Chisinau",
    "latitude": 47.94476,
    "longitude": 27.86484
  },
  {
    "city": "Sofia",
    "city_zh": "Sofia",
    "country": "Moldova",
    "country_zh": "摩爾多瓦",
    "country_iso_code": "MD",
    "timezone": "Europe/Chisinau",
    "latitude": 46.84401,
    "longitude": 28.37623
  },
  {
    "city": "Sociteni",
    "city_zh": "Sociteni",
    "country": "Moldova",
    "country_zh": "摩爾多瓦",
    "country_iso_code": "MD",
    "timezone": "Europe/Chisinau",
    "latitude": 46.94188,
    "longitude": 28.72162
  },
  {
    "city": "Slobozia",
    "city_zh": "斯洛博齊亞",
    "country": "Moldova",
    "country_zh": "摩爾多瓦",
    "country_iso_code": "MD",
    "timezone": "Europe/Chisinau",
    "latitude": 46.72927,
    "longitude": 29.70446
  },
  {
    "city": "Slobozia-Vânăncău",
    "city_zh": "Slobozia-Vânăncău",
    "country": "Moldova",
    "country_zh": "摩爾多瓦",
    "country_iso_code": "MD",
    "timezone": "Europe/Chisinau",
    "latitude": 48.06846,
    "longitude": 28.46836
  },
  {
    "city": "Slobozia Mare",
    "city_zh": "Slobozia Mare",
    "country": "Moldova",
    "country_zh": "摩爾多瓦",
    "country_iso_code": "MD",
    "timezone": "Europe/Chisinau",
    "latitude": 45.5787,
    "longitude": 28.17397
  },
  {
    "city": "Slobozia-Cremene",
    "city_zh": "Slobozia-Cremene",
    "country": "Moldova",
    "country_zh": "摩爾多瓦",
    "country_iso_code": "MD",
    "timezone": "Europe/Chisinau",
    "latitude": 48.03656,
    "longitude": 28.42059
  },
  {
    "city": "Slobozia-Duşca",
    "city_zh": "Slobozia-Duşca",
    "country": "Moldova",
    "country_zh": "摩爾多瓦",
    "country_iso_code": "MD",
    "timezone": "Europe/Chisinau",
    "latitude": 47.16654,
    "longitude": 29.12052
  },
  {
    "city": "Slobozia",
    "city_zh": "Slobozia",
    "country": "Moldova",
    "country_zh": "摩爾多瓦",
    "country_iso_code": "MD",
    "timezone": "Europe/Chisinau",
    "latitude": 46.5082,
    "longitude": 29.73871
  },
  {
    "city": "Slobozia-Şirăuţi",
    "city_zh": "Slobozia-Şirăuţi",
    "country": "Moldova",
    "country_zh": "摩爾多瓦",
    "country_iso_code": "MD",
    "timezone": "Europe/Chisinau",
    "latitude": 48.24437,
    "longitude": 26.87543
  },
  {
    "city": "Slobozia-Raşcov",
    "city_zh": "Slobozia-Raşcov",
    "country": "Moldova",
    "country_zh": "摩爾多瓦",
    "country_iso_code": "MD",
    "timezone": "Europe/Chisinau",
    "latitude": 47.95086,
    "longitude": 28.94837
  },
  {
    "city": "Slobozia-Măgura",
    "city_zh": "Slobozia-Măgura",
    "country": "Moldova",
    "country_zh": "摩爾多瓦",
    "country_iso_code": "MD",
    "timezone": "Europe/Chisinau",
    "latitude": 47.48613,
    "longitude": 27.96459
  },
  {
    "city": "Slobozia-Chişcăreni",
    "city_zh": "Slobozia-Chişcăreni",
    "country": "Moldova",
    "country_zh": "摩爾多瓦",
    "country_iso_code": "MD",
    "timezone": "Europe/Chisinau",
    "latitude": 47.57402,
    "longitude": 28.0107
  },
  {
    "city": "Slobozia-Horodişţe",
    "city_zh": "Slobozia-Horodişţe",
    "country": "Moldova",
    "country_zh": "摩爾多瓦",
    "country_iso_code": "MD",
    "timezone": "Europe/Chisinau",
    "latitude": 47.59808,
    "longitude": 28.93777
  },
  {
    "city": "Sloveanca",
    "city_zh": "Sloveanca",
    "country": "Moldova",
    "country_zh": "摩爾多瓦",
    "country_iso_code": "MD",
    "timezone": "Europe/Chisinau",
    "latitude": 47.65854,
    "longitude": 28.38342
  },
  {
    "city": "Scumpia",
    "city_zh": "Scumpia",
    "country": "Moldova",
    "country_zh": "摩爾多瓦",
    "country_iso_code": "MD",
    "timezone": "Europe/Chisinau",
    "latitude": 47.47038,
    "longitude": 27.7374
  },
  {
    "city": "Sculeni",
    "city_zh": "Sculeni",
    "country": "Moldova",
    "country_zh": "摩爾多瓦",
    "country_iso_code": "MD",
    "timezone": "Europe/Chisinau",
    "latitude": 47.33013,
    "longitude": 27.62511
  },
  {
    "city": "Scroafa",
    "city_zh": "Scroafa",
    "country": "Moldova",
    "country_zh": "摩爾多瓦",
    "country_iso_code": "MD",
    "timezone": "Europe/Chisinau",
    "latitude": 46.77889,
    "longitude": 29.25417
  },
  {
    "city": "Scorţeni",
    "city_zh": "Scorţeni",
    "country": "Moldova",
    "country_zh": "摩爾多瓦",
    "country_iso_code": "MD",
    "timezone": "Europe/Chisinau",
    "latitude": 47.64151,
    "longitude": 28.64563
  },
  {
    "city": "Scoreni",
    "city_zh": "Scoreni",
    "country": "Moldova",
    "country_zh": "摩爾多瓦",
    "country_iso_code": "MD",
    "timezone": "Europe/Chisinau",
    "latitude": 47.06824,
    "longitude": 28.60794
  },
  {
    "city": "Schineni",
    "city_zh": "Schineni",
    "country": "Moldova",
    "country_zh": "摩爾多瓦",
    "country_iso_code": "MD",
    "timezone": "Europe/Chisinau",
    "latitude": 48.09338,
    "longitude": 28.09504
  },
  {
    "city": "Schinoasa-Sat",
    "city_zh": "Schinoasa-Sat",
    "country": "Moldova",
    "country_zh": "摩爾多瓦",
    "country_iso_code": "MD",
    "timezone": "Europe/Chisinau",
    "latitude": 46.47667,
    "longitude": 28.95917
  },
  {
    "city": "Scăieni",
    "city_zh": "Scăieni",
    "country": "Moldova",
    "country_zh": "摩爾多瓦",
    "country_iso_code": "MD",
    "timezone": "Europe/Chisinau",
    "latitude": 47.96944,
    "longitude": 28.12611
  },
  {
    "city": "Scăieni",
    "city_zh": "Scăieni",
    "country": "Moldova",
    "country_zh": "摩爾多瓦",
    "country_iso_code": "MD",
    "timezone": "Europe/Chisinau",
    "latitude": 48.17793,
    "longitude": 27.58697
  },
  {
    "city": "Sirota",
    "city_zh": "Sirota",
    "country": "Moldova",
    "country_zh": "摩爾多瓦",
    "country_iso_code": "MD",
    "timezone": "Europe/Chisinau",
    "latitude": 47.52778,
    "longitude": 28.77694
  },
  {
    "city": "Sireţi",
    "city_zh": "Sireţi",
    "country": "Moldova",
    "country_zh": "摩爾多瓦",
    "country_iso_code": "MD",
    "timezone": "Europe/Chisinau",
    "latitude": 47.13407,
    "longitude": 28.71369
  },
  {
    "city": "Sipoteni",
    "city_zh": "Sipoteni",
    "country": "Moldova",
    "country_zh": "摩爾多瓦",
    "country_iso_code": "MD",
    "timezone": "Europe/Chisinau",
    "latitude": 47.27988,
    "longitude": 28.19655
  },
  {
    "city": "Sineşti",
    "city_zh": "Sineşti",
    "country": "Moldova",
    "country_zh": "摩爾多瓦",
    "country_iso_code": "MD",
    "timezone": "Europe/Chisinau",
    "latitude": 47.39647,
    "longitude": 28.04809
  },
  {
    "city": "Şuri",
    "city_zh": "Şuri",
    "country": "Moldova",
    "country_zh": "摩爾多瓦",
    "country_iso_code": "MD",
    "timezone": "Europe/Chisinau",
    "latitude": 48.09519,
    "longitude": 27.85702
  },
  {
    "city": "Şumna",
    "city_zh": "Şumna",
    "country": "Moldova",
    "country_zh": "摩爾多瓦",
    "country_iso_code": "MD",
    "timezone": "Europe/Chisinau",
    "latitude": 47.92131,
    "longitude": 27.70595
  },
  {
    "city": "Ştiubeieni",
    "city_zh": "Ştiubeieni",
    "country": "Moldova",
    "country_zh": "摩爾多瓦",
    "country_iso_code": "MD",
    "timezone": "Europe/Chisinau",
    "latitude": 48.03095,
    "longitude": 27.51452
  },
  {
    "city": "Ştefăneşti",
    "city_zh": "Ştefăneşti",
    "country": "Moldova",
    "country_zh": "摩爾多瓦",
    "country_iso_code": "MD",
    "timezone": "Europe/Chisinau",
    "latitude": 47.7319,
    "longitude": 28.43784
  },
  {
    "city": "Şoltoaia",
    "city_zh": "Şoltoaia",
    "country": "Moldova",
    "country_zh": "摩爾多瓦",
    "country_iso_code": "MD",
    "timezone": "Europe/Chisinau",
    "latitude": 47.45734,
    "longitude": 27.81446
  },
  {
    "city": "Şolcani",
    "city_zh": "Şolcani",
    "country": "Moldova",
    "country_zh": "摩爾多瓦",
    "country_iso_code": "MD",
    "timezone": "Europe/Chisinau",
    "latitude": 48.17221,
    "longitude": 28.11025
  },
  {
    "city": "Şofrîncani",
    "city_zh": "Şofrîncani",
    "country": "Moldova",
    "country_zh": "摩爾多瓦",
    "country_iso_code": "MD",
    "timezone": "Europe/Chisinau",
    "latitude": 48.04842,
    "longitude": 27.41324
  },
  {
    "city": "Smalena",
    "city_zh": "Smalena",
    "country": "Moldova",
    "country_zh": "摩爾多瓦",
    "country_iso_code": "MD",
    "timezone": "Europe/Chisinau",
    "latitude": 47.75808,
    "longitude": 29.07468
  },
  {
    "city": "Cealîc",
    "city_zh": "Cealîc",
    "country": "Moldova",
    "country_zh": "摩爾多瓦",
    "country_iso_code": "MD",
    "timezone": "Europe/Chisinau",
    "latitude": 45.99565,
    "longitude": 28.55279
  },
  {
    "city": "Şişcani",
    "city_zh": "Şişcani",
    "country": "Moldova",
    "country_zh": "摩爾多瓦",
    "country_iso_code": "MD",
    "timezone": "Europe/Chisinau",
    "latitude": 46.98231,
    "longitude": 28.20904
  },
  {
    "city": "Şirăuţi",
    "city_zh": "Şirăuţi",
    "country": "Moldova",
    "country_zh": "摩爾多瓦",
    "country_iso_code": "MD",
    "timezone": "Europe/Chisinau",
    "latitude": 48.23977,
    "longitude": 26.84235
  },
  {
    "city": "Şipca",
    "city_zh": "Şipca",
    "country": "Moldova",
    "country_zh": "摩爾多瓦",
    "country_iso_code": "MD",
    "timezone": "Europe/Chisinau",
    "latitude": 47.8484,
    "longitude": 28.80834
  },
  {
    "city": "Şipca",
    "city_zh": "Şipca",
    "country": "Moldova",
    "country_zh": "摩爾多瓦",
    "country_iso_code": "MD",
    "timezone": "Europe/Chisinau",
    "latitude": 47.16683,
    "longitude": 29.50936
  },
  {
    "city": "Şicovăţ",
    "city_zh": "Şicovăţ",
    "country": "Moldova",
    "country_zh": "摩爾多瓦",
    "country_iso_code": "MD",
    "timezone": "Europe/Chisinau",
    "latitude": 47.10783,
    "longitude": 27.90595
  },
  {
    "city": "Şestaci",
    "city_zh": "Şestaci",
    "country": "Moldova",
    "country_zh": "摩爾多瓦",
    "country_iso_code": "MD",
    "timezone": "Europe/Chisinau",
    "latitude": 47.86013,
    "longitude": 28.75453
  },
  {
    "city": "Şerpeni",
    "city_zh": "Şerpeni",
    "country": "Moldova",
    "country_zh": "摩爾多瓦",
    "country_iso_code": "MD",
    "timezone": "Europe/Chisinau",
    "latitude": 47.02199,
    "longitude": 29.35083
  },
  {
    "city": "Sîrbeşti",
    "city_zh": "Sîrbeşti",
    "country": "Moldova",
    "country_zh": "摩爾多瓦",
    "country_iso_code": "MD",
    "timezone": "Europe/Chisinau",
    "latitude": 47.80103,
    "longitude": 28.32621
  },
  {
    "city": "Şerbeni",
    "city_zh": "Şerbeni",
    "country": "Moldova",
    "country_zh": "摩爾多瓦",
    "country_iso_code": "MD",
    "timezone": "Europe/Chisinau",
    "latitude": 47.92583,
    "longitude": 27.16583
  },
  {
    "city": "Şeptelici",
    "city_zh": "Şeptelici",
    "country": "Moldova",
    "country_zh": "摩爾多瓦",
    "country_iso_code": "MD",
    "timezone": "Europe/Chisinau",
    "latitude": 48.20039,
    "longitude": 28.15557
  },
  {
    "city": "Şaptebani",
    "city_zh": "Şaptebani",
    "country": "Moldova",
    "country_zh": "摩爾多瓦",
    "country_iso_code": "MD",
    "timezone": "Europe/Chisinau",
    "latitude": 47.89939,
    "longitude": 27.3472
  },
  {
    "city": "Şendreni",
    "city_zh": "Şendreni",
    "country": "Moldova",
    "country_zh": "摩爾多瓦",
    "country_iso_code": "MD",
    "timezone": "Europe/Chisinau",
    "latitude": 47.12672,
    "longitude": 28.18386
  },
  {
    "city": "Şercani",
    "city_zh": "Şercani",
    "country": "Moldova",
    "country_zh": "摩爾多瓦",
    "country_iso_code": "MD",
    "timezone": "Europe/Chisinau",
    "latitude": 47.51294,
    "longitude": 28.93137
  },
  {
    "city": "Şamalia",
    "city_zh": "Şamalia",
    "country": "Moldova",
    "country_zh": "摩爾多瓦",
    "country_iso_code": "MD",
    "timezone": "Europe/Chisinau",
    "latitude": 46.2715,
    "longitude": 28.43671
  },
  {
    "city": "Şalvirii Vechi",
    "city_zh": "Şalvirii Vechi",
    "country": "Moldova",
    "country_zh": "摩爾多瓦",
    "country_iso_code": "MD",
    "timezone": "Europe/Chisinau",
    "latitude": 48.19888,
    "longitude": 27.84476
  },
  {
    "city": "Sevirova",
    "city_zh": "Sevirova",
    "country": "Moldova",
    "country_zh": "摩爾多瓦",
    "country_iso_code": "MD",
    "timezone": "Europe/Chisinau",
    "latitude": 47.9265,
    "longitude": 28.15077
  },
  {
    "city": "Severinovca",
    "city_zh": "Severinovca",
    "country": "Moldova",
    "country_zh": "摩爾多瓦",
    "country_iso_code": "MD",
    "timezone": "Europe/Chisinau",
    "latitude": 48.06398,
    "longitude": 28.72466
  },
  {
    "city": "Săseni",
    "city_zh": "Săseni",
    "country": "Moldova",
    "country_zh": "摩爾多瓦",
    "country_iso_code": "MD",
    "timezone": "Europe/Chisinau",
    "latitude": 47.36813,
    "longitude": 28.50019
  },
  {
    "city": "Serghieni",
    "city_zh": "Serghieni",
    "country": "Moldova",
    "country_zh": "摩爾多瓦",
    "country_iso_code": "MD",
    "timezone": "Europe/Chisinau",
    "latitude": 47.6485,
    "longitude": 27.35123
  },
  {
    "city": "Sănătăuca",
    "city_zh": "Sănătăuca",
    "country": "Moldova",
    "country_zh": "摩爾多瓦",
    "country_iso_code": "MD",
    "timezone": "Europe/Chisinau",
    "latitude": 48.01312,
    "longitude": 28.67515
  },
  {
    "city": "Semeni",
    "city_zh": "Semeni",
    "country": "Moldova",
    "country_zh": "摩爾多瓦",
    "country_iso_code": "MD",
    "timezone": "Europe/Chisinau",
    "latitude": 47.26861,
    "longitude": 27.75194
  },
  {
    "city": "Semionovca",
    "city_zh": "Semionovca",
    "country": "Moldova",
    "country_zh": "摩爾多瓦",
    "country_iso_code": "MD",
    "timezone": "Europe/Chisinau",
    "latitude": 46.69834,
    "longitude": 28.30389
  },
  {
    "city": "Semionovca",
    "city_zh": "Semionovca",
    "country": "Moldova",
    "country_zh": "摩爾多瓦",
    "country_iso_code": "MD",
    "timezone": "Europe/Chisinau",
    "latitude": 46.51678,
    "longitude": 29.5136
  },
  {
    "city": "Selişte",
    "city_zh": "Selişte",
    "country": "Moldova",
    "country_zh": "摩爾多瓦",
    "country_iso_code": "MD",
    "timezone": "Europe/Chisinau",
    "latitude": 47.16769,
    "longitude": 28.13225
  },
  {
    "city": "Selişte",
    "city_zh": "Selişte",
    "country": "Moldova",
    "country_zh": "摩爾多瓦",
    "country_iso_code": "MD",
    "timezone": "Europe/Chisinau",
    "latitude": 47.33511,
    "longitude": 28.78485
  },
  {
    "city": "Seliște",
    "city_zh": "Seliște",
    "country": "Moldova",
    "country_zh": "摩爾多瓦",
    "country_iso_code": "MD",
    "timezone": "Europe/Chisinau",
    "latitude": 46.52751,
    "longitude": 28.42976
  },
  {
    "city": "Selemet",
    "city_zh": "Selemet",
    "country": "Moldova",
    "country_zh": "摩爾多瓦",
    "country_iso_code": "MD",
    "timezone": "Europe/Chisinau",
    "latitude": 46.57778,
    "longitude": 28.92639
  },
  {
    "city": "Sacarovca",
    "city_zh": "Sacarovca",
    "country": "Moldova",
    "country_zh": "摩爾多瓦",
    "country_iso_code": "MD",
    "timezone": "Europe/Chisinau",
    "latitude": 47.70633,
    "longitude": 28.21054
  },
  {
    "city": "Secăreni",
    "city_zh": "Secăreni",
    "country": "Moldova",
    "country_zh": "摩爾多瓦",
    "country_iso_code": "MD",
    "timezone": "Europe/Chisinau",
    "latitude": 47.0264,
    "longitude": 28.33235
  },
  {
    "city": "Sauca",
    "city_zh": "Sauca",
    "country": "Moldova",
    "country_zh": "摩爾多瓦",
    "country_iso_code": "MD",
    "timezone": "Europe/Chisinau",
    "latitude": 48.37331,
    "longitude": 27.73036
  },
  {
    "city": "Satul-Nou",
    "city_zh": "Satul-Nou",
    "country": "Moldova",
    "country_zh": "摩爾多瓦",
    "country_iso_code": "MD",
    "timezone": "Europe/Chisinau",
    "latitude": 46.61527,
    "longitude": 28.90788
  },
  {
    "city": "Pelinei Noui",
    "city_zh": "Pelinei Noui",
    "country": "Moldova",
    "country_zh": "摩爾多瓦",
    "country_iso_code": "MD",
    "timezone": "Europe/Chisinau",
    "latitude": 45.84528,
    "longitude": 28.31583
  },
  {
    "city": "Sărăţica Veche",
    "city_zh": "Sărăţica Veche",
    "country": "Moldova",
    "country_zh": "摩爾多瓦",
    "country_iso_code": "MD",
    "timezone": "Europe/Chisinau",
    "latitude": 46.60237,
    "longitude": 28.53011
  },
  {
    "city": "Sărăţei",
    "city_zh": "Sărăţei",
    "country": "Moldova",
    "country_zh": "摩爾多瓦",
    "country_iso_code": "MD",
    "timezone": "Europe/Chisinau",
    "latitude": 47.82766,
    "longitude": 29.02161
  },
  {
    "city": "Sărăteni",
    "city_zh": "Sărăteni",
    "country": "Moldova",
    "country_zh": "摩爾多瓦",
    "country_iso_code": "MD",
    "timezone": "Europe/Chisinau",
    "latitude": 46.8576,
    "longitude": 28.16729
  },
  {
    "city": "Sărăteni",
    "city_zh": "Sărăteni",
    "country": "Moldova",
    "country_zh": "摩爾多瓦",
    "country_iso_code": "MD",
    "timezone": "Europe/Chisinau",
    "latitude": 46.60959,
    "longitude": 28.46625
  },
  {
    "city": "Sărata-Răzeşi",
    "city_zh": "Sărata-Răzeşi",
    "country": "Moldova",
    "country_zh": "摩爾多瓦",
    "country_iso_code": "MD",
    "timezone": "Europe/Chisinau",
    "latitude": 46.61553,
    "longitude": 28.26508
  },
  {
    "city": "Sărata Nouă",
    "city_zh": "Sărata Nouă",
    "country": "Moldova",
    "country_zh": "摩爾多瓦",
    "country_iso_code": "MD",
    "timezone": "Europe/Chisinau",
    "latitude": 46.49307,
    "longitude": 28.38843
  },
  {
    "city": "Sărata Mereşeni",
    "city_zh": "Sărata Mereşeni",
    "country": "Moldova",
    "country_zh": "摩爾多瓦",
    "country_iso_code": "MD",
    "timezone": "Europe/Chisinau",
    "latitude": 46.80053,
    "longitude": 28.50215
  },
  {
    "city": "Sărata-Galbenă",
    "city_zh": "Sărata-Galbenă",
    "country": "Moldova",
    "country_zh": "摩爾多瓦",
    "country_iso_code": "MD",
    "timezone": "Europe/Chisinau",
    "latitude": 46.73469,
    "longitude": 28.51561
  },
  {
    "city": "Samurza",
    "city_zh": "Samurza",
    "country": "Moldova",
    "country_zh": "摩爾多瓦",
    "country_iso_code": "MD",
    "timezone": "Europe/Chisinau",
    "latitude": 45.97603,
    "longitude": 28.56103
  },
  {
    "city": "Sămăşcani",
    "city_zh": "Sămăşcani",
    "country": "Moldova",
    "country_zh": "摩爾多瓦",
    "country_iso_code": "MD",
    "timezone": "Europe/Chisinau",
    "latitude": 47.75476,
    "longitude": 28.69259
  },
  {
    "city": "Sămănanca",
    "city_zh": "Sămănanca",
    "country": "Moldova",
    "country_zh": "摩爾多瓦",
    "country_iso_code": "MD",
    "timezone": "Europe/Chisinau",
    "latitude": 47.26686,
    "longitude": 28.73149
  },
  {
    "city": "Sălcuţa",
    "city_zh": "Sălcuţa",
    "country": "Moldova",
    "country_zh": "摩爾多瓦",
    "country_iso_code": "MD",
    "timezone": "Europe/Chisinau",
    "latitude": 46.59544,
    "longitude": 29.24882
  },
  {
    "city": "Salcia",
    "city_zh": "Salcia",
    "country": "Moldova",
    "country_zh": "摩爾多瓦",
    "country_iso_code": "MD",
    "timezone": "Europe/Chisinau",
    "latitude": 46.94426,
    "longitude": 29.16979
  },
  {
    "city": "Salcia",
    "city_zh": "Salcia",
    "country": "Moldova",
    "country_zh": "摩爾多瓦",
    "country_iso_code": "MD",
    "timezone": "Europe/Chisinau",
    "latitude": 47.9486,
    "longitude": 28.734
  },
  {
    "city": "Saharna",
    "city_zh": "Saharna",
    "country": "Moldova",
    "country_zh": "摩爾多瓦",
    "country_iso_code": "MD",
    "timezone": "Europe/Chisinau",
    "latitude": 47.69107,
    "longitude": 28.97458
  },
  {
    "city": "Săiţi",
    "city_zh": "Săiţi",
    "country": "Moldova",
    "country_zh": "摩爾多瓦",
    "country_iso_code": "MD",
    "timezone": "Europe/Chisinau",
    "latitude": 46.49754,
    "longitude": 29.40303
  },
  {
    "city": "Sagaidac",
    "city_zh": "Sagaidac",
    "country": "Moldova",
    "country_zh": "摩爾多瓦",
    "country_iso_code": "MD",
    "timezone": "Europe/Chisinau",
    "latitude": 47.02609,
    "longitude": 29.02755
  },
  {
    "city": "Sagaidac",
    "city_zh": "Sagaidac",
    "country": "Moldova",
    "country_zh": "摩爾多瓦",
    "country_iso_code": "MD",
    "timezone": "Europe/Chisinau",
    "latitude": 46.66217,
    "longitude": 28.8457
  },
  {
    "city": "Safronovka",
    "city_zh": "Safronovka",
    "country": "Moldova",
    "country_zh": "摩爾多瓦",
    "country_iso_code": "MD",
    "timezone": "Europe/Chisinau",
    "latitude": 46.83333,
    "longitude": 29.85
  },
  {
    "city": "Sadîc",
    "city_zh": "Sadîc",
    "country": "Moldova",
    "country_zh": "摩爾多瓦",
    "country_iso_code": "MD",
    "timezone": "Europe/Chisinau",
    "latitude": 46.26988,
    "longitude": 28.51857
  },
  {
    "city": "Sadovoe",
    "city_zh": "Sadovoe",
    "country": "Moldova",
    "country_zh": "摩爾多瓦",
    "country_iso_code": "MD",
    "timezone": "Europe/Chisinau",
    "latitude": 47.77829,
    "longitude": 27.79613
  },
  {
    "city": "Sadova",
    "city_zh": "Sadova",
    "country": "Moldova",
    "country_zh": "摩爾多瓦",
    "country_iso_code": "MD",
    "timezone": "Europe/Chisinau",
    "latitude": 47.19235,
    "longitude": 28.34436
  },
  {
    "city": "Sadaclia",
    "city_zh": "Sadaclia",
    "country": "Moldova",
    "country_zh": "摩爾多瓦",
    "country_iso_code": "MD",
    "timezone": "Europe/Chisinau",
    "latitude": 46.44852,
    "longitude": 28.87973
  },
  {
    "city": "Rîşcova",
    "city_zh": "Rîşcova",
    "country": "Moldova",
    "country_zh": "摩爾多瓦",
    "country_iso_code": "MD",
    "timezone": "Europe/Chisinau",
    "latitude": 47.25233,
    "longitude": 28.84659
  },
  {
    "city": "Rîşcani",
    "city_zh": "Rîşcani",
    "country": "Moldova",
    "country_zh": "摩爾多瓦",
    "country_iso_code": "MD",
    "timezone": "Europe/Chisinau",
    "latitude": 47.94792,
    "longitude": 27.56376
  },
  {
    "city": "Rîşcani",
    "city_zh": "Rîşcani",
    "country": "Moldova",
    "country_zh": "摩爾多瓦",
    "country_iso_code": "MD",
    "timezone": "Europe/Chisinau",
    "latitude": 47.05309,
    "longitude": 28.86396
  },
  {
    "city": "Rîbniţa",
    "city_zh": "勒布尼察",
    "country": "Moldova",
    "country_zh": "摩爾多瓦",
    "country_iso_code": "MD",
    "timezone": "Europe/Chisinau",
    "latitude": 47.76817,
    "longitude": 29.01
  },
  {
    "city": "Rujniţa",
    "city_zh": "Rujniţa",
    "country": "Moldova",
    "country_zh": "摩爾多瓦",
    "country_iso_code": "MD",
    "timezone": "Europe/Chisinau",
    "latitude": 48.25661,
    "longitude": 27.43654
  },
  {
    "city": "Ruseni",
    "city_zh": "Ruseni",
    "country": "Moldova",
    "country_zh": "摩爾多瓦",
    "country_iso_code": "MD",
    "timezone": "Europe/Chisinau",
    "latitude": 48.20181,
    "longitude": 27.41583
  },
  {
    "city": "Chioselia Rusă",
    "city_zh": "Chioselia Rusă",
    "country": "Moldova",
    "country_zh": "摩爾多瓦",
    "country_iso_code": "MD",
    "timezone": "Europe/Chisinau",
    "latitude": 46.08494,
    "longitude": 28.51184
  },
  {
    "city": "Rudi",
    "city_zh": "Rudi",
    "country": "Moldova",
    "country_zh": "摩爾多瓦",
    "country_iso_code": "MD",
    "timezone": "Europe/Chisinau",
    "latitude": 48.33076,
    "longitude": 27.89906
  },
  {
    "city": "Rubleniţa",
    "city_zh": "Rubleniţa",
    "country": "Moldova",
    "country_zh": "摩爾多瓦",
    "country_iso_code": "MD",
    "timezone": "Europe/Chisinau",
    "latitude": 48.16959,
    "longitude": 28.21129
  },
  {
    "city": "Risipeni",
    "city_zh": "Risipeni",
    "country": "Moldova",
    "country_zh": "摩爾多瓦",
    "country_iso_code": "MD",
    "timezone": "Europe/Chisinau",
    "latitude": 47.46084,
    "longitude": 27.66577
  },
  {
    "city": "Roşu",
    "city_zh": "Roşu",
    "country": "Moldova",
    "country_zh": "摩爾多瓦",
    "country_iso_code": "MD",
    "timezone": "Europe/Chisinau",
    "latitude": 45.95773,
    "longitude": 28.19642
  },
  {
    "city": "Roşcani",
    "city_zh": "Roşcani",
    "country": "Moldova",
    "country_zh": "摩爾多瓦",
    "country_iso_code": "MD",
    "timezone": "Europe/Chisinau",
    "latitude": 47.14809,
    "longitude": 28.67769
  },
  {
    "city": "Roşcani",
    "city_zh": "Roşcani",
    "country": "Moldova",
    "country_zh": "摩爾多瓦",
    "country_iso_code": "MD",
    "timezone": "Europe/Chisinau",
    "latitude": 46.89534,
    "longitude": 29.30884
  },
  {
    "city": "Roşiţa",
    "city_zh": "Roşiţa",
    "country": "Moldova",
    "country_zh": "摩爾多瓦",
    "country_iso_code": "MD",
    "timezone": "Europe/Chisinau",
    "latitude": 46.0319,
    "longitude": 28.47549
  },
  {
    "city": "Romanovca",
    "city_zh": "Romanovca",
    "country": "Moldova",
    "country_zh": "摩爾多瓦",
    "country_iso_code": "MD",
    "timezone": "Europe/Chisinau",
    "latitude": 47.37468,
    "longitude": 27.97082
  },
  {
    "city": "Romanovca",
    "city_zh": "Romanovca",
    "country": "Moldova",
    "country_zh": "摩爾多瓦",
    "country_iso_code": "MD",
    "timezone": "Europe/Chisinau",
    "latitude": 46.45942,
    "longitude": 28.35245
  },
  {
    "city": "Roghi",
    "city_zh": "Roghi",
    "country": "Moldova",
    "country_zh": "摩爾多瓦",
    "country_iso_code": "MD",
    "timezone": "Europe/Chisinau",
    "latitude": 47.32206,
    "longitude": 29.13986
  },
  {
    "city": "Rezina",
    "city_zh": "Rezina",
    "country": "Moldova",
    "country_zh": "摩爾多瓦",
    "country_iso_code": "MD",
    "timezone": "Europe/Chisinau",
    "latitude": 47.74928,
    "longitude": 28.96583
  },
  {
    "city": "Rezina",
    "city_zh": "Rezina",
    "country": "Moldova",
    "country_zh": "摩爾多瓦",
    "country_iso_code": "MD",
    "timezone": "Europe/Chisinau",
    "latitude": 47.21578,
    "longitude": 27.87646
  },
  {
    "city": "Moscovei-Răzeşi",
    "city_zh": "Moscovei-Răzeşi",
    "country": "Moldova",
    "country_zh": "摩爾多瓦",
    "country_iso_code": "MD",
    "timezone": "Europe/Chisinau",
    "latitude": 45.89917,
    "longitude": 28.38917
  },
  {
    "city": "Răzeni",
    "city_zh": "Răzeni",
    "country": "Moldova",
    "country_zh": "摩爾多瓦",
    "country_iso_code": "MD",
    "timezone": "Europe/Chisinau",
    "latitude": 46.76884,
    "longitude": 28.89976
  },
  {
    "city": "Revaca",
    "city_zh": "Revaca",
    "country": "Moldova",
    "country_zh": "摩爾多瓦",
    "country_iso_code": "MD",
    "timezone": "Europe/Chisinau",
    "latitude": 46.90906,
    "longitude": 28.94214
  },
  {
    "city": "Răuțel",
    "city_zh": "Răuțel",
    "country": "Moldova",
    "country_zh": "摩爾多瓦",
    "country_iso_code": "MD",
    "timezone": "Europe/Chisinau",
    "latitude": 47.71319,
    "longitude": 27.82583
  },
  {
    "city": "Rediul Mare",
    "city_zh": "Rediul Mare",
    "country": "Moldova",
    "country_zh": "摩爾多瓦",
    "country_iso_code": "MD",
    "timezone": "Europe/Chisinau",
    "latitude": 48.23206,
    "longitude": 27.52086
  },
  {
    "city": "Rădeni",
    "city_zh": "Rădeni",
    "country": "Moldova",
    "country_zh": "摩爾多瓦",
    "country_iso_code": "MD",
    "timezone": "Europe/Chisinau",
    "latitude": 47.3958,
    "longitude": 28.21306
  },
  {
    "city": "Rădeni",
    "city_zh": "Rădeni",
    "country": "Moldova",
    "country_zh": "摩爾多瓦",
    "country_iso_code": "MD",
    "timezone": "Europe/Chisinau",
    "latitude": 47.20677,
    "longitude": 28.69864
  },
  {
    "city": "Redi-Cereşnovăţ",
    "city_zh": "Redi-Cereşnovăţ",
    "country": "Moldova",
    "country_zh": "摩爾多瓦",
    "country_iso_code": "MD",
    "timezone": "Europe/Chisinau",
    "latitude": 48.06339,
    "longitude": 28.31266
  },