[
  {
    "city": "Utiroa",
    "city_zh": "Utiroa",
    "country": "Kiribati",
    "country_zh": "吉里巴斯",
    "country_iso_code": "KI",
    "timezone": "Pacific/Tarawa",
    "latitude": -1.21268,
    "longitude": 174.75677
  },
  {
    "city": "Toboiaki Village",
    "city_zh": "Toboiaki Village",
    "country": "Kiribati",
    "country_zh": "吉里巴斯",
    "country_iso_code": "KI",
    "timezone": "Pacific/Tarawa",
    "latitude": -0.73842,
    "longitude": 174.45422
  },
  {
    "city": "Ukiangang Village",
    "city_zh": "Ukiangang Village",
    "country": "Kiribati",
    "country_zh": "吉里巴斯",
    "country_iso_code": "KI",
    "timezone": "Pacific/Tarawa",
    "latitude": 3.04983,
    "longitude": 172.76247
  },
  {
    "city": "Ubanteman Village",
    "city_zh": "Ubanteman Village",
    "country": "Kiribati",
    "country_zh": "吉里巴斯",
    "country_iso_code": "KI",
    "timezone": "Pacific/Tarawa",
    "latitude": 1.93501,
    "longitude": 172.93141
  },
  {
    "city": "Tuarabu Village",
    "city_zh": "Tuarabu Village",
    "country": "Kiribati",
    "country_zh": "吉里巴斯",
    "country_iso_code": "KI",
    "timezone": "Pacific/Tarawa",
    "latitude": 1.79808,
    "longitude": 173.039
  },
  {
    "city": "Tewai Village",
    "city_zh": "Tewai Village",
    "country": "Kiribati",
    "country_zh": "吉里巴斯",
    "country_iso_code": "KI",
    "timezone": "Pacific/Tarawa",
    "latitude": -1.44484,
    "longitude": 175.01169
  },
  {
    "city": "Teteirio Village",
    "city_zh": "Teteirio Village",
    "country": "Kiribati",
    "country_zh": "吉里巴斯",
    "country_iso_code": "KI",
    "timezone": "Pacific/Tarawa",
    "latitude": -1.34313,
    "longitude": 175.99926
  },
  {
    "city": "Temotu Village",
    "city_zh": "Temotu Village",
    "country": "Kiribati",
    "country_zh": "吉里巴斯",
    "country_iso_code": "KI",
    "timezone": "Pacific/Tarawa",
    "latitude": 2.03535,
    "longitude": 173.25847
  },
  {
    "city": "Temotu Village",
    "city_zh": "Temotu Village",
    "country": "Kiribati",
    "country_zh": "吉里巴斯",
    "country_iso_code": "KI",
    "timezone": "Pacific/Tarawa",
    "latitude": -0.80552,
    "longitude": 174.45381
  },
  {
    "city": "Terikiai Village",
    "city_zh": "Terikiai Village",
    "country": "Kiribati",
    "country_zh": "吉里巴斯",
    "country_iso_code": "KI",
    "timezone": "Pacific/Tarawa",
    "latitude": -1.16466,
    "longitude": 174.71881
  },
  {
    "city": "Katabanga Village",
    "city_zh": "Katabanga Village",
    "country": "Kiribati",
    "country_zh": "吉里巴斯",
    "country_iso_code": "KI",
    "timezone": "Pacific/Tarawa",
    "latitude": -1.50088,
    "longitude": 175.06954
  },
  {
    "city": "Matang Village",
    "city_zh": "Matang Village",
    "country": "Kiribati",
    "country_zh": "吉里巴斯",
    "country_iso_code": "KI",
    "timezone": "Pacific/Tarawa",
    "latitude": -0.67058,
    "longitude": 174.44954
  },
  {
    "city": "Tekuanga Village",
    "city_zh": "Tekuanga Village",
    "country": "Kiribati",
    "country_zh": "吉里巴斯",
    "country_iso_code": "KI",
    "timezone": "Pacific/Tarawa",
    "latitude": 2.03004,
    "longitude": 173.2855
  },
  {
    "city": "Tekatirirake Village",
    "city_zh": "Tekatirirake Village",
    "country": "Kiribati",
    "country_zh": "吉里巴斯",
    "country_iso_code": "KI",
    "timezone": "Pacific/Tarawa",
    "latitude": 0.46667,
    "longitude": 173.86667
  },
  {
    "city": "Tekarakan Village",
    "city_zh": "Tekarakan Village",
    "country": "Kiribati",
    "country_zh": "吉里巴斯",
    "country_iso_code": "KI",
    "timezone": "Pacific/Tarawa",
    "latitude": 1.99312,
    "longitude": 173.25191
  },
  {
    "city": "Aiwa Village",
    "city_zh": "Aiwa Village",
    "country": "Kiribati",
    "country_zh": "吉里巴斯",
    "country_iso_code": "KI",
    "timezone": "Pacific/Tarawa",
    "latitude": -1.38825,
    "longitude": 174.90226
  },
  {
    "city": "Tebunginako Village",
    "city_zh": "Tebunginako Village",
    "country": "Kiribati",
    "country_zh": "吉里巴斯",
    "country_iso_code": "KI",
    "timezone": "Pacific/Tarawa",
    "latitude": 1.91657,
    "longitude": 172.94588
  },
  {
    "city": "Tetabakea",
    "city_zh": "Tetabakea",
    "country": "Kiribati",
    "country_zh": "吉里巴斯",
    "country_iso_code": "KI",
    "timezone": "Pacific/Tarawa",
    "latitude": -0.80034,
    "longitude": 174.453
  },
  {
    "city": "Tebikerai Village",
    "city_zh": "Tebikerai Village",
    "country": "Kiribati",
    "country_zh": "吉里巴斯",
    "country_iso_code": "KI",
    "timezone": "Pacific/Tarawa",
    "latitude": 1.00789,
    "longitude": 173.00392
  },
  {
    "city": "Tebakauto",
    "city_zh": "Tebakauto",
    "country": "Kiribati",
    "country_zh": "吉里巴斯",
    "country_iso_code": "KI",
    "timezone": "Pacific/Tarawa",
    "latitude": -0.80815,
    "longitude": 174.45734
  },
  {
    "city": "Tebanga Village",
    "city_zh": "Tebanga Village",
    "country": "Kiribati",
    "country_zh": "吉里巴斯",
    "country_iso_code": "KI",
    "timezone": "Pacific/Tarawa",
    "latitude": 1.71546,
    "longitude": 173.00624
  },
  {
    "city": "Tebanga Village",
    "city_zh": "Tebanga Village",
    "country": "Kiribati",
    "country_zh": "吉里巴斯",
    "country_iso_code": "KI",
    "timezone": "Pacific/Tarawa",
    "latitude": 0.35739,
    "longitude": 173.93529
  },
  {
    "city": "Tearinibai Village",
    "city_zh": "Tearinibai Village",
    "country": "Kiribati",
    "country_zh": "吉里巴斯",
    "country_iso_code": "KI",
    "timezone": "Pacific/Tarawa",
    "latitude": 1.59039,
    "longitude": 172.96973
  },
  {
    "city": "Teaoraereke Village",
    "city_zh": "Teaoraereke Village",
    "country": "Kiribati",
    "country_zh": "吉里巴斯",
    "country_iso_code": "KI",
    "timezone": "Pacific/Tarawa",
    "latitude": 1.33309,
    "longitude": 173.01162
  },
  {
    "city": "Taribo",
    "city_zh": "Taribo",
    "country": "Kiribati",
    "country_zh": "吉里巴斯",
    "country_iso_code": "KI",
    "timezone": "Pacific/Tarawa",
    "latitude": -2.64353,
    "longitude": 176.8254
  },
  {
    "city": "Taratai Village",
    "city_zh": "Taratai Village",
    "country": "Kiribati",
    "country_zh": "吉里巴斯",
    "country_iso_code": "KI",
    "timezone": "Pacific/Tarawa",
    "latitude": 1.5488,
    "longitude": 172.99183
  },
  {
    "city": "Temanoku Village",
    "city_zh": "Temanoku Village",
    "country": "Kiribati",
    "country_zh": "吉里巴斯",
    "country_iso_code": "KI",
    "timezone": "Pacific/Tarawa",
    "latitude": -0.59909,
    "longitude": 174.3783
  },
  {
    "city": "Tabontebike Village",
    "city_zh": "Tabontebike Village",
    "country": "Kiribati",
    "country_zh": "吉里巴斯",
    "country_iso_code": "KI",
    "timezone": "Pacific/Tarawa",
    "latitude": 0.42351,
    "longitude": 173.91151
  },
  {
    "city": "Tanimaiaki Village",
    "city_zh": "Tanimaiaki Village",
    "country": "Kiribati",
    "country_zh": "吉里巴斯",
    "country_iso_code": "KI",
    "timezone": "Pacific/Tarawa",
    "latitude": 3.10106,
    "longitude": 172.87764
  },
  {
    "city": "Tanimaiaki Village",
    "city_zh": "Tanimaiaki Village",
    "country": "Kiribati",
    "country_zh": "吉里巴斯",
    "country_iso_code": "KI",
    "timezone": "Pacific/Tarawa",
    "latitude": 1.7552,
    "longitude": 173.04167
  },
  {
    "city": "Tanaeang Village",
    "city_zh": "Tanaeang Village",
    "country": "Kiribati",
    "country_zh": "吉里巴斯",
    "country_iso_code": "KI",
    "timezone": "Pacific/Tarawa",
    "latitude": -1.13765,
    "longitude": 174.67741
  },
  {
    "city": "Tamaroa Village",
    "city_zh": "Tamaroa Village",
    "country": "Kiribati",
    "country_zh": "吉里巴斯",
    "country_iso_code": "KI",
    "timezone": "Pacific/Tarawa",
    "latitude": -2.63211,
    "longitude": 176.81625
  },
  {
    "city": "Taku Village",
    "city_zh": "Taku Village",
    "country": "Kiribati",
    "country_zh": "吉里巴斯",
    "country_iso_code": "KI",
    "timezone": "Pacific/Tarawa",
    "latitude": -1.52304,
    "longitude": 175.06544
  },
  {
    "city": "Takarano Village",
    "city_zh": "Takarano Village",
    "country": "Kiribati",
    "country_zh": "吉里巴斯",
    "country_iso_code": "KI",
    "timezone": "Pacific/Tarawa",
    "latitude": 1.94987,
    "longitude": 172.91227
  },
  {
    "city": "Tabutoa Village",
    "city_zh": "Tabutoa Village",
    "country": "Kiribati",
    "country_zh": "吉里巴斯",
    "country_iso_code": "KI",
    "timezone": "Pacific/Tarawa",
    "latitude": -1.33176,
    "longitude": 176.42374
  },
  {
    "city": "Taburao Village",
    "city_zh": "Taburao Village",
    "country": "Kiribati",
    "country_zh": "吉里巴斯",
    "country_iso_code": "KI",
    "timezone": "Pacific/Tarawa",
    "latitude": 1.85372,
    "longitude": 172.99744
  },
  {
    "city": "Tabukiniberu Village",
    "city_zh": "Tabukiniberu Village",
    "country": "Kiribati",
    "country_zh": "吉里巴斯",
    "country_iso_code": "KI",
    "timezone": "Pacific/Tarawa",
    "latitude": -1.33781,
    "longitude": 175.98449
  },
  {
    "city": "Tabuiroa Village",
    "city_zh": "Tabuiroa Village",
    "country": "Kiribati",
    "country_zh": "吉里巴斯",
    "country_iso_code": "KI",
    "timezone": "Pacific/Tarawa",
    "latitude": 1.8071,
    "longitude": 173.03591
  },
  {
    "city": "Tabuarorae Village",
    "city_zh": "Tabuarorae Village",
    "country": "Kiribati",
    "country_zh": "吉里巴斯",
    "country_iso_code": "KI",
    "timezone": "Pacific/Tarawa",
    "latitude": -1.94232,
    "longitude": 175.57616
  },
  {
    "city": "Taborio Village",
    "city_zh": "Taborio Village",
    "country": "Kiribati",
    "country_zh": "吉里巴斯",
    "country_iso_code": "KI",
    "timezone": "Pacific/Tarawa",
    "latitude": 1.52009,
    "longitude": 173.00302
  },
  {
    "city": "Tabonuea Village",
    "city_zh": "Tabonuea Village",
    "country": "Kiribati",
    "country_zh": "吉里巴斯",
    "country_iso_code": "KI",
    "timezone": "Pacific/Tarawa",
    "latitude": 3.09612,
    "longitude": 172.82312
  },
  {
    "city": "Tabontebike Village",
    "city_zh": "Tabontebike Village",
    "country": "Kiribati",
    "country_zh": "吉里巴斯",
    "country_iso_code": "KI",
    "timezone": "Pacific/Tarawa",
    "latitude": 1.72545,
    "longitude": 172.98965
  },
  {
    "city": "Tabomatang Village",
    "city_zh": "Tabomatang Village",
    "country": "Kiribati",
    "country_zh": "吉里巴斯",
    "country_iso_code": "KI",
    "timezone": "Pacific/Tarawa",
    "latitude": -1.39711,
    "longitude": 176.48118
  },
  {
    "city": "Taboiaki Village",
    "city_zh": "Taboiaki Village",
    "country": "Kiribati",
    "country_zh": "吉里巴斯",
    "country_iso_code": "KI",
    "timezone": "Pacific/Tarawa",
    "latitude": -1.36804,
    "longitude": 176.01362
  },
  {
    "city": "Tabiteuea Village",
    "city_zh": "Tabiteuea Village",
    "country": "Kiribati",
    "country_zh": "吉里巴斯",
    "country_iso_code": "KI",
    "timezone": "Pacific/Tarawa",
    "latitude": 1.42301,
    "longitude": 173.09988
  },
  {
    "city": "Tabiauea Village",
    "city_zh": "Tabiauea Village",
    "country": "Kiribati",
    "country_zh": "吉里巴斯",
    "country_iso_code": "KI",
    "timezone": "Pacific/Tarawa",
    "latitude": 0.92746,
    "longitude": 173.02772
  },
  {
    "city": "Tabiang Village",
    "city_zh": "Tabiang Village",
    "country": "Kiribati",
    "country_zh": "吉里巴斯",
    "country_iso_code": "KI",
    "timezone": "Pacific/Tarawa",
    "latitude": -1.29499,
    "longitude": 175.95935
  },
  {
    "city": "Antereen Village",
    "city_zh": "Antereen Village",
    "country": "Kiribati",
    "country_zh": "吉里巴斯",
    "country_iso_code": "KI",
    "timezone": "Pacific/Tarawa",
    "latitude": -0.86451,
    "longitude": 169.52841
  },
  {
    "city": "Tabiang Village",
    "city_zh": "Tabiang Village",
    "country": "Kiribati",
    "country_zh": "吉里巴斯",
    "country_iso_code": "KI",
    "timezone": "Pacific/Tarawa",
    "latitude": 0.48589,
    "longitude": 173.82937
  },
  {
    "city": "Rungata",
    "city_zh": "Rungata",
    "country": "Kiribati",
    "country_zh": "吉里巴斯",
    "country_iso_code": "KI",
    "timezone": "Pacific/Tarawa",
    "latitude": -1.34244,
    "longitude": 176.43567
  },
  {
    "city": "Rotuma Village",
    "city_zh": "Rotuma Village",
    "country": "Kiribati",
    "country_zh": "吉里巴斯",
    "country_iso_code": "KI",
    "timezone": "Pacific/Tarawa",
    "latitude": -0.63125,
    "longitude": 174.41433
  },
  {
    "city": "Roreti Village",
    "city_zh": "Roreti Village",
    "country": "Kiribati",
    "country_zh": "吉里巴斯",
    "country_iso_code": "KI",
    "timezone": "Pacific/Tarawa",
    "latitude": -2.65512,
    "longitude": 176.83302
  },
  {
    "city": "Norauea Village",
    "city_zh": "Norauea Village",
    "country": "Kiribati",
    "country_zh": "吉里巴斯",
    "country_iso_code": "KI",
    "timezone": "Pacific/Tarawa",
    "latitude": 1.9998,
    "longitude": 173.29218
  },
  {
    "city": "Rongorongo Village",
    "city_zh": "Rongorongo Village",
    "country": "Kiribati",
    "country_zh": "吉里巴斯",
    "country_iso_code": "KI",
    "timezone": "Pacific/Tarawa",
    "latitude": -1.32041,
    "longitude": 175.99223
  },
  {
    "city": "Buota",
    "city_zh": "Buota",
    "country": "Kiribati",
    "country_zh": "吉里巴斯",
    "country_iso_code": "KI",
    "timezone": "Pacific/Tarawa",
    "latitude": 1.78305,
    "longitude": 173.04483
  },
  {
    "city": "Rawannawi Village",
    "city_zh": "Rawannawi Village",
    "country": "Kiribati",
    "country_zh": "吉里巴斯",
    "country_iso_code": "KI",
    "timezone": "Pacific/Tarawa",
    "latitude": 2.05379,
    "longitude": 173.26354
  },
  {
    "city": "Abamakoro Village",
    "city_zh": "Abamakoro Village",
    "country": "Kiribati",
    "country_zh": "吉里巴斯",
    "country_iso_code": "KI",
    "timezone": "Pacific/Tarawa",
    "latitude": -0.54652,
    "longitude": 174.24865
  },
  {
    "city": "Tabewa Village",
    "city_zh": "Tabewa Village",
    "country": "Kiribati",
    "country_zh": "吉里巴斯",
    "country_iso_code": "KI",
    "timezone": "Pacific/Tarawa",
    "latitude": -0.85414,
    "longitude": 169.52233
  },
  {
    "city": "Umwa Village",
    "city_zh": "Umwa Village",
    "country": "Kiribati",
    "country_zh": "吉里巴斯",
    "country_iso_code": "KI",
    "timezone": "Pacific/Tarawa",
    "latitude": -0.87054,
    "longitude": 169.54192
  },
  {
    "city": "Tekabwibwi Village",
    "city_zh": "Tekabwibwi Village",
    "country": "Kiribati",
    "country_zh": "吉里巴斯",
    "country_iso_code": "KI",
    "timezone": "Pacific/Tarawa",
    "latitude": -1.11824,
    "longitude": 174.66317
  },
  {
    "city": "Nuka Village",
    "city_zh": "Nuka Village",
    "country": "Kiribati",
    "country_zh": "吉里巴斯",
    "country_iso_code": "KI",
    "timezone": "Pacific/Tarawa",
    "latitude": -1.33045,
    "longitude": 175.99513
  },
  {
    "city": "Nuatabu Village",
    "city_zh": "Nuatabu Village",
    "country": "Kiribati",
    "country_zh": "吉里巴斯",
    "country_iso_code": "KI",
    "timezone": "Pacific/Tarawa",
    "latitude": 1.56146,
    "longitude": 172.97581
  },
  {
    "city": "Notoue",
    "city_zh": "Notoue",
    "country": "Kiribati",
    "country_zh": "吉里巴斯",
    "country_iso_code": "KI",
    "timezone": "Pacific/Tarawa",
    "latitude": 1.51142,
    "longitude": 173.0125
  },
  {
    "city": "Nikutoru Village",
    "city_zh": "Nikutoru Village",
    "country": "Kiribati",
    "country_zh": "吉里巴斯",
    "country_iso_code": "KI",
    "timezone": "Pacific/Tarawa",
    "latitude": -1.48223,
    "longitude": 175.06819
  },
  {
    "city": "Nikumanu Village",
    "city_zh": "Nikumanu Village",
    "country": "Kiribati",
    "country_zh": "吉里巴斯",
    "country_iso_code": "KI",
    "timezone": "Pacific/Tarawa",
    "latitude": -1.38369,
    "longitude": 176.47431
  },
  {
    "city": "Benuaroa Village",
    "city_zh": "Benuaroa Village",
    "country": "Kiribati",
    "country_zh": "吉里巴斯",
    "country_iso_code": "KI",
    "timezone": "Pacific/Tarawa",
    "latitude": -0.56369,
    "longitude": 174.30848
  },
  {
    "city": "Nabeina Village",
    "city_zh": "Nabeina Village",
    "country": "Kiribati",
    "country_zh": "吉里巴斯",
    "country_iso_code": "KI",
    "timezone": "Pacific/Tarawa",
    "latitude": 1.4358,
    "longitude": 173.07918
  },
  {
    "city": "Muribenua Village",
    "city_zh": "Muribenua Village",
    "country": "Kiribati",
    "country_zh": "吉里巴斯",
    "country_iso_code": "KI",
    "timezone": "Pacific/Tarawa",
    "latitude": -1.32417,
    "longitude": 176.41581
  },
  {
    "city": "Morikao Village",
    "city_zh": "Morikao Village",
    "country": "Kiribati",
    "country_zh": "吉里巴斯",
    "country_iso_code": "KI",
    "timezone": "Pacific/Tarawa",
    "latitude": 1.86018,
    "longitude": 172.99072
  },
  {
    "city": "Marenanuka Village",
    "city_zh": "Marenanuka Village",
    "country": "Kiribati",
    "country_zh": "吉里巴斯",
    "country_iso_code": "KI",
    "timezone": "Pacific/Tarawa",
    "latitude": 1.48735,
    "longitude": 173.02637
  },
  {
    "city": "Manriki Village",
    "city_zh": "Manriki Village",
    "country": "Kiribati",
    "country_zh": "吉里巴斯",
    "country_iso_code": "KI",
    "timezone": "Pacific/Tarawa",
    "latitude": -1.35567,
    "longitude": 176.45098
  },
  {
    "city": "Manoku Village",
    "city_zh": "Manoku Village",
    "country": "Kiribati",
    "country_zh": "吉里巴斯",
    "country_iso_code": "KI",
    "timezone": "Pacific/Tarawa",
    "latitude": 0.33198,
    "longitude": 173.93818
  },
  {
    "city": "Kuria Village",
    "city_zh": "Kuria Village",
    "country": "Kiribati",
    "country_zh": "吉里巴斯",
    "country_iso_code": "KI",
    "timezone": "Pacific/Tarawa",
    "latitude": 1.8576,
    "longitude": 172.99257
  },
  {
    "city": "Kuma Village",
    "city_zh": "Kuma Village",
    "country": "Kiribati",
    "country_zh": "吉里巴斯",
    "country_iso_code": "KI",
    "timezone": "Pacific/Tarawa",
    "latitude": 3.17315,
    "longitude": 172.95972
  },
  {
    "city": "Koinawa Village",
    "city_zh": "Koinawa Village",
    "country": "Kiribati",
    "country_zh": "吉里巴斯",
    "country_iso_code": "KI",
    "timezone": "Pacific/Tarawa",
    "latitude": 1.8655,
    "longitude": 172.98774
  },
  {
    "city": "Keuea Village",
    "city_zh": "Keuea Village",
    "country": "Kiribati",
    "country_zh": "吉里巴斯",
    "country_iso_code": "KI",
    "timezone": "Pacific/Tarawa",
    "latitude": 3.13124,
    "longitude": 172.90442
  },
  {
    "city": "Buariki",
    "city_zh": "Buariki",
    "country": "Kiribati",
    "country_zh": "吉里巴斯",
    "country_iso_code": "KI",
    "timezone": "Pacific/Tarawa",
    "latitude": -0.58794,
    "longitude": 174.3648
  },
  {
    "city": "Eriko Village",
    "city_zh": "Eriko Village",
    "country": "Kiribati",
    "country_zh": "吉里巴斯",
    "country_iso_code": "KI",
    "timezone": "Pacific/Tarawa",
    "latitude": -1.35925,
    "longitude": 176.00224
  },
  {
    "city": "Kariatebike Village",
    "city_zh": "Kariatebike Village",
    "country": "Kiribati",
    "country_zh": "吉里巴斯",
    "country_iso_code": "KI",
    "timezone": "Pacific/Tarawa",
    "latitude": 0.40456,
    "longitude": 173.91988
  },
  {
    "city": "Teuabu Village",
    "city_zh": "Teuabu Village",
    "country": "Kiribati",
    "country_zh": "吉里巴斯",
    "country_iso_code": "KI",
    "timezone": "Pacific/Tarawa",
    "latitude": -0.58113,
    "longitude": 174.35091
  },
  {
    "city": "Kabangaki Village",
    "city_zh": "Kabangaki Village",
    "country": "Kiribati",
    "country_zh": "吉里巴斯",
    "country_iso_code": "KI",
    "timezone": "Pacific/Tarawa",
    "latitude": 0.31373,
    "longitude": 173.92941
  },
  {
    "city": "Aiaki",
    "city_zh": "Aiaki",
    "country": "Kiribati",
    "country_zh": "吉里巴斯",
    "country_iso_code": "KI",
    "timezone": "Pacific/Tarawa",
    "latitude": -1.89417,
    "longitude": 175.61507
  },
  {
    "city": "Eita Village",
    "city_zh": "Eita Village",
    "country": "Kiribati",
    "country_zh": "吉里巴斯",
    "country_iso_code": "KI",
    "timezone": "Pacific/Tarawa",
    "latitude": -1.178,
    "longitude": 174.72788
  },
  {
    "city": "Buota Village",
    "city_zh": "Buota Village",
    "country": "Kiribati",
    "country_zh": "吉里巴斯",
    "country_iso_code": "KI",
    "timezone": "Pacific/Tarawa",
    "latitude": 2.01543,
    "longitude": 173.26007
  },
  {
    "city": "Buota Village",
    "city_zh": "Buota Village",
    "country": "Kiribati",
    "country_zh": "吉里巴斯",
    "country_iso_code": "KI",
    "timezone": "Pacific/Tarawa",
    "latitude": 1.39078,
    "longitude": 173.13082
  },
  {
    "city": "Buariki Village",
    "city_zh": "Buariki Village",
    "country": "Kiribati",
    "country_zh": "吉里巴斯",
    "country_iso_code": "KI",
    "timezone": "Pacific/Tarawa",
    "latitude": 1.60909,
    "longitude": 172.95526
  },
  {
    "city": "Buariki Village",
    "city_zh": "Buariki Village",
    "country": "Kiribati",
    "country_zh": "吉里巴斯",
    "country_iso_code": "KI",
    "timezone": "Pacific/Tarawa",
    "latitude": -1.47793,
    "longitude": 175.05641
  },
  {
    "city": "Borotiam Village",
    "city_zh": "Borotiam Village",
    "country": "Kiribati",
    "country_zh": "吉里巴斯",
    "country_iso_code": "KI",
    "timezone": "Pacific/Tarawa",
    "latitude": 1.89521,
    "longitude": 172.97102
  },
  {
    "city": "Binoinano",
    "city_zh": "Binoinano",
    "country": "Kiribati",
    "country_zh": "吉里巴斯",
    "country_iso_code": "KI",
    "timezone": "Pacific/Tarawa",
    "latitude": 0.40868,
    "longitude": 173.91622
  },
  {
    "city": "Betio Village",
    "city_zh": "Betio Village",
    "country": "Kiribati",
    "country_zh": "吉里巴斯",
    "country_iso_code": "KI",
    "timezone": "Pacific/Tarawa",
    "latitude": 1.35797,
    "longitude": 172.92105
  },
  {
    "city": "Baretoa Village",
    "city_zh": "Baretoa Village",
    "country": "Kiribati",
    "country_zh": "吉里巴斯",
    "country_iso_code": "KI",
    "timezone": "Pacific/Tarawa",
    "latitude": 0.43012,
    "longitude": 173.90597
  },
  {
    "city": "Banraeaba Village",
    "city_zh": "Banraeaba Village",
    "country": "Kiribati",
    "country_zh": "吉里巴斯",
    "country_iso_code": "KI",
    "timezone": "Pacific/Tarawa",
    "latitude": 1.3454,
    "longitude": 173.03464
  },
  {
    "city": "Tarawa",
    "city_zh": "Tarawa",
    "country": "Kiribati",
    "country_zh": "吉里巴斯",
    "country_iso_code": "KI",
    "timezone": "Pacific/Tarawa",
    "latitude": 1.3278,
    "longitude": 172.97696
  },
  {
    "city": "Autukia Village",
    "city_zh": "Autukia Village",
    "country": "Kiribati",
    "country_zh": "吉里巴斯",
    "country_iso_code": "KI",
    "timezone": "Pacific/Tarawa",
    "latitude": -0.65078,
    "longitude": 174.43715
  },
  {
    "city": "Autokia Village",
    "city_zh": "Autokia Village",
    "country": "Kiribati",
    "country_zh": "吉里巴斯",
    "country_iso_code": "KI",
    "timezone": "Pacific/Tarawa",
    "latitude": -1.29682,
    "longitude": 175.97009
  },
  {
    "city": "Aubeangai",
    "city_zh": "Aubeangai",
    "country": "Kiribati",
    "country_zh": "吉里巴斯",
    "country_iso_code": "KI",
    "timezone": "Pacific/Tarawa",
    "latitude": -0.68601,
    "longitude": 174.45274
  },
  {
    "city": "Aonobuaka Village",
    "city_zh": "Aonobuaka Village",
    "country": "Kiribati",
    "country_zh": "吉里巴斯",
    "country_iso_code": "KI",
    "timezone": "Pacific/Tarawa",
    "latitude": 1.87901,
    "longitude": 172.98506
  },
  {
    "city": "Aoniman Village",
    "city_zh": "Aoniman Village",
    "country": "Kiribati",
    "country_zh": "吉里巴斯",
    "country_iso_code": "KI",
    "timezone": "Pacific/Tarawa",
    "latitude": -1.30923,
    "longitude": 175.98555
  },
  {
    "city": "Antai Village",
    "city_zh": "Antai Village",
    "country": "Kiribati",
    "country_zh": "吉里巴斯",
    "country_iso_code": "KI",
    "timezone": "Pacific/Tarawa",
    "latitude": 2.03773,
    "longitude": 173.28219
  },
  {
    "city": "Abatao Village",
    "city_zh": "Abatao Village",
    "country": "Kiribati",
    "country_zh": "吉里巴斯",
    "country_iso_code": "KI",
    "timezone": "Pacific/Tarawa",
    "latitude": 1.39914,
    "longitude": 173.11836
  },
  {
    "city": "Abaokoro Village",
    "city_zh": "Abaokoro Village",
    "country": "Kiribati",
    "country_zh": "吉里巴斯",
    "country_iso_code": "KI",
    "timezone": "Pacific/Tarawa",
    "latitude": 1.49702,
    "longitude": 173.01528
  },
  {
    "city": "Tanekore Village",
    "city_zh": "Tanekore Village",
    "country": "Kiribati",
    "country_zh": "吉里巴斯",
    "country_iso_code": "KI",
    "timezone": "Pacific/Kiritimati",
    "latitude": 4.69683,
    "longitude": -160.40557
  },
  {
    "city": "Fareturaina - Gilberts Village",
    "city_zh": "Fareturaina - Gilberts Village",
    "country": "Kiribati",
    "country_zh": "吉里巴斯",
    "country_iso_code": "KI",
    "timezone": "Pacific/Kiritimati",
    "latitude": 3.81386,
    "longitude": -159.3115
  },
  {
    "city": "former Paris Village",
    "city_zh": "former Paris Village",
    "country": "Kiribati",
    "country_zh": "吉里巴斯",
    "country_iso_code": "KI",
    "timezone": "Pacific/Kiritimati",
    "latitude": 1.93325,
    "longitude": -157.49103
  },
  {
    "city": "Karaka settlement 1940",
    "city_zh": "Karaka settlement 1940",
    "country": "Kiribati",
    "country_zh": "吉里巴斯",
    "country_iso_code": "KI",
    "timezone": "Pacific/Kanton",
    "latitude": -4.67147,
    "longitude": -174.53871
  },
  {
    "city": "Napia Village",
    "city_zh": "Napia Village",
    "country": "Kiribati",
    "country_zh": "吉里巴斯",
    "country_iso_code": "KI",
    "timezone": "Pacific/Kiritimati",
    "latitude": 3.8549,
    "longitude": -159.36023
  },
  {
    "city": "Napari Village",
    "city_zh": "Napari Village",
    "country": "Kiribati",
    "country_zh": "吉里巴斯",
    "country_iso_code": "KI",
    "timezone": "Pacific/Kiritimati",
    "latitude": 3.90806,
    "longitude": -159.38832
  },
  {
    "city": "London Village",
    "city_zh": "倫敦",
    "country": "Kiribati",
    "country_zh": "吉里巴斯",
    "country_iso_code": "KI",
    "timezone": "Pacific/Kiritimati",
    "latitude": 1.98487,
    "longitude": -157.47502
  },
  {
    "city": "failed Gilbertese Settlement 2005",
    "city_zh": "failed Gilbertese Settlement 2005",
    "country": "Kiribati",
    "country_zh": "吉里巴斯",
    "country_iso_code": "KI",
    "timezone": "Pacific/Kanton",
    "latitude": -4.51785,
    "longitude": -172.22442
  },
  {
    "city": "Diggers and Planters Settlement",
    "city_zh": "Diggers and Planters Settlement",
    "country": "Kiribati",
    "country_zh": "吉里巴斯",
    "country_iso_code": "KI",
    "timezone": "Pacific/Kiritimati",
    "latitude": -11.42459,
    "longitude": -151.82565
  },
  {
    "city": "Diggers and Planters Settlement",
    "city_zh": "Diggers and Planters Settlement",
    "country": "Kiribati",
    "country_zh": "吉里巴斯",
    "country_iso_code": "KI",
    "timezone": "Pacific/Kiritimati",
    "latitude": -9.9981,
    "longitude": -150.23074
  },
  {
    "city": "Diggers Settlement",
    "city_zh": "Diggers Settlement",
    "country": "Kiribati",
    "country_zh": "吉里巴斯",
    "country_iso_code": "KI",
    "timezone": "Pacific/Kiritimati",
    "latitude": -5.63398,
    "longitude": -155.92633
  },
  {
    "city": "Diggers Settlement",
    "city_zh": "Diggers Settlement",
    "country": "Kiribati",
    "country_zh": "吉里巴斯",
    "country_iso_code": "KI",
    "timezone": "Pacific/Kiritimati",
    "latitude": -4.01335,
    "longitude": -154.96998
  },
  {
    "city": "Abaiang Village",
    "city_zh": "Abaiang Village",
    "country": "Kiribati",
    "country_zh": "吉里巴斯",
    "country_iso_code": "KI",
    "timezone": "Pacific/Kiritimati",
    "latitude": 4.68883,
    "longitude": -160.36597
  },
  {
    "city": "Tekaitara Village",
    "city_zh": "Tekaitara Village",
    "country": "Kiribati",
    "country_zh": "吉里巴斯",
    "country_iso_code": "KI",
    "timezone": "Pacific/Kiritimati",
    "latitude": 4.69717,
    "longitude": -160.38724
  },
  {
    "city": "Uteute Village",
    "city_zh": "Uteute Village",
    "country": "Kiribati",
    "country_zh": "吉里巴斯",
    "country_iso_code": "KI",
    "timezone": "Pacific/Kiritimati",
    "latitude": 4.69384,
    "longitude": -160.37814
  },
  {
    "city": "Kauamwmwe Village",
    "city_zh": "Kauamwmwe Village",
    "country": "Kiribati",
    "country_zh": "吉里巴斯",
    "country_iso_code": "KI",
    "timezone": "Pacific/Kiritimati",
    "latitude": 4.69053,
    "longitude": -160.37121
  },
  {
    "city": "Arabata Village",
    "city_zh": "Arabata Village",
    "country": "Kiribati",
    "country_zh": "吉里巴斯",
    "country_iso_code": "KI",
    "timezone": "Pacific/Kiritimati",
    "latitude": 4.67951,
    "longitude": -160.39743
  },
  {
    "city": "Onouea Village",
    "city_zh": "Onouea Village",
    "country": "Kiribati",
    "country_zh": "吉里巴斯",
    "country_iso_code": "KI",
    "timezone": "Pacific/Kiritimati",
    "latitude": 4.67053,
    "longitude": -160.37597
  },
  {
    "city": "Makeitari Village",
    "city_zh": "Makeitari Village",
    "country": "Kiribati",
    "country_zh": "吉里巴斯",
    "country_iso_code": "KI",
    "timezone": "Pacific/Kiritimati",
    "latitude": 4.67229,
    "longitude": -160.38084
  },
  {
    "city": "Aramari Gilberts Village",
    "city_zh": "Aramari Gilberts Village",
    "country": "Kiribati",
    "country_zh": "吉里巴斯",
    "country_iso_code": "KI",
    "timezone": "Pacific/Kiritimati",
    "latitude": 3.81773,
    "longitude": -159.32555
  },
  {
    "city": "Guano Diggers and Planters Settlement",
    "city_zh": "Guano Diggers and Planters Settlement",
    "country": "Kiribati",
    "country_zh": "吉里巴斯",
    "country_iso_code": "KI",
    "timezone": "Pacific/Kiritimati",
    "latitude": 3.85637,
    "longitude": -159.36162
  },
  {
    "city": "Tereitaki Village",
    "city_zh": "Tereitaki Village",
    "country": "Kiribati",
    "country_zh": "吉里巴斯",
    "country_iso_code": "KI",
    "timezone": "Pacific/Kiritimati",
    "latitude": 3.90365,
    "longitude": -159.3875
  },
  {
    "city": "Aontena Gilberts Village",
    "city_zh": "Aontena Gilberts Village",
    "country": "Kiribati",
    "country_zh": "吉里巴斯",
    "country_iso_code": "KI",
    "timezone": "Pacific/Kiritimati",
    "latitude": 3.85049,
    "longitude": -159.36083
  },
  {
    "city": "Poland Village",
    "city_zh": "Poland Village",
    "country": "Kiribati",
    "country_zh": "吉里巴斯",
    "country_iso_code": "KI",
    "timezone": "Pacific/Kiritimati",
    "latitude": 1.8648,
    "longitude": -157.55154
  },
  {
    "city": "Tabwakea Village",
    "city_zh": "Tabwakea Village",
    "country": "Kiribati",
    "country_zh": "吉里巴斯",
    "country_iso_code": "KI",
    "timezone": "Pacific/Kiritimati",
    "latitude": 2.01643,
    "longitude": -157.48773
  },
  {
    "city": "Banana Village",
    "city_zh": "Banana Village",
    "country": "Kiribati",
    "country_zh": "吉里巴斯",
    "country_iso_code": "KI",
    "timezone": "Pacific/Kiritimati",
    "latitude": 1.98329,
    "longitude": -157.36526
  },
  {
    "city": "Diggers Camp 1900",
    "city_zh": "Diggers Camp 1900",
    "country": "Kiribati",
    "country_zh": "吉里巴斯",
    "country_iso_code": "KI",
    "timezone": "Pacific/Kanton",
    "latitude": -4.45427,
    "longitude": -171.26222
  },
  {
    "city": "Gilbertese Settlement 1940",
    "city_zh": "Gilbertese Settlement 1940",
    "country": "Kiribati",
    "country_zh": "吉里巴斯",
    "country_iso_code": "KI",
    "timezone": "Pacific/Kanton",
    "latitude": -4.45462,
    "longitude": -171.26215
  },
  {
    "city": "Digger Settlement 1870",
    "city_zh": "Digger Settlement 1870",
    "country": "Kiribati",
    "country_zh": "吉里巴斯",
    "country_iso_code": "KI",
    "timezone": "Pacific/Kanton",
    "latitude": -3.59534,
    "longitude": -174.12613
  },
  {
    "city": "Diggers Camp 1870",
    "city_zh": "Diggers Camp 1870",
    "country": "Kiribati",
    "country_zh": "吉里巴斯",
    "country_iso_code": "KI",
    "timezone": "Pacific/Kanton",
    "latitude": -3.7217,
    "longitude": -170.7143
  },
  {
    "city": "Diggers Camp 1870",
    "city_zh": "Diggers Camp 1870",
    "country": "Kiribati",
    "country_zh": "吉里巴斯",
    "country_iso_code": "KI",
    "timezone": "Pacific/Kanton",
    "latitude": -3.11643,
    "longitude": -171.09089
  },
  {
    "city": "Settlement Ruins",
    "city_zh": "Settlement Ruins",
    "country": "Kiribati",
    "country_zh": "吉里巴斯",
    "country_iso_code": "KI",
    "timezone": "Pacific/Kanton",
    "latitude": -3.13803,
    "longitude": -171.09069
  },
  {
    "city": "old GB-Village",
    "city_zh": "old GB-Village",
    "country": "Kiribati",
    "country_zh": "吉里巴斯",
    "country_iso_code": "KI",
    "timezone": "Pacific/Kanton",
    "latitude": -2.81898,
    "longitude": -171.71113
  },
  {
    "city": "Kanton Village",
    "city_zh": "Kanton Village",
    "country": "Kiribati",
    "country_zh": "吉里巴斯",
    "country_iso_code": "KI",
    "timezone": "Pacific/Kanton",
    "latitude": -2.77677,
    "longitude": -171.71679
  },
  {
    "city": "Bakaka Village",
    "city_zh": "Bakaka Village",
    "country": "Kiribati",
    "country_zh": "吉里巴斯",
    "country_iso_code": "KI",
    "timezone": "Pacific/Tarawa",
    "latitude": -2.50016,
    "longitude": 175.9798
  },
  {
    "city": "Barebuka Village",
    "city_zh": "Barebuka Village",
    "country": "Kiribati",
    "country_zh": "吉里巴斯",
    "country_iso_code": "KI",
    "timezone": "Pacific/Tarawa",
    "latitude": -2.49252,
    "longitude": 175.96983
  },
  {
    "city": "Bakarawa Village",
    "city_zh": "Bakarawa Village",
    "country": "Kiribati",
    "country_zh": "吉里巴斯",
    "country_iso_code": "KI",
    "timezone": "Pacific/Tarawa",
    "latitude": -2.51001,
    "longitude": 175.9876
  },
  {
    "city": "Tekawa Village",
    "city_zh": "Tekawa Village",
    "country": "Kiribati",
    "country_zh": "吉里巴斯",
    "country_iso_code": "KI",
    "timezone": "Pacific/Tarawa",
    "latitude": -1.80065,
    "longitude": 175.52548
  },
  {
    "city": "Temao Village",
    "city_zh": "Temao Village",
    "country": "Kiribati",
    "country_zh": "吉里巴斯",
    "country_iso_code": "KI",
    "timezone": "Pacific/Tarawa",
    "latitude": -1.83356,
    "longitude": 175.54998
  },
  {
    "city": "Tanaeag Village",
    "city_zh": "Tanaeag Village",
    "country": "Kiribati",
    "country_zh": "吉里巴斯",
    "country_iso_code": "KI",
    "timezone": "Pacific/Tarawa",
    "latitude": -1.80768,
    "longitude": 175.53626
  },
  {
    "city": "Buariki Village",
    "city_zh": "Buariki Village",
    "country": "Kiribati",
    "country_zh": "吉里巴斯",
    "country_iso_code": "KI",
    "timezone": "Pacific/Tarawa",
    "latitude": -1.81802,
    "longitude": 175.55476
  },
  {
    "city": "Otowae Village",
    "city_zh": "Otowae Village",
    "country": "Kiribati",
    "country_zh": "吉里巴斯",
    "country_iso_code": "KI",
    "timezone": "Pacific/Tarawa",
    "latitude": -1.86934,
    "longitude": 175.58329
  },
  {
    "city": "Matanibike Village",
    "city_zh": "Matanibike Village",
    "country": "Kiribati",
    "country_zh": "吉里巴斯",
    "country_iso_code": "KI",
    "timezone": "Pacific/Kiritimati",
    "latitude": 4.69048,
    "longitude": -160.40895
  },
  {
    "city": "Tereitannano Village",
    "city_zh": "Tereitannano Village",
    "country": "Kiribati",
    "country_zh": "吉里巴斯",
    "country_iso_code": "KI",
    "timezone": "Pacific/Kiritimati",
    "latitude": 3.83401,
    "longitude": -159.34753
  },
  {
    "city": "Tenenebo Village",
    "city_zh": "Tenenebo Village",
    "country": "Kiribati",
    "country_zh": "吉里巴斯",
    "country_iso_code": "KI",
    "timezone": "Pacific/Kiritimati",
    "latitude": 3.84418,
    "longitude": -159.3527
  },
  {
    "city": "Betania Village",
    "city_zh": "Betania Village",
    "country": "Kiribati",
    "country_zh": "吉里巴斯",
    "country_iso_code": "KI",
    "timezone": "Pacific/Kiritimati",
    "latitude": 3.89526,
    "longitude": -159.38612
  },
  {
    "city": "Tekaman Village",
    "city_zh": "Tekaman Village",
    "country": "Kiribati",
    "country_zh": "吉里巴斯",
    "country_iso_code": "KI",
    "timezone": "Pacific/Tarawa",
    "latitude": -1.13064,
    "longitude": 174.6633
  },
  {
    "city": "Bangai Village",
    "city_zh": "Bangai Village",
    "country": "Kiribati",
    "country_zh": "吉里巴斯",
    "country_iso_code": "KI",
    "timezone": "Pacific/Tarawa",
    "latitude": -1.35622,
    "longitude": 174.87231
  },
  {
    "city": "Tenatorua Village",
    "city_zh": "Tenatorua Village",
    "country": "Kiribati",
    "country_zh": "吉里巴斯",
    "country_iso_code": "KI",
    "timezone": "Pacific/Tarawa",
    "latitude": -1.34226,
    "longitude": 174.85152
  },
  {
    "city": "Kabuna Village",
    "city_zh": "Kabuna Village",
    "country": "Kiribati",
    "country_zh": "吉里巴斯",
    "country_iso_code": "KI",
    "timezone": "Pacific/Tarawa",
    "latitude": -1.28832,
    "longitude": 174.79831
  },
  {
    "city": "Tauma Village",
    "city_zh": "Tauma Village",
    "country": "Kiribati",
    "country_zh": "吉里巴斯",
    "country_iso_code": "KI",
    "timezone": "Pacific/Tarawa",
    "latitude": -1.2379,
    "longitude": 174.78423
  },
  {
    "city": "Buota Village",
    "city_zh": "Buota Village",
    "country": "Kiribati",
    "country_zh": "吉里巴斯",
    "country_iso_code": "KI",
    "timezone": "Pacific/Tarawa",
    "latitude": -1.15444,
    "longitude": 174.70489
  },
  {
    "city": "Taungaeaka Village",
    "city_zh": "Taungaeaka Village",
    "country": "Kiribati",
    "country_zh": "吉里巴斯",
    "country_iso_code": "KI",
    "timezone": "Pacific/Tarawa",
    "latitude": -1.45584,
    "longitude": 175.03271
  },
  {
    "city": "Takaeang Village",
    "city_zh": "Takaeang Village",
    "country": "Kiribati",
    "country_zh": "吉里巴斯",
    "country_iso_code": "KI",
    "timezone": "Pacific/Tarawa",
    "latitude": 0.17097,
    "longitude": 173.56183
  },
  {
    "city": "Baurua Village",
    "city_zh": "Baurua Village",
    "country": "Kiribati",
    "country_zh": "吉里巴斯",
    "country_iso_code": "KI",
    "timezone": "Pacific/Tarawa",
    "latitude": 0.1272,
    "longitude": 173.61556
  },
  {
    "city": "Buariki Village",
    "city_zh": "Buariki Village",
    "country": "Kiribati",
    "country_zh": "吉里巴斯",
    "country_iso_code": "KI",
    "timezone": "Pacific/Tarawa",
    "latitude": 0.17708,
    "longitude": 173.63715
  },
  {
    "city": "Buariki Village",
    "city_zh": "Buariki Village",
    "country": "Kiribati",
    "country_zh": "吉里巴斯",
    "country_iso_code": "KI",
    "timezone": "Pacific/Tarawa",
    "latitude": 0.21498,
    "longitude": 173.41495
  },
  {
    "city": "Oneeke Village",
    "city_zh": "Oneeke Village",
    "country": "Kiribati",
    "country_zh": "吉里巴斯",
    "country_iso_code": "KI",
    "timezone": "Pacific/Tarawa",
    "latitude": 0.25123,
    "longitude": 173.39321
  },
  {
    "city": "Manenaua Village",
    "city_zh": "Manenaua Village",
    "country": "Kiribati",
    "country_zh": "吉里巴斯",
    "country_iso_code": "KI",
    "timezone": "Pacific/Tarawa",
    "latitude": 0.24617,
    "longitude": 173.39874
  },
  {
    "city": "Tabontebike Village",
    "city_zh": "Tabontebike Village",
    "country": "Kiribati",
    "country_zh": "吉里巴斯",
    "country_iso_code": "KI",
    "timezone": "Pacific/Tarawa",
    "latitude": 0.23056,
    "longitude": 173.41144
  },
  {
    "city": "Norauea Village",
    "city_zh": "Norauea Village",
    "country": "Kiribati",
    "country_zh": "吉里巴斯",
    "country_iso_code": "KI",
    "timezone": "Pacific/Tarawa",
    "latitude": 0.20604,
    "longitude": 173.41532
  },
  {
    "city": "Bouatoa Village",
    "city_zh": "Bouatoa Village",
    "country": "Kiribati",
    "country_zh": "吉里巴斯",
    "country_iso_code": "KI",
    "timezone": "Pacific/Tarawa",
    "latitude": 0.20237,
    "longitude": 173.4195
  },
  {
    "city": "Abatiku Village",
    "city_zh": "Abatiku Village",
    "country": "Kiribati",
    "country_zh": "吉里巴斯",
    "country_iso_code": "KI",
    "timezone": "Pacific/Tarawa",
    "latitude": 0.38843,
    "longitude": 173.77701
  },
  {
    "city": "Bike Village",
    "city_zh": "Bike Village",
    "country": "Kiribati",
    "country_zh": "吉里巴斯",
    "country_iso_code": "KI",
    "timezone": "Pacific/Tarawa",
    "latitude": 0.34478,
    "longitude": 173.84823
  },
  {
    "city": "Bangotantekabaia Village",
    "city_zh": "Bangotantekabaia Village",
    "country": "Kiribati",
    "country_zh": "吉里巴斯",
    "country_iso_code": "KI",
    "timezone": "Pacific/Tarawa",
    "latitude": 0.37881,
    "longitude": 173.92731
  },
  {
    "city": "Kauma Village",
    "city_zh": "Kauma Village",
    "country": "Kiribati",
    "country_zh": "吉里巴斯",
    "country_iso_code": "KI",
    "timezone": "Pacific/Tarawa",
    "latitude": 0.46166,
    "longitude": 173.87358
  },
  {
    "city": "Tanimainiku",
    "city_zh": "Tanimainiku",
    "country": "Kiribati",
    "country_zh": "吉里巴斯",
    "country_iso_code": "KI",
    "timezone": "Pacific/Tarawa",
    "latitude": 0.4789,
    "longitude": 173.85581
  },
  {
    "city": "Tokamauea Village",
    "city_zh": "Tokamauea Village",
    "country": "Kiribati",
    "country_zh": "吉里巴斯",
    "country_iso_code": "KI",
    "timezone": "Pacific/Tarawa",
    "latitude": 0.4824,
    "longitude": 173.82504
  },
  {
    "city": "Tekaranga Village",
    "city_zh": "Tekaranga Village",
    "country": "Kiribati",
    "country_zh": "吉里巴斯",
    "country_iso_code": "KI",
    "timezone": "Pacific/Tarawa",
    "latitude": 1.00099,
    "longitude": 173.03198
  },
  {
    "city": "Tematantongo Village",
    "city_zh": "Tematantongo Village",
    "country": "Kiribati",
    "country_zh": "吉里巴斯",
    "country_iso_code": "KI",
    "timezone": "Pacific/Tarawa",
    "latitude": 0.99252,
    "longitude": 173.04556
  },
  {
    "city": "Bubutei Village",
    "city_zh": "Bubutei Village",
    "country": "Kiribati",
    "country_zh": "吉里巴斯",
    "country_iso_code": "KI",
    "timezone": "Pacific/Tarawa",
    "latitude": 0.87222,
    "longitude": 173.00394
  },
  {
    "city": "Raweai Village",
    "city_zh": "Raweai Village",
    "country": "Kiribati",
    "country_zh": "吉里巴斯",
    "country_iso_code": "KI",
    "timezone": "Pacific/Tarawa",
    "latitude": 0.8995,
    "longitude": 173.01838
  },
  {
    "city": "Aobike Village",
    "city_zh": "Aobike Village",
    "country": "Kiribati",
    "country_zh": "吉里巴斯",
    "country_iso_code": "KI",
    "timezone": "Pacific/Tarawa",
    "latitude": 0.98483,
    "longitude": 173.05351
  },
  {
    "city": "Tebanga Village",
    "city_zh": "Tebanga Village",
    "country": "Kiribati",
    "country_zh": "吉里巴斯",
    "country_iso_code": "KI",
    "timezone": "Pacific/Tarawa",
    "latitude": 0.96734,
    "longitude": 173.06392
  },
  {
    "city": "Temwangaua Village",
    "city_zh": "Temwangaua Village",
    "country": "Kiribati",
    "country_zh": "吉里巴斯",
    "country_iso_code": "KI",
    "timezone": "Pacific/Tarawa",
    "latitude": 0.9642,
    "longitude": 173.06367
  },
  {
    "city": "Toora Village",
    "city_zh": "Toora Village",
    "country": "Kiribati",
    "country_zh": "吉里巴斯",
    "country_iso_code": "KI",
    "timezone": "Pacific/Tarawa",
    "latitude": 0.95956,
    "longitude": 173.06285
  },
  {
    "city": "Tebwangetua Village",
    "city_zh": "Tebwangetua Village",
    "country": "Kiribati",
    "country_zh": "吉里巴斯",
    "country_iso_code": "KI",
    "timezone": "Pacific/Tarawa",
    "latitude": 0.93847,
    "longitude": 173.03969
  },
  {
    "city": "Teitai Village",
    "city_zh": "Teitai Village",
    "country": "Kiribati",
    "country_zh": "吉里巴斯",
    "country_iso_code": "KI",
    "timezone": "Pacific/Tarawa",
    "latitude": 0.93525,
    "longitude": 173.03587
  },
  {
    "city": "Bainuna Village",
    "city_zh": "Bainuna Village",
    "country": "Kiribati",
    "country_zh": "吉里巴斯",
    "country_iso_code": "KI",
    "timezone": "Pacific/Tarawa",
    "latitude": 1.98638,
    "longitude": 173.29798
  },
  {
    "city": "Terokea",
    "city_zh": "Terokea",
    "country": "Kiribati",
    "country_zh": "吉里巴斯",
    "country_iso_code": "KI",
    "timezone": "Pacific/Tarawa",
    "latitude": 1.9833,
    "longitude": 173.29966
  },
  {
    "city": "Teraereke",
    "city_zh": "Teraereke",
    "country": "Kiribati",
    "country_zh": "吉里巴斯",
    "country_iso_code": "KI",
    "timezone": "Pacific/Tarawa",
    "latitude": 1.97123,
    "longitude": 173.29277
  },
  {
    "city": "Makin Village",
    "city_zh": "Makin Village",
    "country": "Kiribati",
    "country_zh": "吉里巴斯",
    "country_iso_code": "KI",
    "timezone": "Pacific/Tarawa",
    "latitude": 3.3644,
    "longitude": 172.98352
  },
  {
    "city": "Kiebu Village",
    "city_zh": "Kiebu Village",
    "country": "Kiribati",
    "country_zh": "吉里巴斯",
    "country_iso_code": "KI",
    "timezone": "Pacific/Tarawa",
    "latitude": 3.32342,
    "longitude": 172.97462
  },
  {
    "city": "Bikati Village",
    "city_zh": "Bikati Village",
    "country": "Kiribati",
    "country_zh": "吉里巴斯",
    "country_iso_code": "KI",
    "timezone": "Pacific/Tarawa",
    "latitude": 3.26,
    "longitude": 172.68804
  },
  {
    "city": "Tanimainiku Village",
    "city_zh": "Tanimainiku Village",
    "country": "Kiribati",
    "country_zh": "吉里巴斯",
    "country_iso_code": "KI",
    "timezone": "Pacific/Tarawa",
    "latitude": 3.09911,
    "longitude": 172.89538
  },
  {
    "city": "Nuotaea Village",
    "city_zh": "Nuotaea Village",
    "country": "Kiribati",
    "country_zh": "吉里巴斯",
    "country_iso_code": "KI",
    "timezone": "Pacific/Tarawa",
    "latitude": 1.88623,
    "longitude": 172.8068
  },
  {
    "city": "Ribono Village",
    "city_zh": "Ribono Village",
    "country": "Kiribati",
    "country_zh": "吉里巴斯",
    "country_iso_code": "KI",
    "timezone": "Pacific/Tarawa",
    "latitude": 1.96245,
    "longitude": 172.86302
  },
  {
    "city": "Aoneaba Village",
    "city_zh": "Aoneaba Village",
    "country": "Kiribati",
    "country_zh": "吉里巴斯",
    "country_iso_code": "KI",
    "timezone": "Pacific/Tarawa",
    "latitude": 1.71895,
    "longitude": 173.01948
  },
  {
    "city": "Tebero Village",
    "city_zh": "Tebero Village",
    "country": "Kiribati",
    "country_zh": "吉里巴斯",
    "country_iso_code": "KI",
    "timezone": "Pacific/Tarawa",
    "latitude": 1.82077,
    "longitude": 173.02136
  },
  {
    "city": "Tebangaroi Village",
    "city_zh": "Tebangaroi Village",
    "country": "Kiribati",
    "country_zh": "吉里巴斯",
    "country_iso_code": "KI",
    "timezone": "Pacific/Tarawa",
    "latitude": 1.55535,
    "longitude": 172.98559
  },
  {
    "city": "Tanaea Village",
    "city_zh": "Tanaea Village",
    "country": "Kiribati",
    "country_zh": "吉里巴斯",
    "country_iso_code": "KI",
    "timezone": "Pacific/Tarawa",
    "latitude": 1.38831,
    "longitude": 173.13421
  },
  {
    "city": "Kainaba Village",
    "city_zh": "Kainaba Village",
    "country": "Kiribati",
    "country_zh": "吉里巴斯",
    "country_iso_code": "KI",
    "timezone": "Pacific/Tarawa",
    "latitude": 1.45383,
    "longitude": 173.06095
  },
  {
    "city": "Tabonibara Village",
    "city_zh": "Tabonibara Village",
    "country": "Kiribati",
    "country_zh": "吉里巴斯",
    "country_iso_code": "KI",
    "timezone": "Pacific/Tarawa",
    "latitude": 1.47811,
    "longitude": 173.02974
  },
  {
    "city": "Bairiki Village",
    "city_zh": "Bairiki Village",
    "country": "Kiribati",
    "country_zh": "吉里巴斯",
    "country_iso_code": "KI",
    "timezone": "Pacific/Tarawa",
    "latitude": 1.32924,
    "longitude": 172.97522
  },
  {
    "city": "Nanikai Village",
    "city_zh": "Nanikai Village",
    "country": "Kiribati",
    "country_zh": "吉里巴斯",
    "country_iso_code": "KI",
    "timezone": "Pacific/Tarawa",
    "latitude": 1.33015,
    "longitude": 172.9978
  },
  {
    "city": "Ambo Village",
    "city_zh": "Ambo Village",
    "country": "Kiribati",
    "country_zh": "吉里巴斯",
    "country_iso_code": "KI",
    "timezone": "Pacific/Tarawa",
    "latitude": 1.35317,
    "longitude": 173.04259
  },
  {
    "city": "Taborio Village",
    "city_zh": "Taborio Village",
    "country": "Kiribati",
    "country_zh": "吉里巴斯",
    "country_iso_code": "KI",
    "timezone": "Pacific/Tarawa",
    "latitude": 1.35621,
    "longitude": 173.054
  },
  {
    "city": "Bonriki Village",
    "city_zh": "Bonriki Village",
    "country": "Kiribati",
    "country_zh": "吉里巴斯",
    "country_iso_code": "KI",
    "timezone": "Pacific/Tarawa",
    "latitude": 1.38081,
    "longitude": 173.13887
  },
  {
    "city": "Temaiku Village",
    "city_zh": "Temaiku Village",
    "country": "Kiribati",
    "country_zh": "吉里巴斯",
    "country_iso_code": "KI",
    "timezone": "Pacific/Tarawa",
    "latitude": 1.36292,
    "longitude": 173.16226
  },
  {
    "city": "Nawerewere Village",
    "city_zh": "Nawerewere Village",
    "country": "Kiribati",
    "country_zh": "吉里巴斯",
    "country_iso_code": "KI",
    "timezone": "Pacific/Tarawa",
    "latitude": 1.36362,
    "longitude": 173.13935
  },
  {
    "city": "Bikenibeu Village",
    "city_zh": "Bikenibeu Village",
    "country": "Kiribati",
    "country_zh": "吉里巴斯",
    "country_iso_code": "KI",
    "timezone": "Pacific/Tarawa",
    "latitude": 1.3673,
    "longitude": 173.12415
  },
  {
    "city": "Eita Village",
    "city_zh": "Eita Village",
    "country": "Kiribati",
    "country_zh": "吉里巴斯",
    "country_iso_code": "KI",
    "timezone": "Pacific/Tarawa",
    "latitude": 1.36154,
    "longitude": 173.08113
  },
  {
    "city": "Tangintebu Village",
    "city_zh": "Tangintebu Village",
    "country": "Kiribati",
    "country_zh": "吉里巴斯",
    "country_iso_code": "KI",
    "timezone": "Pacific/Tarawa",
    "latitude": 1.35769,
    "longitude": 173.07029
  },
  {
    "city": "Abarao Village",
    "city_zh": "Abarao Village",
    "country": "Kiribati",
    "country_zh": "吉里巴斯",
    "country_iso_code": "KI",
    "timezone": "Pacific/Tarawa",
    "latitude": 1.36301,
    "longitude": 173.10965
  },
  {
    "city": "Antebuka Village",
    "city_zh": "Antebuka Village",
    "country": "Kiribati",
    "country_zh": "吉里巴斯",
    "country_iso_code": "KI",
    "timezone": "Pacific/Tarawa",
    "latitude": 1.34009,
    "longitude": 173.02698
  },
  {
    "city": "Banana",
    "city_zh": "Banana",
    "country": "Kiribati",
    "country_zh": "吉里巴斯",
    "country_iso_code": "KI",
    "timezone": "Pacific/Kiritimati",
    "latitude": 1.96865,
    "longitude": -157.39361
  }
]