[
  {
    "city": "Toiny",
    "city_zh": "Toiny",
    "country": "Saint Barthelemy",
    "country_zh": "Saint Barthelemy",
    "country_iso_code": "BL",
    "timezone": "America/St_Barthelemy",
    "latitude": 17.89744,
    "longitude": -62.79965
  },
  {
    "city": "Saint-Jean",
    "city_zh": "Saint-Jean",
    "country": "Saint Barthelemy",
    "country_zh": "Saint Barthelemy",
    "country_iso_code": "BL",
    "timezone": "America/St_Barthelemy",
    "latitude": 17.89871,
    "longitude": -62.83699
  },
  {
    "city": "Quartier du Roi",
    "city_zh": "Quartier du Roi",
    "country": "Saint Barthelemy",
    "country_zh": "Saint Barthelemy",
    "country_iso_code": "BL",
    "timezone": "America/St_Barthelemy",
    "latitude": 17.9095,
    "longitude": -62.8458
  },
  {
    "city": "Quartier de Lorient",
    "city_zh": "Quartier de Lorient",
    "country": "Saint Barthelemy",
    "country_zh": "Saint Barthelemy",
    "country_iso_code": "BL",
    "timezone": "America/St_Barthelemy",
    "latitude": 17.90516,
    "longitude": -62.82257
  },
  {
    "city": "Public",
    "city_zh": "Public",
    "country": "Saint Barthelemy",
    "country_zh": "Saint Barthelemy",
    "country_iso_code": "BL",
    "timezone": "America/St_Barthelemy",
    "latitude": 17.9059,
    "longitude": -62.85144
  },
  {
    "city": "Petit Cul-de-Sac",
    "city_zh": "Petit Cul-de-Sac",
    "country": "Saint Barthelemy",
    "country_zh": "Saint Barthelemy",
    "country_iso_code": "BL",
    "timezone": "America/St_Barthelemy",
    "latitude": 17.90256,
    "longitude": -62.79639
  },
  {
    "city": "Marigot",
    "city_zh": "Marigot",
    "country": "Saint Barthelemy",
    "country_zh": "Saint Barthelemy",
    "country_iso_code": "BL",
    "timezone": "America/St_Barthelemy",
    "latitude": 17.90985,
    "longitude": -62.81468
  },
  {
    "city": "Lurin",
    "city_zh": "Lurin",
    "country": "Saint Barthelemy",
    "country_zh": "Saint Barthelemy",
    "country_iso_code": "BL",
    "timezone": "America/St_Barthelemy",
    "latitude": 17.89372,
    "longitude": -62.84319
  },
  {
    "city": "Le Gouverneur",
    "city_zh": "Le Gouverneur",
    "country": "Saint Barthelemy",
    "country_zh": "Saint Barthelemy",
    "country_iso_code": "BL",
    "timezone": "America/St_Barthelemy",
    "latitude": 17.88777,
    "longitude": -62.83867
  },
  {
    "city": "La Grande Saline",
    "city_zh": "La Grande Saline",
    "country": "Saint Barthelemy",
    "country_zh": "Saint Barthelemy",
    "country_iso_code": "BL",
    "timezone": "America/St_Barthelemy",
    "latitude": 17.89472,
    "longitude": -62.827
  },
  {
    "city": "Gustavia",
    "city_zh": "居斯塔维亚",
    "country": "Saint Barthelemy",
    "country_zh": "Saint Barthelemy",
    "country_iso_code": "BL",
    "timezone": "America/St_Barthelemy",
    "latitude": 17.89618,
    "longitude": -62.84978
  },
  {
    "city": "Grand Fond",
    "city_zh": "格朗丰",
    "country": "Saint Barthelemy",
    "country_zh": "Saint Barthelemy",
    "country_iso_code": "BL",
    "timezone": "America/St_Barthelemy",
    "latitude": 17.89523,
    "longitude": -62.81198
  },
  {
    "city": "Grand Cul-de-Sac",
    "city_zh": "Grand Cul-de-Sac",
    "country": "Saint Barthelemy",
    "country_zh": "Saint Barthelemy",
    "country_iso_code": "BL",
    "timezone": "America/St_Barthelemy",
    "latitude": 17.90962,
    "longitude": -62.80427
  },
  {
    "city": "Corossol",
    "city_zh": "Corossol",
    "country": "Saint Barthelemy",
    "country_zh": "Saint Barthelemy",
    "country_iso_code": "BL",
    "timezone": "America/St_Barthelemy",
    "latitude": 17.90857,
    "longitude": -62.85563
  },
  {
    "city": "Colombier",
    "city_zh": "Colombier",
    "country": "Saint Barthelemy",
    "country_zh": "Saint Barthelemy",
    "country_iso_code": "BL",
    "timezone": "America/St_Barthelemy",
    "latitude": 17.91436,
    "longitude": -62.85949
  },
  {
    "city": "Anse des Flamands",
    "city_zh": "Anse des Flamands",
    "country": "Saint Barthelemy",
    "country_zh": "Saint Barthelemy",
    "country_iso_code": "BL",
    "timezone": "America/St_Barthelemy",
    "latitude": 17.91774,
    "longitude": -62.8575
  },
  {
    "city": "Anse des Cayes",
    "city_zh": "Anse des Cayes",
    "country": "Saint Barthelemy",
    "country_zh": "Saint Barthelemy",
    "country_iso_code": "BL",
    "timezone": "America/St_Barthelemy",
    "latitude": 17.91667,
    "longitude": -62.85
  },
  {
    "city": "Mont Jean",
    "city_zh": "Mont Jean",
    "country": "Saint Barthelemy",
    "country_zh": "Saint Barthelemy",
    "country_iso_code": "BL",
    "timezone": "America/St_Barthelemy",
    "latitude": 17.91385,
    "longitude": -62.80975
  },
  {
    "city": "Pointe Milou",
    "city_zh": "Pointe Milou",
    "country": "Saint Barthelemy",
    "country_zh": "Saint Barthelemy",
    "country_iso_code": "BL",
    "timezone": "America/St_Barthelemy",
    "latitude": 17.91568,
    "longitude": -62.81574
  },
  {
    "city": "Carénage",
    "city_zh": "Carénage",
    "country": "Saint Barthelemy",
    "country_zh": "Saint Barthelemy",
    "country_iso_code": "BL",
    "timezone": "America/St_Barthelemy",
    "latitude": 17.89761,
    "longitude": -62.83791
  },
  {
    "city": "Terre Neuve",
    "city_zh": "Terre Neuve",
    "country": "Saint Barthelemy",
    "country_zh": "Saint Barthelemy",
    "country_iso_code": "BL",
    "timezone": "America/St_Barthelemy",
    "latitude": 17.9154,
    "longitude": -62.85522
  },
  {
    "city": "Merlette",
    "city_zh": "Merlette",
    "country": "Saint Barthelemy",
    "country_zh": "Saint Barthelemy",
    "country_iso_code": "BL",
    "timezone": "America/St_Barthelemy",
    "latitude": 17.91391,
    "longitude": -62.85176
  },
  {
    "city": "Anse des Lézards",
    "city_zh": "Anse des Lézards",
    "country": "Saint Barthelemy",
    "country_zh": "Saint Barthelemy",
    "country_iso_code": "BL",
    "timezone": "America/St_Barthelemy",
    "latitude": 17.91578,
    "longitude": -62.84508
  },
  {
    "city": "La Petite Saline",
    "city_zh": "La Petite Saline",
    "country": "Saint Barthelemy",
    "country_zh": "Saint Barthelemy",
    "country_iso_code": "BL",
    "timezone": "America/St_Barthelemy",
    "latitude": 17.90092,
    "longitude": -62.82282
  },
  {
    "city": "Vitet",
    "city_zh": "Vitet",
    "country": "Saint Barthelemy",
    "country_zh": "Saint Barthelemy",
    "country_iso_code": "BL",
    "timezone": "America/St_Barthelemy",
    "latitude": 17.90436,
    "longitude": -62.80977
  },
  {
    "city": "Devet",
    "city_zh": "Devet",
    "country": "Saint Barthelemy",
    "country_zh": "Saint Barthelemy",
    "country_iso_code": "BL",
    "timezone": "America/St_Barthelemy",
    "latitude": 17.90015,
    "longitude": -62.80227
  },
  {
    "city": "Camaruche",
    "city_zh": "Camaruche",
    "country": "Saint Barthelemy",
    "country_zh": "Saint Barthelemy",
    "country_iso_code": "BL",
    "timezone": "America/St_Barthelemy",
    "latitude": 17.90713,
    "longitude": -62.81936
  },
  {
    "city": "La Pointe",
    "city_zh": "La Pointe",
    "country": "Saint Barthelemy",
    "country_zh": "Saint Barthelemy",
    "country_iso_code": "BL",
    "timezone": "America/St_Barthelemy",
    "latitude": 17.89757,
    "longitude": -62.85252
  },
  {
    "city": "Caribe Frances",
    "city_zh": "Caribe Frances",
    "country": "Saint Barthelemy",
    "country_zh": "Saint Barthelemy",
    "country_iso_code": "BL",
    "timezone": "America/St_Barthelemy",
    "latitude": 17.89589,
    "longitude": -62.85207
  }
]