[
  {
    "city": "Nyarubara",
    "city_zh": "Nyarubara",
    "country": "Uganda",
    "country_zh": "烏干達",
    "country_iso_code": "UG",
    "timezone": "Africa/Kampala",
    "latitude": -1.33333,
    "longitude": 30.01667
  },
  {
    "city": "Zombo",
    "city_zh": "Zombo",
    "country": "Uganda",
    "country_zh": "烏干達",
    "country_iso_code": "UG",
    "timezone": "Africa/Kampala",
    "latitude": 2.51355,
    "longitude": 30.90909
  },
  {
    "city": "Ziru",
    "city_zh": "Ziru",
    "country": "Uganda",
    "country_zh": "烏干達",
    "country_iso_code": "UG",
    "timezone": "Africa/Kampala",
    "latitude": 0.14106,
    "longitude": 32.52202
  },
  {
    "city": "Zirobwe",
    "city_zh": "Zirobwe",
    "country": "Uganda",
    "country_zh": "烏干達",
    "country_iso_code": "UG",
    "timezone": "Africa/Kampala",
    "latitude": 0.67944,
    "longitude": 32.68944
  },
  {
    "city": "Zira",
    "city_zh": "Zira",
    "country": "Uganda",
    "country_zh": "烏干達",
    "country_iso_code": "UG",
    "timezone": "Africa/Kampala",
    "latitude": 0.44509,
    "longitude": 32.1608
  },
  {
    "city": "Zintengeze",
    "city_zh": "Zintengeze",
    "country": "Uganda",
    "country_zh": "烏干達",
    "country_iso_code": "UG",
    "timezone": "Africa/Kampala",
    "latitude": 0.5,
    "longitude": 32.98333
  },
  {
    "city": "Zimwe",
    "city_zh": "Zimwe",
    "country": "Uganda",
    "country_zh": "烏干達",
    "country_iso_code": "UG",
    "timezone": "Africa/Kampala",
    "latitude": -0.51667,
    "longitude": 31.75
  },
  {
    "city": "Zimuddi",
    "city_zh": "Zimuddi",
    "country": "Uganda",
    "country_zh": "烏干達",
    "country_iso_code": "UG",
    "timezone": "Africa/Kampala",
    "latitude": 0.41667,
    "longitude": 32.31667
  },
  {
    "city": "Zigulu",
    "city_zh": "Zigulu",
    "country": "Uganda",
    "country_zh": "烏干達",
    "country_iso_code": "UG",
    "timezone": "Africa/Kampala",
    "latitude": 0.53333,
    "longitude": 32.86667
  },
  {
    "city": "Ziba",
    "city_zh": "Ziba",
    "country": "Uganda",
    "country_zh": "烏干達",
    "country_iso_code": "UG",
    "timezone": "Africa/Kampala",
    "latitude": 0.23895,
    "longitude": 32.96556
  },
  {
    "city": "Ziba",
    "city_zh": "Ziba",
    "country": "Uganda",
    "country_zh": "烏干達",
    "country_iso_code": "UG",
    "timezone": "Africa/Kampala",
    "latitude": 0.09177,
    "longitude": 32.36628
  },
  {
    "city": "Zeu",
    "city_zh": "Zeu",
    "country": "Uganda",
    "country_zh": "烏干達",
    "country_iso_code": "UG",
    "timezone": "Africa/Kampala",
    "latitude": 2.5092,
    "longitude": 30.8034
  },
  {
    "city": "Zengebe",
    "city_zh": "Zengebe",
    "country": "Uganda",
    "country_zh": "烏干達",
    "country_iso_code": "UG",
    "timezone": "Africa/Kampala",
    "latitude": 1.48333,
    "longitude": 32.51667
  },
  {
    "city": "Zanyiro",
    "city_zh": "Zanyiro",
    "country": "Uganda",
    "country_zh": "烏干達",
    "country_iso_code": "UG",
    "timezone": "Africa/Kampala",
    "latitude": 0.76667,
    "longitude": 31.8
  },
  {
    "city": "Dzaipi",
    "city_zh": "Dzaipi",
    "country": "Uganda",
    "country_zh": "烏干達",
    "country_iso_code": "UG",
    "timezone": "Africa/Kampala",
    "latitude": 3.39263,
    "longitude": 31.95588
  },
  {
    "city": "Yumbe",
    "city_zh": "Yumbe",
    "country": "Uganda",
    "country_zh": "烏干達",
    "country_iso_code": "UG",
    "timezone": "Africa/Kampala",
    "latitude": 3.46506,
    "longitude": 31.24689
  },
  {
    "city": "Yoyo",
    "city_zh": "Yoyo",
    "country": "Uganda",
    "country_zh": "烏干達",
    "country_iso_code": "UG",
    "timezone": "Africa/Kampala",
    "latitude": 3.3983,
    "longitude": 31.31324
  },
  {
    "city": "Yole",
    "city_zh": "Yole",
    "country": "Uganda",
    "country_zh": "烏干達",
    "country_iso_code": "UG",
    "timezone": "Africa/Kampala",
    "latitude": 3.07618,
    "longitude": 30.96196
  },
  {
    "city": "Yivu",
    "city_zh": "Yivu",
    "country": "Uganda",
    "country_zh": "烏干達",
    "country_iso_code": "UG",
    "timezone": "Africa/Kampala",
    "latitude": 3.28816,
    "longitude": 30.99822
  },
  {
    "city": "Yivu",
    "city_zh": "Yivu",
    "country": "Uganda",
    "country_zh": "烏干達",
    "country_iso_code": "UG",
    "timezone": "Africa/Kampala",
    "latitude": 3.26113,
    "longitude": 31.00071
  },
  {
    "city": "Yidu",
    "city_zh": "Yidu",
    "country": "Uganda",
    "country_zh": "烏干達",
    "country_iso_code": "UG",
    "timezone": "Africa/Kampala",
    "latitude": 3.22757,
    "longitude": 31.12236
  },
  {
    "city": "Yenga",
    "city_zh": "Yenga",
    "country": "Uganda",
    "country_zh": "烏干達",
    "country_iso_code": "UG",
    "timezone": "Africa/Kampala",
    "latitude": 0.84798,
    "longitude": 30.01381
  },
  {
    "city": "Yamu",
    "city_zh": "Yamu",
    "country": "Uganda",
    "country_zh": "烏干達",
    "country_iso_code": "UG",
    "timezone": "Africa/Kampala",
    "latitude": 2.58666,
    "longitude": 30.91942
  },
  {
    "city": "Wunga",
    "city_zh": "Wunga",
    "country": "Uganda",
    "country_zh": "烏干達",
    "country_iso_code": "UG",
    "timezone": "Africa/Kampala",
    "latitude": 0.98333,
    "longitude": 32.91667
  },
  {
    "city": "Wolo",
    "city_zh": "Wolo",
    "country": "Uganda",
    "country_zh": "烏干達",
    "country_iso_code": "UG",
    "timezone": "Africa/Kampala",
    "latitude": 3.3942,
    "longitude": 31.2406
  },
  {
    "city": "Wobulenzi",
    "city_zh": "Wobulenzi",
    "country": "Uganda",
    "country_zh": "烏干達",
    "country_iso_code": "UG",
    "timezone": "Africa/Kampala",
    "latitude": 0.72833,
    "longitude": 32.51222
  },
  {
    "city": "Wiria",
    "city_zh": "Wiria",
    "country": "Uganda",
    "country_zh": "烏干達",
    "country_iso_code": "UG",
    "timezone": "Africa/Kampala",
    "latitude": 3.05192,
    "longitude": 31.42927
  },
  {
    "city": "Wila",
    "city_zh": "Wila",
    "country": "Uganda",
    "country_zh": "烏干達",
    "country_iso_code": "UG",
    "timezone": "Africa/Kampala",
    "latitude": 2.1,
    "longitude": 33.65
  },
  {
    "city": "Wigweng",
    "city_zh": "Wigweng",
    "country": "Uganda",
    "country_zh": "烏干達",
    "country_iso_code": "UG",
    "timezone": "Africa/Kampala",
    "latitude": 1.92123,
    "longitude": 32.69206
  },
  {
    "city": "Wiawer",
    "city_zh": "Wiawer",
    "country": "Uganda",
    "country_zh": "烏干達",
    "country_iso_code": "UG",
    "timezone": "Africa/Kampala",
    "latitude": 2.68167,
    "longitude": 33.66944
  },
  {
    "city": "Wesunire",
    "city_zh": "Wesunire",
    "country": "Uganda",
    "country_zh": "烏干達",
    "country_iso_code": "UG",
    "timezone": "Africa/Kampala",
    "latitude": 1.23333,
    "longitude": 33.16667
  },
  {
    "city": "Wera",
    "city_zh": "Wera",
    "country": "Uganda",
    "country_zh": "烏干達",
    "country_iso_code": "UG",
    "timezone": "Africa/Kampala",
    "latitude": 1.86704,
    "longitude": 33.75514
  },
  {
    "city": "Wekomire",
    "city_zh": "Wekomire",
    "country": "Uganda",
    "country_zh": "烏干達",
    "country_iso_code": "UG",
    "timezone": "Africa/Kampala",
    "latitude": 0.45,
    "longitude": 31.01667
  },
  {
    "city": "Watuba",
    "city_zh": "Watuba",
    "country": "Uganda",
    "country_zh": "烏干達",
    "country_iso_code": "UG",
    "timezone": "Africa/Kampala",
    "latitude": 1.01556,
    "longitude": 31.69028
  },
  {
    "city": "Watuba",
    "city_zh": "Watuba",
    "country": "Uganda",
    "country_zh": "烏干達",
    "country_iso_code": "UG",
    "timezone": "Africa/Kampala",
    "latitude": 0.6,
    "longitude": 32.1
  },
  {
    "city": "Watuba",
    "city_zh": "Watuba",
    "country": "Uganda",
    "country_zh": "烏干達",
    "country_iso_code": "UG",
    "timezone": "Africa/Kampala",
    "latitude": 0.0,
    "longitude": 31.93333
  },
  {
    "city": "Watoke",
    "city_zh": "Watoke",
    "country": "Uganda",
    "country_zh": "烏干達",
    "country_iso_code": "UG",
    "timezone": "Africa/Kampala",
    "latitude": 1.61613,
    "longitude": 32.27859
  },
  {
    "city": "Wasa",
    "city_zh": "Wasa",
    "country": "Uganda",
    "country_zh": "烏干達",
    "country_iso_code": "UG",
    "timezone": "Africa/Kampala",
    "latitude": 0.78333,
    "longitude": 30.25
  },
  {
    "city": "War",
    "city_zh": "War",
    "country": "Uganda",
    "country_zh": "烏干達",
    "country_iso_code": "UG",
    "timezone": "Africa/Kampala",
    "latitude": 2.60038,
    "longitude": 30.88884
  },
  {
    "city": "Wansolo",
    "city_zh": "Wansolo",
    "country": "Uganda",
    "country_zh": "烏干達",
    "country_iso_code": "UG",
    "timezone": "Africa/Kampala",
    "latitude": 1.68333,
    "longitude": 32.5
  },
  {
    "city": "Wanseko",
    "city_zh": "Wanseko",
    "country": "Uganda",
    "country_zh": "烏干達",
    "country_iso_code": "UG",
    "timezone": "Africa/Kampala",
    "latitude": 2.17753,
    "longitude": 31.3821
  },
  {
    "city": "Wankata",
    "city_zh": "Wankata",
    "country": "Uganda",
    "country_zh": "烏干達",
    "country_iso_code": "UG",
    "timezone": "Africa/Kampala",
    "latitude": 0.26486,
    "longitude": 32.90317
  },
  {
    "city": "Wankaka",
    "city_zh": "Wankaka",
    "country": "Uganda",
    "country_zh": "烏干達",
    "country_iso_code": "UG",
    "timezone": "Africa/Kampala",
    "latitude": 1.4,
    "longitude": 32.16667
  },
  {
    "city": "Wanjagi",
    "city_zh": "Wanjagi",
    "country": "Uganda",
    "country_zh": "烏干達",
    "country_iso_code": "UG",
    "timezone": "Africa/Kampala",
    "latitude": 0.8,
    "longitude": 32.65
  },
  {
    "city": "Wangobo",
    "city_zh": "Wangobo",
    "country": "Uganda",
    "country_zh": "烏干達",
    "country_iso_code": "UG",
    "timezone": "Africa/Kampala",
    "latitude": 1.1,
    "longitude": 33.51667
  },
  {
    "city": "Wangobo",
    "city_zh": "Wangobo",
    "country": "Uganda",
    "country_zh": "烏干達",
    "country_iso_code": "UG",
    "timezone": "Africa/Kampala",
    "latitude": 0.7,
    "longitude": 33.68333
  },
  {
    "city": "Wangale",
    "city_zh": "Wangale",
    "country": "Uganda",
    "country_zh": "烏干達",
    "country_iso_code": "UG",
    "timezone": "Africa/Kampala",
    "latitude": 0.91759,
    "longitude": 34.10454
  },
  {
    "city": "Wanfufu",
    "city_zh": "Wanfufu",
    "country": "Uganda",
    "country_zh": "烏干達",
    "country_iso_code": "UG",
    "timezone": "Africa/Kampala",
    "latitude": 0.96667,
    "longitude": 32.71667
  },
  {
    "city": "Wandulu",
    "city_zh": "Wandulu",
    "country": "Uganda",
    "country_zh": "烏干達",
    "country_iso_code": "UG",
    "timezone": "Africa/Kampala",
    "latitude": 0.7,
    "longitude": 32.83333
  },
  {
    "city": "Wanica",
    "city_zh": "Wanica",
    "country": "Uganda",
    "country_zh": "烏干達",
    "country_iso_code": "UG",
    "timezone": "Africa/Kampala",
    "latitude": 3.06394,
    "longitude": 31.09898
  },
  {
    "city": "Wandi",
    "city_zh": "Wandi",
    "country": "Uganda",
    "country_zh": "烏干達",
    "country_iso_code": "UG",
    "timezone": "Africa/Kampala",
    "latitude": 3.10122,
    "longitude": 30.9784
  },
  {
    "city": "Wandegeya",
    "city_zh": "Wandegeya",
    "country": "Uganda",
    "country_zh": "烏干達",
    "country_iso_code": "UG",
    "timezone": "Africa/Kampala",
    "latitude": 0.34987,
    "longitude": 33.55917
  },
  {
    "city": "Wandala",
    "city_zh": "Wandala",
    "country": "Uganda",
    "country_zh": "烏干達",
    "country_iso_code": "UG",
    "timezone": "Africa/Kampala",
    "latitude": 0.5,
    "longitude": 33.51667
  },
  {
    "city": "Wandagi",
    "city_zh": "Wandagi",
    "country": "Uganda",
    "country_zh": "烏干達",
    "country_iso_code": "UG",
    "timezone": "Africa/Kampala",
    "latitude": 0.85,
    "longitude": 32.1
  },
  {
    "city": "Wananda",
    "city_zh": "Wananda",
    "country": "Uganda",
    "country_zh": "烏干達",
    "country_iso_code": "UG",
    "timezone": "Africa/Kampala",
    "latitude": 0.15654,
    "longitude": 32.12696
  },
  {
    "city": "Wamusenyi",
    "city_zh": "Wamusenyi",
    "country": "Uganda",
    "country_zh": "烏干達",
    "country_iso_code": "UG",
    "timezone": "Africa/Kampala",
    "latitude": 1.79415,
    "longitude": 32.15605
  },
  {
    "city": "Wamulongo",
    "city_zh": "Wamulongo",
    "country": "Uganda",
    "country_zh": "烏干達",
    "country_iso_code": "UG",
    "timezone": "Africa/Kampala",
    "latitude": 0.49678,
    "longitude": 33.52577
  },
  {
    "city": "Wamukende",
    "city_zh": "Wamukende",
    "country": "Uganda",
    "country_zh": "烏干達",
    "country_iso_code": "UG",
    "timezone": "Africa/Kampala",
    "latitude": 1.35,
    "longitude": 32.25
  },
  {
    "city": "Wampologoma",
    "city_zh": "Wampologoma",
    "country": "Uganda",
    "country_zh": "烏干達",
    "country_iso_code": "UG",
    "timezone": "Africa/Kampala",
    "latitude": 0.79666,
    "longitude": 33.01133
  },
  {
    "city": "Nawampendo",
    "city_zh": "Nawampendo",
    "country": "Uganda",
    "country_zh": "烏干達",
    "country_iso_code": "UG",
    "timezone": "Africa/Kampala",
    "latitude": 0.54251,
    "longitude": 33.548
  },
  {
    "city": "Wamfuru",
    "city_zh": "Wamfuru",
    "country": "Uganda",
    "country_zh": "烏干達",
    "country_iso_code": "UG",
    "timezone": "Africa/Kampala",
    "latitude": 0.91667,
    "longitude": 30.53333
  },
  {
    "city": "Wamala",
    "city_zh": "Wamala",
    "country": "Uganda",
    "country_zh": "烏干達",
    "country_iso_code": "UG",
    "timezone": "Africa/Kampala",
    "latitude": 0.13333,
    "longitude": 31.63333
  },
  {
    "city": "Wamala",
    "city_zh": "Wamala",
    "country": "Uganda",
    "country_zh": "烏干達",
    "country_iso_code": "UG",
    "timezone": "Africa/Kampala",
    "latitude": 0.06667,
    "longitude": 31.9
  },
  {
    "city": "Walykubya",
    "city_zh": "Walykubya",
    "country": "Uganda",
    "country_zh": "烏干達",
    "country_iso_code": "UG",
    "timezone": "Africa/Kampala",
    "latitude": 1.82605,
    "longitude": 31.37322
  },
  {
    "city": "Waluvule",
    "city_zh": "Waluvule",
    "country": "Uganda",
    "country_zh": "烏干達",
    "country_iso_code": "UG",
    "timezone": "Africa/Kampala",
    "latitude": 0.76667,
    "longitude": 32.5
  },
  {
    "city": "Walukota",
    "city_zh": "Walukota",
    "country": "Uganda",
    "country_zh": "烏干達",
    "country_iso_code": "UG",
    "timezone": "Africa/Kampala",
    "latitude": 1.18333,
    "longitude": 32.63333
  },
  {
    "city": "Walabungo",
    "city_zh": "Walabungo",
    "country": "Uganda",
    "country_zh": "烏干達",
    "country_iso_code": "UG",
    "timezone": "Africa/Kampala",
    "latitude": 1.45,
    "longitude": 32.26667
  },
  {
    "city": "Wakyato",
    "city_zh": "Wakyato",
    "country": "Uganda",
    "country_zh": "烏干達",
    "country_iso_code": "UG",
    "timezone": "Africa/Kampala",
    "latitude": 0.87444,
    "longitude": 32.20472
  },
  {
    "city": "Wakiso",
    "city_zh": "Wakiso",
    "country": "Uganda",
    "country_zh": "烏干達",
    "country_iso_code": "UG",
    "timezone": "Africa/Kampala",
    "latitude": 0.40987,
    "longitude": 32.83218
  },
  {
    "city": "Wakiso",
    "city_zh": "Wakiso",
    "country": "Uganda",
    "country_zh": "烏干達",
    "country_iso_code": "UG",
    "timezone": "Africa/Kampala",
    "latitude": 0.40444,
    "longitude": 32.45944
  },
  {
    "city": "Wakisani",
    "city_zh": "Wakisani",
    "country": "Uganda",
    "country_zh": "烏干達",
    "country_iso_code": "UG",
    "timezone": "Africa/Kampala",
    "latitude": 1.63398,
    "longitude": 32.01862
  },
  {
    "city": "Waki",
    "city_zh": "Waki",
    "country": "Uganda",
    "country_zh": "烏干達",
    "country_iso_code": "UG",
    "timezone": "Africa/Kampala",
    "latitude": 1.80034,
    "longitude": 31.32177
  },
  {
    "city": "Wakayiba",
    "city_zh": "Wakayiba",
    "country": "Uganda",
    "country_zh": "烏干達",
    "country_iso_code": "UG",
    "timezone": "Africa/Kampala",
    "latitude": 0.63333,
    "longitude": 31.61667
  },
  {
    "city": "Wakawungu",
    "city_zh": "Wakawungu",
    "country": "Uganda",
    "country_zh": "烏干達",
    "country_iso_code": "UG",
    "timezone": "Africa/Kampala",
    "latitude": 0.41516,
    "longitude": 33.52344
  },
  {
    "city": "Wakawaka",
    "city_zh": "Wakawaka",
    "country": "Uganda",
    "country_zh": "烏干達",
    "country_iso_code": "UG",
    "timezone": "Africa/Kampala",
    "latitude": 0.32543,
    "longitude": 33.7119
  },
  {
    "city": "Wakatanga",
    "city_zh": "Wakatanga",
    "country": "Uganda",
    "country_zh": "烏干達",
    "country_iso_code": "UG",
    "timezone": "Africa/Kampala",
    "latitude": 0.66667,
    "longitude": 33.6
  },
  {
    "city": "Wakasimba",
    "city_zh": "Wakasimba",
    "country": "Uganda",
    "country_zh": "烏干達",
    "country_iso_code": "UG",
    "timezone": "Africa/Kampala",
    "latitude": 1.15,
    "longitude": 32.48333
  },
  {
    "city": "Wakasimba",
    "city_zh": "Wakasimba",
    "country": "Uganda",
    "country_zh": "烏干達",
    "country_iso_code": "UG",
    "timezone": "Africa/Kampala",
    "latitude": 1.1,
    "longitude": 32.45
  },
  {
    "city": "Waka",
    "city_zh": "Waka",
    "country": "Uganda",
    "country_zh": "烏干達",
    "country_iso_code": "UG",
    "timezone": "Africa/Kampala",
    "latitude": 3.1095,
    "longitude": 31.43215
  },
  {
    "city": "Wajala",
    "city_zh": "Wajala",
    "country": "Uganda",
    "country_zh": "烏干達",
    "country_iso_code": "UG",
    "timezone": "Africa/Kampala",
    "latitude": 1.38333,
    "longitude": 32.53333
  },
  {
    "city": "Waiswa",
    "city_zh": "Waiswa",
    "country": "Uganda",
    "country_zh": "烏干達",
    "country_iso_code": "UG",
    "timezone": "Africa/Kampala",
    "latitude": 0.55,
    "longitude": 33.51667
  },
  {
    "city": "Wairaka",
    "city_zh": "Wairaka",
    "country": "Uganda",
    "country_zh": "烏干達",
    "country_iso_code": "UG",
    "timezone": "Africa/Kampala",
    "latitude": 0.4757,
    "longitude": 33.26457
  },
  {
    "city": "Wainya",
    "city_zh": "Wainya",
    "country": "Uganda",
    "country_zh": "烏干達",
    "country_iso_code": "UG",
    "timezone": "Africa/Kampala",
    "latitude": 0.55518,
    "longitude": 33.4073
  },
  {
    "city": "Waikalakaka",
    "city_zh": "Waikalakaka",
    "country": "Uganda",
    "country_zh": "烏干達",
    "country_iso_code": "UG",
    "timezone": "Africa/Kampala",
    "latitude": 0.39221,
    "longitude": 33.72737
  },
  {
    "city": "Ihagalo",
    "city_zh": "Ihagalo",
    "country": "Uganda",
    "country_zh": "烏干達",
    "country_iso_code": "UG",
    "timezone": "Africa/Kampala",
    "latitude": 0.95236,
    "longitude": 33.5129
  },
  {
    "city": "Waiga",
    "city_zh": "Waiga",
    "country": "Uganda",
    "country_zh": "烏干達",
    "country_iso_code": "UG",
    "timezone": "Africa/Kampala",
    "latitude": 0.3356,
    "longitude": 33.39688
  },
  {
    "city": "Waibuga",
    "city_zh": "Waibuga",
    "country": "Uganda",
    "country_zh": "烏干達",
    "country_iso_code": "UG",
    "timezone": "Africa/Kampala",
    "latitude": 0.63272,
    "longitude": 33.3844
  },
  {
    "city": "Waibalaibi",
    "city_zh": "Waibalaibi",
    "country": "Uganda",
    "country_zh": "烏干達",
    "country_iso_code": "UG",
    "timezone": "Africa/Kampala",
    "latitude": 1.60225,
    "longitude": 32.72897
  },
  {
    "city": "Wagala",
    "city_zh": "Wagala",
    "country": "Uganda",
    "country_zh": "烏干達",
    "country_iso_code": "UG",
    "timezone": "Africa/Kampala",
    "latitude": 0.42344,
    "longitude": 32.90413
  },
  {
    "city": "Wadelai",
    "city_zh": "Wadelai",
    "country": "Uganda",
    "country_zh": "烏干達",
    "country_iso_code": "UG",
    "timezone": "Africa/Kampala",
    "latitude": 2.72425,
    "longitude": 31.39243
  },
  {
    "city": "Wabusana",
    "city_zh": "Wabusana",
    "country": "Uganda",
    "country_zh": "烏干達",
    "country_iso_code": "UG",
    "timezone": "Africa/Kampala",
    "latitude": 1.11667,
    "longitude": 32.6
  },
  {
    "city": "Wabusana",
    "city_zh": "Wabusana",
    "country": "Uganda",
    "country_zh": "烏干達",
    "country_iso_code": "UG",
    "timezone": "Africa/Kampala",
    "latitude": 0.89417,
    "longitude": 32.65167
  },
  {
    "city": "Wabulungu",
    "city_zh": "Wabulungu",
    "country": "Uganda",
    "country_zh": "烏干達",
    "country_iso_code": "UG",
    "timezone": "Africa/Kampala",
    "latitude": 0.48333,
    "longitude": 33.31667
  },
  {
    "city": "Wabulenga",
    "city_zh": "Wabulenga",
    "country": "Uganda",
    "country_zh": "烏干達",
    "country_iso_code": "UG",
    "timezone": "Africa/Kampala",
    "latitude": 0.50154,
    "longitude": 33.20214
  },
  {
    "city": "Wabukala",
    "city_zh": "Wabukala",
    "country": "Uganda",
    "country_zh": "烏干達",
    "country_iso_code": "UG",
    "timezone": "Africa/Kampala",
    "latitude": 1.52087,
    "longitude": 32.22846
  },
  {
    "city": "Wabiyinja",
    "city_zh": "Wabiyinja",
    "country": "Uganda",
    "country_zh": "烏干達",
    "country_iso_code": "UG",
    "timezone": "Africa/Kampala",
    "latitude": 0.33099,
    "longitude": 32.10767
  },
  {
    "city": "Wabitoki",
    "city_zh": "Wabitoki",
    "country": "Uganda",
    "country_zh": "烏干達",
    "country_iso_code": "UG",
    "timezone": "Africa/Kampala",
    "latitude": 1.73062,
    "longitude": 32.0303
  },
  {
    "city": "Wabisisa",
    "city_zh": "Wabisisa",
    "country": "Uganda",
    "country_zh": "烏干達",
    "country_iso_code": "UG",
    "timezone": "Africa/Kampala",
    "latitude": 1.2,
    "longitude": 32.38333
  },
  {
    "city": "Wabisi",
    "city_zh": "Wabisi",
    "country": "Uganda",
    "country_zh": "烏干達",
    "country_iso_code": "UG",
    "timezone": "Africa/Kampala",
    "latitude": 1.43333,
    "longitude": 32.45
  },
  {
    "city": "Wabinyonyi",
    "city_zh": "Wabinyonyi",
    "country": "Uganda",
    "country_zh": "烏干達",
    "country_iso_code": "UG",
    "timezone": "Africa/Kampala",
    "latitude": 1.3,
    "longitude": 32.46667
  },
  {
    "city": "Wabinwa",
    "city_zh": "Wabinwa",
    "country": "Uganda",
    "country_zh": "烏干達",
    "country_iso_code": "UG",
    "timezone": "Africa/Kampala",
    "latitude": 1.52483,
    "longitude": 32.59264
  },
  {
    "city": "Wabigalo",
    "city_zh": "Wabigalo",
    "country": "Uganda",
    "country_zh": "烏干達",
    "country_iso_code": "UG",
    "timezone": "Africa/Kampala",
    "latitude": 1.26667,
    "longitude": 32.45
  },
  {
    "city": "Wabigali",
    "city_zh": "Wabigali",
    "country": "Uganda",
    "country_zh": "烏干達",
    "country_iso_code": "UG",
    "timezone": "Africa/Kampala",
    "latitude": 1.0,
    "longitude": 32.71667
  },
  {
    "city": "Wabibo",
    "city_zh": "Wabibo",
    "country": "Uganda",
    "country_zh": "烏干達",
    "country_iso_code": "UG",
    "timezone": "Africa/Kampala",
    "latitude": 0.1,
    "longitude": 31.81667
  },
  {
    "city": "Wol",
    "city_zh": "Wol",
    "country": "Uganda",
    "country_zh": "烏干達",
    "country_iso_code": "UG",
    "timezone": "Africa/Kampala",
    "latitude": 3.13658,
    "longitude": 33.19768
  },
  {
    "city": "Vurra",
    "city_zh": "Vurra",
    "country": "Uganda",
    "country_zh": "烏干達",
    "country_iso_code": "UG",
    "timezone": "Africa/Kampala",
    "latitude": 2.90906,
    "longitude": 30.88248
  },
  {
    "city": "Vurr",
    "city_zh": "Vurr",
    "country": "Uganda",
    "country_zh": "烏干達",
    "country_iso_code": "UG",
    "timezone": "Africa/Kampala",
    "latitude": 2.52139,
    "longitude": 31.18284
  },
  {
    "city": "Vumbe",
    "city_zh": "Vumbe",
    "country": "Uganda",
    "country_zh": "烏干達",
    "country_iso_code": "UG",
    "timezone": "Africa/Kampala",
    "latitude": 0.32656,
    "longitude": 32.14523
  },
  {
    "city": "Vumba",
    "city_zh": "Vumba",
    "country": "Uganda",
    "country_zh": "烏干達",
    "country_iso_code": "UG",
    "timezone": "Africa/Kampala",
    "latitude": 0.93333,
    "longitude": 31.73333
  },
  {
    "city": "Vumba",
    "city_zh": "Vumba",
    "country": "Uganda",
    "country_zh": "烏干達",
    "country_iso_code": "UG",
    "timezone": "Africa/Kampala",
    "latitude": 0.6,
    "longitude": 32.68333
  },
  {
    "city": "Vumba",
    "city_zh": "Vumba",
    "country": "Uganda",
    "country_zh": "烏干達",
    "country_iso_code": "UG",
    "timezone": "Africa/Kampala",
    "latitude": 0.29689,
    "longitude": 32.89052
  },
  {
    "city": "Ivukula",
    "city_zh": "Ivukula",
    "country": "Uganda",
    "country_zh": "烏干達",
    "country_iso_code": "UG",
    "timezone": "Africa/Kampala",
    "latitude": 0.94395,
    "longitude": 33.62527
  },
  {
    "city": "Virika",
    "city_zh": "Virika",
    "country": "Uganda",
    "country_zh": "烏干達",
    "country_iso_code": "UG",
    "timezone": "Africa/Kampala",
    "latitude": 0.63547,
    "longitude": 30.26984
  },
  {
    "city": "Villa Maria",
    "city_zh": "Villa Maria",
    "country": "Uganda",
    "country_zh": "烏干達",
    "country_iso_code": "UG",
    "timezone": "Africa/Kampala",
    "latitude": -0.20444,
    "longitude": 31.71917
  },
  {
    "city": "Uzu",
    "city_zh": "Uzu",
    "country": "Uganda",
    "country_zh": "烏干達",
    "country_iso_code": "UG",
    "timezone": "Africa/Kampala",
    "latitude": 3.05486,
    "longitude": 30.84428
  },
  {
    "city": "Utumbari",
    "city_zh": "Utumbari",
    "country": "Uganda",
    "country_zh": "烏干達",
    "country_iso_code": "UG",
    "timezone": "Africa/Kampala",
    "latitude": 3.27093,
    "longitude": 31.14472
  },
  {
    "city": "Utrutru",
    "city_zh": "Utrutru",
    "country": "Uganda",
    "country_zh": "烏干達",
    "country_iso_code": "UG",
    "timezone": "Africa/Kampala",
    "latitude": 2.78046,
    "longitude": 31.17848
  },
  {
    "city": "Usuku",
    "city_zh": "Usuku",
    "country": "Uganda",
    "country_zh": "烏干達",
    "country_iso_code": "UG",
    "timezone": "Africa/Kampala",
    "latitude": 1.98833,
    "longitude": 33.97167
  },
  {
    "city": "Unyama",
    "city_zh": "Unyama",
    "country": "Uganda",
    "country_zh": "烏干達",
    "country_iso_code": "UG",
    "timezone": "Africa/Kampala",
    "latitude": 2.81699,
    "longitude": 32.33814
  },
  {
    "city": "Umi",
    "city_zh": "Umi",
    "country": "Uganda",
    "country_zh": "烏干達",
    "country_iso_code": "UG",
    "timezone": "Africa/Kampala",
    "latitude": 3.54386,
    "longitude": 31.81105
  },
  {
    "city": "Uluko",
    "city_zh": "Uluko",
    "country": "Uganda",
    "country_zh": "烏干達",
    "country_iso_code": "UG",
    "timezone": "Africa/Kampala",
    "latitude": 3.02283,
    "longitude": 30.99431
  },
  {
    "city": "Uluko",
    "city_zh": "Uluko",
    "country": "Uganda",
    "country_zh": "烏干達",
    "country_iso_code": "UG",
    "timezone": "Africa/Kampala",
    "latitude": 3.0145,
    "longitude": 30.94729
  },
  {
    "city": "Uleppi",
    "city_zh": "Uleppi",
    "country": "Uganda",
    "country_zh": "烏干達",
    "country_iso_code": "UG",
    "timezone": "Africa/Kampala",
    "latitude": 2.77407,
    "longitude": 31.03696
  },
  {
    "city": "Okuti",
    "city_zh": "Okuti",
    "country": "Uganda",
    "country_zh": "烏干達",
    "country_iso_code": "UG",
    "timezone": "Africa/Kampala",
    "latitude": 3.65338,
    "longitude": 33.51637
  },
  {
    "city": "Ukadakya",
    "city_zh": "Ukadakya",
    "country": "Uganda",
    "country_zh": "烏干達",
    "country_iso_code": "UG",
    "timezone": "Africa/Kampala",
    "latitude": 2.05,
    "longitude": 34.05
  },
  {
    "city": "Udupi",
    "city_zh": "Udupi",
    "country": "Uganda",
    "country_zh": "烏干達",
    "country_iso_code": "UG",
    "timezone": "Africa/Kampala",
    "latitude": 3.29629,
    "longitude": 31.17532
  },
  {
    "city": "Tyabire",
    "city_zh": "Tyabire",
    "country": "Uganda",
    "country_zh": "烏干達",
    "country_iso_code": "UG",
    "timezone": "Africa/Kampala",
    "latitude": 0.11337,
    "longitude": 32.3281
  },
  {
    "city": "Tweyanze",
    "city_zh": "Tweyanze",
    "country": "Uganda",
    "country_zh": "烏干達",
    "country_iso_code": "UG",
    "timezone": "Africa/Kampala",
    "latitude": 1.3,
    "longitude": 32.08333
  },
  {
    "city": "Tweyanze",
    "city_zh": "Tweyanze",
    "country": "Uganda",
    "country_zh": "烏干達",
    "country_iso_code": "UG",
    "timezone": "Africa/Kampala",
    "latitude": 0.73333,
    "longitude": 32.56667
  },
  {
    "city": "Twalek",
    "city_zh": "Twalek",
    "country": "Uganda",
    "country_zh": "烏干達",
    "country_iso_code": "UG",
    "timezone": "Africa/Kampala",
    "latitude": 1.35,
    "longitude": 34.7
  },
  {
    "city": "Tuskini",
    "city_zh": "Tuskini",
    "country": "Uganda",
    "country_zh": "烏干達",
    "country_iso_code": "UG",
    "timezone": "Africa/Kampala",
    "latitude": 1.41667,
    "longitude": 34.53333
  },
  {
    "city": "Turupok",
    "city_zh": "Turupok",
    "country": "Uganda",
    "country_zh": "烏干達",
    "country_iso_code": "UG",
    "timezone": "Africa/Kampala",
    "latitude": 1.56667,
    "longitude": 32.63333
  },
  {
    "city": "Turukang",
    "city_zh": "Turukang",
    "country": "Uganda",
    "country_zh": "烏干達",
    "country_iso_code": "UG",
    "timezone": "Africa/Kampala",
    "latitude": 1.64704,
    "longitude": 32.73858
  },
  {
    "city": "Tumbo",
    "city_zh": "Tumbo",
    "country": "Uganda",
    "country_zh": "烏干達",
    "country_iso_code": "UG",
    "timezone": "Africa/Kampala",
    "latitude": 0.33447,
    "longitude": 32.18967
  },
  {
    "city": "Tumba",
    "city_zh": "Tumba",
    "country": "Uganda",
    "country_zh": "烏干達",
    "country_iso_code": "UG",
    "timezone": "Africa/Kampala",
    "latitude": 1.55141,
    "longitude": 32.39317
  },
  {
    "city": "Tula",
    "city_zh": "Tula",
    "country": "Uganda",
    "country_zh": "烏干達",
    "country_iso_code": "UG",
    "timezone": "Africa/Kampala",
    "latitude": 0.39342,
    "longitude": 32.56112
  },
  {
    "city": "Tugumu",
    "city_zh": "Tugumu",
    "country": "Uganda",
    "country_zh": "烏干達",
    "country_iso_code": "UG",
    "timezone": "Africa/Kampala",
    "latitude": 1.43333,
    "longitude": 34.53333
  },
  {
    "city": "Tuba",
    "city_zh": "Tuba",
    "country": "Uganda",
    "country_zh": "烏干達",
    "country_iso_code": "UG",
    "timezone": "Africa/Kampala",
    "latitude": 0.79826,
    "longitude": 34.17213
  },
  {
    "city": "Ttaba",
    "city_zh": "Ttaba",
    "country": "Uganda",
    "country_zh": "烏干達",
    "country_iso_code": "UG",
    "timezone": "Africa/Kampala",
    "latitude": 0.18597,
    "longitude": 32.38825
  },
  {
    "city": "Torote",
    "city_zh": "Torote",
    "country": "Uganda",
    "country_zh": "烏干達",
    "country_iso_code": "UG",
    "timezone": "Africa/Kampala",
    "latitude": 3.35,
    "longitude": 33.48333
  },
  {
    "city": "Tororo",
    "city_zh": "托罗罗",
    "country": "Uganda",
    "country_zh": "烏干達",
    "country_iso_code": "UG",
    "timezone": "Africa/Kampala",
    "latitude": 0.69299,
    "longitude": 34.18085
  },
  {
    "city": "Torome",
    "city_zh": "Torome",
    "country": "Uganda",
    "country_zh": "烏干達",
    "country_iso_code": "UG",
    "timezone": "Africa/Kampala",
    "latitude": 3.24517,
    "longitude": 30.99658
  },
  {
    "city": "Toroma",
    "city_zh": "Toroma",
    "country": "Uganda",
    "country_zh": "烏干達",
    "country_iso_code": "UG",
    "timezone": "Africa/Kampala",
    "latitude": 1.75364,
    "longitude": 33.95743
  },
  {
    "city": "Tonya",
    "city_zh": "Tonya",
    "country": "Uganda",
    "country_zh": "烏干達",
    "country_iso_code": "UG",
    "timezone": "Africa/Kampala",
    "latitude": 1.58525,
    "longitude": 31.08834
  },
  {
    "city": "Tongo",
    "city_zh": "Tongo",
    "country": "Uganda",
    "country_zh": "烏干達",
    "country_iso_code": "UG",
    "timezone": "Africa/Kampala",
    "latitude": 0.78333,
    "longitude": 32.73333
  },
  {
    "city": "Tondolo",
    "city_zh": "Tondolo",
    "country": "Uganda",
    "country_zh": "烏干達",
    "country_iso_code": "UG",
    "timezone": "Africa/Kampala",
    "latitude": 3.20047,
    "longitude": 31.10875
  },
  {
    "city": "Tondola",
    "city_zh": "Tondola",
    "country": "Uganda",
    "country_zh": "烏干達",
    "country_iso_code": "UG",
    "timezone": "Africa/Kampala",
    "latitude": 0.16667,
    "longitude": 31.9
  },
  {
    "city": "Tondegejerako",
    "city_zh": "Tondegejerako",
    "country": "Uganda",
    "country_zh": "烏干達",
    "country_iso_code": "UG",
    "timezone": "Africa/Kampala",
    "latitude": 0.46667,
    "longitude": 31.9
  },
  {
    "city": "Tomi",
    "city_zh": "Tomi",
    "country": "Uganda",
    "country_zh": "烏干達",
    "country_iso_code": "UG",
    "timezone": "Africa/Kampala",
    "latitude": 0.68333,
    "longitude": 32.75
  },
  {
    "city": "Tomi",
    "city_zh": "Tomi",
    "country": "Uganda",
    "country_zh": "烏干達",
    "country_iso_code": "UG",
    "timezone": "Africa/Kampala",
    "latitude": 0.93217,
    "longitude": 34.26316
  },
  {
    "city": "Tolwe",
    "city_zh": "Tolwe",
    "country": "Uganda",
    "country_zh": "烏干達",
    "country_iso_code": "UG",
    "timezone": "Africa/Kampala",
    "latitude": 1.59902,
    "longitude": 32.22315
  },
  {
    "city": "Tokaru",
    "city_zh": "Tokaru",
    "country": "Uganda",
    "country_zh": "烏干達",
    "country_iso_code": "UG",
    "timezone": "Africa/Kampala",
    "latitude": 3.36667,
    "longitude": 31.46212
  },
  {
    "city": "Titim",
    "city_zh": "Titim",
    "country": "Uganda",
    "country_zh": "烏干達",
    "country_iso_code": "UG",
    "timezone": "Africa/Kampala",
    "latitude": 3.42434,
    "longitude": 33.66555
  },
  {
    "city": "Tiriri",
    "city_zh": "Tiriri",
    "country": "Uganda",
    "country_zh": "烏干達",
    "country_iso_code": "UG",
    "timezone": "Africa/Kampala",
    "latitude": 1.89852,
    "longitude": 33.45906
  },
  {
    "city": "Tiira",
    "city_zh": "Tiira",
    "country": "Uganda",
    "country_zh": "烏干達",
    "country_iso_code": "UG",
    "timezone": "Africa/Kampala",
    "latitude": 0.51329,
    "longitude": 34.07756
  },
  {
    "city": "Timba",
    "city_zh": "Timba",
    "country": "Uganda",
    "country_zh": "烏干達",
    "country_iso_code": "UG",
    "timezone": "Africa/Kampala",
    "latitude": 0.65,
    "longitude": 32.71667
  },
  {
    "city": "Tilling",
    "city_zh": "Tilling",
    "country": "Uganda",
    "country_zh": "烏干達",
    "country_iso_code": "UG",
    "timezone": "Africa/Kampala",
    "latitude": 1.41667,
    "longitude": 33.71667
  },
  {
    "city": "Tirinyi",
    "city_zh": "Tirinyi",
    "country": "Uganda",
    "country_zh": "烏干達",
    "country_iso_code": "UG",
    "timezone": "Africa/Kampala",
    "latitude": 0.99667,
    "longitude": 33.79204
  },
  {
    "city": "Te-Okot",
    "city_zh": "Te-Okot",
    "country": "Uganda",
    "country_zh": "烏干達",
    "country_iso_code": "UG",
    "timezone": "Africa/Kampala",
    "latitude": 2.50628,
    "longitude": 31.58676
  },
  {
    "city": "Tente",
    "city_zh": "Tente",
    "country": "Uganda",
    "country_zh": "烏干達",
    "country_iso_code": "UG",
    "timezone": "Africa/Kampala",
    "latitude": 0.73333,
    "longitude": 32.88333
  },
  {
    "city": "Temangalo",
    "city_zh": "Temangalo",
    "country": "Uganda",
    "country_zh": "烏干達",
    "country_iso_code": "UG",
    "timezone": "Africa/Kampala",
    "latitude": 0.35479,
    "longitude": 32.46286
  },
  {
    "city": "Telamot",
    "city_zh": "Telamot",
    "country": "Uganda",
    "country_zh": "烏干達",
    "country_iso_code": "UG",
    "timezone": "Africa/Kampala",
    "latitude": 1.77237,
    "longitude": 33.69646
  },
  {
    "city": "Tekala",
    "city_zh": "Tekala",
    "country": "Uganda",
    "country_zh": "烏干達",
    "country_iso_code": "UG",
    "timezone": "Africa/Kampala",
    "latitude": -0.43333,
    "longitude": 31.81667
  },
  {
    "city": "Teilwa",
    "city_zh": "Teilwa",
    "country": "Uganda",
    "country_zh": "烏干達",
    "country_iso_code": "UG",
    "timezone": "Africa/Kampala",
    "latitude": 1.88841,
    "longitude": 32.68084
  },
  {
    "city": "Teginya",
    "city_zh": "Teginya",
    "country": "Uganda",
    "country_zh": "烏干達",
    "country_iso_code": "UG",
    "timezone": "Africa/Kampala",
    "latitude": 0.23333,
    "longitude": 31.96667
  },
  {
    "city": "Tegeress",
    "city_zh": "Tegeress",
    "country": "Uganda",
    "country_zh": "烏干達",
    "country_iso_code": "UG",
    "timezone": "Africa/Kampala",
    "latitude": 1.38333,
    "longitude": 34.4
  },
  {
    "city": "Tegaligwa",
    "city_zh": "Tegaligwa",
    "country": "Uganda",
    "country_zh": "烏干達",
    "country_iso_code": "UG",
    "timezone": "Africa/Kampala",
    "latitude": 0.15,
    "longitude": 31.61667
  },
  {
    "city": "Teboke",
    "city_zh": "Teboke",
    "country": "Uganda",
    "country_zh": "烏干達",
    "country_iso_code": "UG",
    "timezone": "Africa/Kampala",
    "latitude": 1.81428,
    "longitude": 32.31268
  },
  {
    "city": "Te’bito",
    "city_zh": "Te’bito",
    "country": "Uganda",
    "country_zh": "烏干達",
    "country_iso_code": "UG",
    "timezone": "Africa/Kampala",
    "latitude": 2.40884,
    "longitude": 31.75066
  },
  {
    "city": "Tebalowoza",
    "city_zh": "Tebalowoza",
    "country": "Uganda",
    "country_zh": "烏干達",
    "country_iso_code": "UG",
    "timezone": "Africa/Kampala",
    "latitude": 0.37811,
    "longitude": 32.98688
  },
  {
    "city": "Tata",
    "city_zh": "Tata",
    "country": "Uganda",
    "country_zh": "烏干達",
    "country_iso_code": "UG",
    "timezone": "Africa/Kampala",
    "latitude": 2.50827,
    "longitude": 31.09143
  },
  {
    "city": "Tarogali",
    "city_zh": "Tarogali",
    "country": "Uganda",
    "country_zh": "烏干達",
    "country_iso_code": "UG",
    "timezone": "Africa/Kampala",
    "latitude": 1.82772,
    "longitude": 32.3381
  },
  {
    "city": "Tara",
    "city_zh": "Tara",
    "country": "Uganda",
    "country_zh": "烏干達",
    "country_iso_code": "UG",
    "timezone": "Africa/Kampala",
    "latitude": 3.3102,
    "longitude": 31.0334
  },
  {
    "city": "Tangala",
    "city_zh": "Tangala",
    "country": "Uganda",
    "country_zh": "烏干達",
    "country_iso_code": "UG",
    "timezone": "Africa/Kampala",
    "latitude": 3.04687,
    "longitude": 31.1359
  },
  {
    "city": "Tamu",
    "city_zh": "Tamu",
    "country": "Uganda",
    "country_zh": "烏干達",
    "country_iso_code": "UG",
    "timezone": "Africa/Kampala",
    "latitude": 0.38533,
    "longitude": 32.10308
  },
  {
    "city": "Takajunge",
    "city_zh": "Takajunge",
    "country": "Uganda",
    "country_zh": "烏干達",
    "country_iso_code": "UG",
    "timezone": "Africa/Kampala",
    "latitude": 0.3866,
    "longitude": 32.75771
  },
  {
    "city": "Tademeri",
    "city_zh": "Tademeri",
    "country": "Uganda",
    "country_zh": "烏干達",
    "country_iso_code": "UG",
    "timezone": "Africa/Kampala",
    "latitude": 0.99028,
    "longitude": 33.96972
  },
  {
    "city": "Tabagonyi",
    "city_zh": "Tabagonyi",
    "country": "Uganda",
    "country_zh": "烏干達",
    "country_iso_code": "UG",
    "timezone": "Africa/Kampala",
    "latitude": 1.46667,
    "longitude": 34.4
  },
  {
    "city": "Taba",
    "city_zh": "Taba",
    "country": "Uganda",
    "country_zh": "烏干達",
    "country_iso_code": "UG",
    "timezone": "Africa/Kampala",
    "latitude": 0.20808,
    "longitude": 32.02423
  },
  {
    "city": "Taan Valley",
    "city_zh": "Taan Valley",
    "country": "Uganda",
    "country_zh": "烏干達",
    "country_iso_code": "UG",
    "timezone": "Africa/Kampala",
    "latitude": 3.80202,
    "longitude": 33.8346
  },
  {
    "city": "Swagere",
    "city_zh": "Swagere",
    "country": "Uganda",
    "country_zh": "烏干達",
    "country_iso_code": "UG",
    "timezone": "Africa/Kampala",
    "latitude": 1.55001,
    "longitude": 33.0029
  },
  {
    "city": "Supa",
    "city_zh": "Supa",
    "country": "Uganda",
    "country_zh": "烏干達",
    "country_iso_code": "UG",
    "timezone": "Africa/Kampala",
    "latitude": 1.16667,
    "longitude": 33.73333
  },
  {
    "city": "Suni",
    "city_zh": "Suni",
    "country": "Uganda",
    "country_zh": "烏干達",
    "country_iso_code": "UG",
    "timezone": "Africa/Kampala",
    "latitude": 0.9566,
    "longitude": 33.89635
  },
  {
    "city": "Sunga",
    "city_zh": "Sunga",
    "country": "Uganda",
    "country_zh": "烏干達",
    "country_iso_code": "UG",
    "timezone": "Africa/Kampala",
    "latitude": 0.92722,
    "longitude": 30.87639
  },
  {
    "city": "Sunga",
    "city_zh": "Sunga",
    "country": "Uganda",
    "country_zh": "烏干達",
    "country_iso_code": "UG",
    "timezone": "Africa/Kampala",
    "latitude": 0.56667,
    "longitude": 31.25
  },
  {
    "city": "Sunga",
    "city_zh": "Sunga",
    "country": "Uganda",
    "country_zh": "烏干達",
    "country_iso_code": "UG",
    "timezone": "Africa/Kampala",
    "latitude": -0.30111,
    "longitude": 31.88083
  },
  {
    "city": "Sunga",
    "city_zh": "Sunga",
    "country": "Uganda",
    "country_zh": "烏干達",
    "country_iso_code": "UG",
    "timezone": "Africa/Kampala",
    "latitude": -0.1,
    "longitude": 31.85
  },
  {
    "city": "Osukuru",
    "city_zh": "Osukuru",
    "country": "Uganda",
    "country_zh": "烏干達",
    "country_iso_code": "UG",
    "timezone": "Africa/Kampala",
    "latitude": 0.66238,
    "longitude": 34.1556
  },
  {
    "city": "Suguru",
    "city_zh": "Suguru",
    "country": "Uganda",
    "country_zh": "烏干達",
    "country_iso_code": "UG",
    "timezone": "Africa/Kampala",
    "latitude": 1.78854,
    "longitude": 33.82536
  },
  {
    "city": "Suugu-Mutwa",
    "city_zh": "Suugu-Mutwa",
    "country": "Uganda",
    "country_zh": "烏干達",
    "country_iso_code": "UG",
    "timezone": "Africa/Kampala",
    "latitude": 0.26256,
    "longitude": 32.96706
  },
  {
    "city": "Sugu-Lugala",
    "city_zh": "Sugu-Lugala",
    "country": "Uganda",
    "country_zh": "烏干達",
    "country_iso_code": "UG",
    "timezone": "Africa/Kampala",
    "latitude": 0.22228,
    "longitude": 32.69213
  },
  {
    "city": "Sugu",
    "city_zh": "Sugu",
    "country": "Uganda",
    "country_zh": "烏干達",
    "country_iso_code": "UG",
    "timezone": "Africa/Kampala",
    "latitude": 0.16167,
    "longitude": 32.93804
  },
  {
    "city": "Suam",
    "city_zh": "Suam",
    "country": "Uganda",
    "country_zh": "烏干達",
    "country_iso_code": "UG",
    "timezone": "Africa/Kampala",
    "latitude": 1.21667,
    "longitude": 34.71667
  },
  {
    "city": "Ssenya",
    "city_zh": "Ssenya",
    "country": "Uganda",
    "country_zh": "烏干達",
    "country_iso_code": "UG",
    "timezone": "Africa/Kampala",
    "latitude": -0.38333,
    "longitude": 31.65
  },
  {
    "city": "Soroti",
    "city_zh": "索羅提",
    "country": "Uganda",
    "country_zh": "烏干達",
    "country_iso_code": "UG",
    "timezone": "Africa/Kampala",
    "latitude": 1.71464,
    "longitude": 33.61113
  },
  {
    "city": "Sopsop",
    "city_zh": "Sopsop",
    "country": "Uganda",
    "country_zh": "烏干達",
    "country_iso_code": "UG",
    "timezone": "Africa/Kampala",
    "latitude": 0.81817,
    "longitude": 34.07592
  },
  {
    "city": "Sonso",
    "city_zh": "Sonso",
    "country": "Uganda",
    "country_zh": "烏干達",
    "country_iso_code": "UG",
    "timezone": "Africa/Kampala",
    "latitude": 1.65468,
    "longitude": 31.57897
  },
  {
    "city": "Soni",
    "city_zh": "Soni",
    "country": "Uganda",
    "country_zh": "烏干達",
    "country_iso_code": "UG",
    "timezone": "Africa/Kampala",
    "latitude": 0.76667,
    "longitude": 33.95
  },
  {
    "city": "Sonde",
    "city_zh": "Sonde",
    "country": "Uganda",
    "country_zh": "烏干達",
    "country_iso_code": "UG",
    "timezone": "Africa/Kampala",
    "latitude": 0.39477,
    "longitude": 32.70257
  },
  {
    "city": "Soona",
    "city_zh": "Soona",
    "country": "Uganda",
    "country_zh": "烏干達",
    "country_iso_code": "UG",
    "timezone": "Africa/Kampala",
    "latitude": 0.56041,
    "longitude": 33.00964
  },
  {
    "city": "Sokolo",
    "city_zh": "Sokolo",
    "country": "Uganda",
    "country_zh": "烏干達",
    "country_iso_code": "UG",
    "timezone": "Africa/Kampala",
    "latitude": 0.19816,
    "longitude": 32.4021
  },
  {
    "city": "Sogolelo",
    "city_zh": "Sogolelo",
    "country": "Uganda",
    "country_zh": "烏干達",
    "country_iso_code": "UG",
    "timezone": "Africa/Kampala",
    "latitude": 0.66667,
    "longitude": 32.03333
  },
  {
    "city": "Sobya",
    "city_zh": "Sobya",
    "country": "Uganda",
    "country_zh": "烏干達",
    "country_iso_code": "UG",
    "timezone": "Africa/Kampala",
    "latitude": 1.26667,
    "longitude": 32.85
  },
  {
    "city": "Situi",
    "city_zh": "Situi",
    "country": "Uganda",
    "country_zh": "烏干達",
    "country_iso_code": "UG",
    "timezone": "Africa/Kampala",
    "latitude": 0.88333,
    "longitude": 34.33333
  },
  {
    "city": "Ssisa",
    "city_zh": "Ssisa",
    "country": "Uganda",
    "country_zh": "烏干達",
    "country_iso_code": "UG",
    "timezone": "Africa/Kampala",
    "latitude": 0.17901,
    "longitude": 32.49477
  },
  {
    "city": "Sironko",
    "city_zh": "錫龍科",
    "country": "Uganda",
    "country_zh": "烏干達",
    "country_iso_code": "UG",
    "timezone": "Africa/Kampala",
    "latitude": 1.23132,
    "longitude": 34.24773
  },
  {
    "city": "Sipi",
    "city_zh": "Sipi",
    "country": "Uganda",
    "country_zh": "烏干達",
    "country_iso_code": "UG",
    "timezone": "Africa/Kampala",
    "latitude": 1.30972,
    "longitude": 34.37417
  },
  {
    "city": "Sinyu",
    "city_zh": "Sinyu",
    "country": "Uganda",
    "country_zh": "烏干達",
    "country_iso_code": "UG",
    "timezone": "Africa/Kampala",
    "latitude": 2.7,
    "longitude": 34.3
  },
  {
    "city": "Sinya",
    "city_zh": "Sinya",
    "country": "Uganda",
    "country_zh": "烏干達",
    "country_iso_code": "UG",
    "timezone": "Africa/Kampala",
    "latitude": 0.83419,
    "longitude": 34.24104
  },
  {
    "city": "Singya",
    "city_zh": "Singya",
    "country": "Uganda",
    "country_zh": "烏干達",
    "country_iso_code": "UG",
    "timezone": "Africa/Kampala",
    "latitude": 1.31667,
    "longitude": 32.25
  },
  {
    "city": "Simu",
    "city_zh": "Simu",
    "country": "Uganda",
    "country_zh": "烏干達",
    "country_iso_code": "UG",
    "timezone": "Africa/Kampala",
    "latitude": 1.3,
    "longitude": 34.3
  },
  {
    "city": "Simbli",
    "city_zh": "Simbli",
    "country": "Uganda",
    "country_zh": "烏干達",
    "country_iso_code": "UG",
    "timezone": "Africa/Kampala",
    "latitude": 3.27441,
    "longitude": 30.88116
  },
  {
    "city": "Simba",
    "city_zh": "Simba",
    "country": "Uganda",
    "country_zh": "烏干達",
    "country_iso_code": "UG",
    "timezone": "Africa/Kampala",
    "latitude": -0.85,
    "longitude": 31.51667
  },
  {
    "city": "Silobera",
    "city_zh": "Silobera",
    "country": "Uganda",
    "country_zh": "烏干達",
    "country_iso_code": "UG",
    "timezone": "Africa/Kampala",
    "latitude": 0.63333,
    "longitude": 32.03333
  },
  {
    "city": "Silobera",
    "city_zh": "Silobera",
    "country": "Uganda",
    "country_zh": "烏干達",
    "country_iso_code": "UG",
    "timezone": "Africa/Kampala",
    "latitude": 0.58333,
    "longitude": 31.96667
  },
  {
    "city": "Sikye",
    "city_zh": "Sikye",
    "country": "Uganda",
    "country_zh": "烏干達",
    "country_iso_code": "UG",
    "timezone": "Africa/Kampala",
    "latitude": 1.31667,
    "longitude": 32.4
  },
  {
    "city": "Sikunga",
    "city_zh": "Sikunga",
    "country": "Uganda",
    "country_zh": "烏干達",
    "country_iso_code": "UG",
    "timezone": "Africa/Kampala",
    "latitude": 0.96667,
    "longitude": 34.35
  },
  {
    "city": "Sikuda",
    "city_zh": "Sikuda",
    "country": "Uganda",
    "country_zh": "烏干達",
    "country_iso_code": "UG",
    "timezone": "Africa/Kampala",
    "latitude": 0.48333,
    "longitude": 34.05
  },
  {
    "city": "Sikakoko",
    "city_zh": "Sikakoko",
    "country": "Uganda",
    "country_zh": "烏干達",
    "country_iso_code": "UG",
    "timezone": "Africa/Kampala",
    "latitude": 0.96667,
    "longitude": 31.2
  },
  {
    "city": "Sigogwesere",
    "city_zh": "Sigogwesere",
    "country": "Uganda",
    "country_zh": "烏干達",
    "country_iso_code": "UG",
    "timezone": "Africa/Kampala",
    "latitude": 1.01667,
    "longitude": 32.21667
  },
  {
    "city": "Siggi",
    "city_zh": "Siggi",
    "country": "Uganda",
    "country_zh": "烏干達",
    "country_iso_code": "UG",
    "timezone": "Africa/Kampala",
    "latitude": 0.25,
    "longitude": 32.23333
  },
  {
    "city": "Sifuyo",
    "city_zh": "Sifuyo",
    "country": "Uganda",
    "country_zh": "烏干達",
    "country_iso_code": "UG",
    "timezone": "Africa/Kampala",
    "latitude": 0.37137,
    "longitude": 33.98446
  },
  {
    "city": "Shuku",
    "city_zh": "Shuku",
    "country": "Uganda",
    "country_zh": "烏干達",
    "country_iso_code": "UG",
    "timezone": "Africa/Kampala",
    "latitude": -0.67083,
    "longitude": 30.32389
  },
  {
    "city": "Seeta",
    "city_zh": "Seeta",
    "country": "Uganda",
    "country_zh": "烏干達",
    "country_iso_code": "UG",
    "timezone": "Africa/Kampala",
    "latitude": 0.55082,
    "longitude": 33.03846
  },
  {
    "city": "Seta",
    "city_zh": "Seta",
    "country": "Uganda",
    "country_zh": "烏干達",
    "country_iso_code": "UG",
    "timezone": "Africa/Kampala",
    "latitude": 0.36896,
    "longitude": 32.7139
  },
  {
    "city": "Seeta",
    "city_zh": "Seeta",
    "country": "Uganda",
    "country_zh": "烏干達",
    "country_iso_code": "UG",
    "timezone": "Africa/Kampala",
    "latitude": 0.31723,
    "longitude": 32.8434
  },
  {
    "city": "Sesiriba",
    "city_zh": "Sesiriba",
    "country": "Uganda",
    "country_zh": "烏干達",
    "country_iso_code": "UG",
    "timezone": "Africa/Kampala",
    "latitude": 0.47972,
    "longitude": 32.43624
  },
  {
    "city": "Seseme",
    "city_zh": "Seseme",
    "country": "Uganda",
    "country_zh": "烏干達",
    "country_iso_code": "UG",
    "timezone": "Africa/Kampala",
    "latitude": -1.26667,
    "longitude": 29.7
  },
  {
    "city": "Ssese",
    "city_zh": "Ssese",
    "country": "Uganda",
    "country_zh": "烏干達",
    "country_iso_code": "UG",
    "timezone": "Africa/Kampala",
    "latitude": 0.42709,
    "longitude": 32.98602
  },
  {
    "city": "Serinya",
    "city_zh": "Serinya",
    "country": "Uganda",
    "country_zh": "烏干達",
    "country_iso_code": "UG",
    "timezone": "Africa/Kampala",
    "latitude": -0.23333,
    "longitude": 31.68333
  },
  {
    "city": "Serinya",
    "city_zh": "Serinya",
    "country": "Uganda",
    "country_zh": "烏干達",
    "country_iso_code": "UG",
    "timezone": "Africa/Kampala",
    "latitude": 0.06667,
    "longitude": 31.7
  },
  {
    "city": "Serere",
    "city_zh": "Serere",
    "country": "Uganda",
    "country_zh": "烏干達",
    "country_iso_code": "UG",
    "timezone": "Africa/Kampala",
    "latitude": 1.49417,
    "longitude": 33.45528
  },
  {
    "city": "Serenge",
    "city_zh": "Serenge",
    "country": "Uganda",
    "country_zh": "烏干達",
    "country_iso_code": "UG",
    "timezone": "Africa/Kampala",
    "latitude": -0.05,
    "longitude": 31.06667
  },
  {
    "city": "Sere",
    "city_zh": "Sere",
    "country": "Uganda",
    "country_zh": "烏干達",
    "country_iso_code": "UG",
    "timezone": "Africa/Kampala",
    "latitude": 0.81319,
    "longitude": 34.01805
  },
  {
    "city": "Senyi",
    "city_zh": "Senyi",
    "country": "Uganda",
    "country_zh": "烏干達",
    "country_iso_code": "UG",
    "timezone": "Africa/Kampala",
    "latitude": 0.31442,
    "longitude": 32.6993
  },
  {
    "city": "Senyi",
    "city_zh": "Senyi",
    "country": "Uganda",
    "country_zh": "烏干達",
    "country_iso_code": "UG",
    "timezone": "Africa/Kampala",
    "latitude": 0.16327,
    "longitude": 33.03946
  },
  {
    "city": "Sentema",
    "city_zh": "Sentema",
    "country": "Uganda",
    "country_zh": "烏干達",
    "country_iso_code": "UG",
    "timezone": "Africa/Kampala",
    "latitude": 0.36891,
    "longitude": 32.41582
  },
  {
    "city": "Senge",
    "city_zh": "Senge",
    "country": "Uganda",
    "country_zh": "烏干達",
    "country_iso_code": "UG",
    "timezone": "Africa/Kampala",
    "latitude": 0.40653,
    "longitude": 32.51179
  },
  {
    "city": "Senene",
    "city_zh": "Senene",
    "country": "Uganda",
    "country_zh": "烏干達",
    "country_iso_code": "UG",
    "timezone": "Africa/Kampala",
    "latitude": 0.20623,
    "longitude": 32.35103
  },
  {
    "city": "Senene",
    "city_zh": "Senene",
    "country": "Uganda",
    "country_zh": "烏干達",
    "country_iso_code": "UG",
    "timezone": "Africa/Kampala",
    "latitude": 0.20156,
    "longitude": 32.13968
  },
  {
    "city": "Semuto",
    "city_zh": "Semuto",
    "country": "Uganda",
    "country_zh": "烏干達",
    "country_iso_code": "UG",
    "timezone": "Africa/Kampala",
    "latitude": 0.62722,
    "longitude": 32.31333
  },
  {
    "city": "Semuto",
    "city_zh": "Semuto",
    "country": "Uganda",
    "country_zh": "烏干達",
    "country_iso_code": "UG",
    "timezone": "Africa/Kampala",
    "latitude": 0.51139,
    "longitude": 31.24889
  },
  {
    "city": "Sempya",
    "city_zh": "Sempya",
    "country": "Uganda",
    "country_zh": "烏干達",
    "country_iso_code": "UG",
    "timezone": "Africa/Kampala",
    "latitude": 0.491,
    "longitude": 32.22433
  },
  {
    "city": "Sempaya",
    "city_zh": "Sempaya",
    "country": "Uganda",
    "country_zh": "烏干達",
    "country_iso_code": "UG",
    "timezone": "Africa/Kampala",
    "latitude": 0.84849,
    "longitude": 30.17386
  },
  {
    "city": "Sempa",
    "city_zh": "Sempa",
    "country": "Uganda",
    "country_zh": "烏干達",
    "country_iso_code": "UG",
    "timezone": "Africa/Kampala",
    "latitude": 0.69417,
    "longitude": 32.57139
  },
  {
    "city": "Sembabule",
    "city_zh": "Sembabule",
    "country": "Uganda",
    "country_zh": "烏干達",
    "country_iso_code": "UG",
    "timezone": "Africa/Kampala",
    "latitude": -0.07722,
    "longitude": 31.45667
  },
  {
    "city": "Sekanyonyi",
    "city_zh": "Sekanyonyi",
    "country": "Uganda",
    "country_zh": "烏干達",
    "country_iso_code": "UG",
    "timezone": "Africa/Kampala",
    "latitude": 0.50889,
    "longitude": 32.12389
  },
  {
    "city": "Sekamuli",
    "city_zh": "Sekamuli",
    "country": "Uganda",
    "country_zh": "烏干達",
    "country_iso_code": "UG",
    "timezone": "Africa/Kampala",
    "latitude": 0.75528,
    "longitude": 32.61694
  },
  {
    "city": "Seja",
    "city_zh": "Seja",
    "country": "Uganda",
    "country_zh": "烏干達",
    "country_iso_code": "UG",
    "timezone": "Africa/Kampala",
    "latitude": 0.22475,
    "longitude": 33.32006
  },
  {
    "city": "Segero",
    "city_zh": "Segero",
    "country": "Uganda",
    "country_zh": "烏干達",
    "country_iso_code": "UG",
    "timezone": "Africa/Kampala",
    "latitude": 0.65,
    "longitude": 33.7
  },
  {
    "city": "Seganga",
    "city_zh": "Seganga",
    "country": "Uganda",
    "country_zh": "烏干達",
    "country_iso_code": "UG",
    "timezone": "Africa/Kampala",
    "latitude": 0.53333,
    "longitude": 32.31667
  },
  {
    "city": "Seta",
    "city_zh": "Seta",
    "country": "Uganda",
    "country_zh": "烏干達",
    "country_iso_code": "UG",
    "timezone": "Africa/Kampala",
    "latitude": 0.38957,
    "longitude": 32.70408
  },
  {
    "city": "Seeta",
    "city_zh": "Seeta",
    "country": "Uganda",
    "country_zh": "烏干達",
    "country_iso_code": "UG",
    "timezone": "Africa/Kampala",
    "latitude": 0.0,
    "longitude": 31.93333
  },
  {
    "city": "Sebanda",
    "city_zh": "Sebanda",
    "country": "Uganda",
    "country_zh": "烏干達",
    "country_iso_code": "UG",
    "timezone": "Africa/Kampala",
    "latitude": 0.61667,
    "longitude": 32.2
  },
  {
    "city": "Sazike",
    "city_zh": "Sazike",
    "country": "Uganda",
    "country_zh": "烏干達",
    "country_iso_code": "UG",
    "timezone": "Africa/Kampala",
    "latitude": 0.83333,
    "longitude": 31.4
  },
  {
    "city": "Sazi",
    "city_zh": "Sazi",
    "country": "Uganda",
    "country_zh": "烏干達",
    "country_iso_code": "UG",
    "timezone": "Africa/Kampala",
    "latitude": 0.10013,
    "longitude": 32.43078
  },
  {
    "city": "Sasasa",
    "city_zh": "Sasasa",
    "country": "Uganda",
    "country_zh": "烏干達",
    "country_iso_code": "UG",
    "timezone": "Africa/Kampala",
    "latitude": 0.6,
    "longitude": 32.58333
  },
  {
    "city": "Sapiri",
    "city_zh": "Sapiri",
    "country": "Uganda",
    "country_zh": "烏干達",
    "country_iso_code": "UG",
    "timezone": "Africa/Kampala",
    "latitude": 1.50151,
    "longitude": 33.545
  },
  {
    "city": "Sanje",
    "city_zh": "Sanje",
    "country": "Uganda",
    "country_zh": "烏干達",
    "country_iso_code": "UG",
    "timezone": "Africa/Kampala",
    "latitude": -0.78028,
    "longitude": 31.49972
  },
  {
    "city": "Sango",
    "city_zh": "Sango",
    "country": "Uganda",
    "country_zh": "烏干達",
    "country_iso_code": "UG",
    "timezone": "Africa/Kampala",
    "latitude": 0.03959,
    "longitude": 32.10466
  },
  {
    "city": "Sangai",
    "city_zh": "Sangai",
    "country": "Uganda",
    "country_zh": "烏干達",
    "country_iso_code": "UG",
    "timezone": "Africa/Kampala",
    "latitude": 1.71789,
    "longitude": 33.37888
  },
  {
    "city": "Sanga",
    "city_zh": "Sanga",
    "country": "Uganda",
    "country_zh": "烏干達",
    "country_iso_code": "UG",
    "timezone": "Africa/Kampala",
    "latitude": -0.51667,
    "longitude": 30.0
  },
  {
    "city": "Sunga",
    "city_zh": "Sunga",
    "country": "Uganda",
    "country_zh": "烏干達",
    "country_iso_code": "UG",
    "timezone": "Africa/Kampala",
    "latitude": -0.54694,
    "longitude": 30.61889
  },
  {
    "city": "Sanga",
    "city_zh": "Sanga",
    "country": "Uganda",
    "country_zh": "烏干達",
    "country_iso_code": "UG",
    "timezone": "Africa/Kampala",
    "latitude": 0.29504,
    "longitude": 32.74007
  },
  {
    "city": "Sanga",
    "city_zh": "Sanga",
    "country": "Uganda",
    "country_zh": "烏干達",
    "country_iso_code": "UG",
    "timezone": "Africa/Kampala",
    "latitude": 0.27713,
    "longitude": 33.11827
  },
  {
    "city": "Sambwe",
    "city_zh": "Sambwe",
    "country": "Uganda",
    "country_zh": "烏干達",
    "country_iso_code": "UG",
    "timezone": "Africa/Kampala",
    "latitude": 0.56667,
    "longitude": 32.48333
  },
  {
    "city": "Sama",
    "city_zh": "Sama",
    "country": "Uganda",
    "country_zh": "烏干達",
    "country_iso_code": "UG",
    "timezone": "Africa/Kampala",
    "latitude": 0.07127,
    "longitude": 32.2177
  },
  {
    "city": "Salami",
    "city_zh": "Salami",
    "country": "Uganda",
    "country_zh": "烏干達",
    "country_iso_code": "UG",
    "timezone": "Africa/Kampala",
    "latitude": 2.35,
    "longitude": 33.55
  },
  {
    "city": "Salama",
    "city_zh": "Salama",
    "country": "Uganda",
    "country_zh": "烏干達",
    "country_iso_code": "UG",
    "timezone": "Africa/Kampala",
    "latitude": 0.19013,
    "longitude": 32.81946
  },
  {
    "city": "Salalira",
    "city_zh": "Salalira",
    "country": "Uganda",
    "country_zh": "烏干達",
    "country_iso_code": "UG",
    "timezone": "Africa/Kampala",
    "latitude": 1.23333,
    "longitude": 34.3
  },
  {
    "city": "Sula",
    "city_zh": "Sula",
    "country": "Uganda",
    "country_zh": "烏干達",
    "country_iso_code": "UG",
    "timezone": "Africa/Kampala",
    "latitude": 0.39388,
    "longitude": 32.17113
  },
  {
    "city": "Sala",
    "city_zh": "Sala",
    "country": "Uganda",
    "country_zh": "烏干達",
    "country_iso_code": "UG",
    "timezone": "Africa/Kampala",
    "latitude": 0.0,
    "longitude": 31.73333
  },
  {
    "city": "Sakabusolo",
    "city_zh": "Sakabusolo",
    "country": "Uganda",
    "country_zh": "烏干達",
    "country_iso_code": "UG",
    "timezone": "Africa/Kampala",
    "latitude": 0.4,
    "longitude": 33.73333
  },
  {
    "city": "Sakabusolo",
    "city_zh": "Sakabusolo",
    "country": "Uganda",
    "country_zh": "烏干達",
    "country_iso_code": "UG",
    "timezone": "Africa/Kampala",
    "latitude": 0.15152,
    "longitude": 32.45217
  },
  {
    "city": "Sakabusolo",
    "city_zh": "Sakabusolo",
    "country": "Uganda",
    "country_zh": "烏干達",
    "country_iso_code": "UG",
    "timezone": "Africa/Kampala",
    "latitude": 0.07591,
    "longitude": 32.05684
  },
  {
    "city": "Saka",
    "city_zh": "Saka",
    "country": "Uganda",
    "country_zh": "烏干達",
    "country_iso_code": "UG",
    "timezone": "Africa/Kampala",
    "latitude": 1.11667,
    "longitude": 33.58333
  },
  {
    "city": "Sagala",
    "city_zh": "Sagala",
    "country": "Uganda",
    "country_zh": "烏干達",
    "country_iso_code": "UG",
    "timezone": "Africa/Kampala",
    "latitude": 0.14625,
    "longitude": 32.42238
  },
  {
    "city": "Ryeru",
    "city_zh": "Ryeru",
    "country": "Uganda",
    "country_zh": "烏干達",
    "country_iso_code": "UG",
    "timezone": "Africa/Kampala",
    "latitude": -0.3,
    "longitude": 30.1
  },
  {
    "city": "Ryangabi",
    "city_zh": "Ryangabi",
    "country": "Uganda",
    "country_zh": "烏干達",
    "country_iso_code": "UG",
    "timezone": "Africa/Kampala",
    "latitude": -0.06667,
    "longitude": 30.31667
  },
  {
    "city": "Ryamurunga",
    "city_zh": "Ryamurunga",
    "country": "Uganda",
    "country_zh": "烏干達",
    "country_iso_code": "UG",
    "timezone": "Africa/Kampala",
    "latitude": -0.915,
    "longitude": 30.74917
  },
  {
    "city": "Ryakagongo",
    "city_zh": "Ryakagongo",
    "country": "Uganda",
    "country_zh": "烏干達",
    "country_iso_code": "UG",
    "timezone": "Africa/Kampala",
    "latitude": -0.13333,
    "longitude": 30.45
  },
  {
    "city": "Ryabagoma",
    "city_zh": "Ryabagoma",
    "country": "Uganda",
    "country_zh": "烏干達",
    "country_iso_code": "UG",
    "timezone": "Africa/Kampala",
    "latitude": -0.45139,
    "longitude": 30.11806
  },
  {
    "city": "Rwomuhoro",
    "city_zh": "Rwomuhoro",
    "country": "Uganda",
    "country_zh": "烏干達",
    "country_iso_code": "UG",
    "timezone": "Africa/Kampala",
    "latitude": -0.11667,
    "longitude": 30.56667
  },
  {
    "city": "Rwoho",
    "city_zh": "Rwoho",
    "country": "Uganda",
    "country_zh": "烏干達",
    "country_iso_code": "UG",
    "timezone": "Africa/Kampala",
    "latitude": -0.85,
    "longitude": 30.53333
  },
  {
    "city": "Rwobusisi",
    "city_zh": "Rwobusisi",
    "country": "Uganda",
    "country_zh": "烏干達",
    "country_iso_code": "UG",
    "timezone": "Africa/Kampala",
    "latitude": -0.11667,
    "longitude": 31.08333
  },
  {
    "city": "Rwihingo",
    "city_zh": "Rwihingo",
    "country": "Uganda",
    "country_zh": "烏干達",
    "country_iso_code": "UG",
    "timezone": "Africa/Kampala",
    "latitude": -0.03333,
    "longitude": 29.8
  },
  {
    "city": "Rwesirabo",
    "city_zh": "Rwesirabo",
    "country": "Uganda",
    "country_zh": "烏干達",
    "country_iso_code": "UG",
    "timezone": "Africa/Kampala",
    "latitude": -0.53944,
    "longitude": 31.02222
  },
  {
    "city": "Rwera",
    "city_zh": "Rwera",
    "country": "Uganda",
    "country_zh": "烏干達",
    "country_iso_code": "UG",
    "timezone": "Africa/Kampala",
    "latitude": -1.04028,
    "longitude": 30.31306
  },
  {
    "city": "Rwentobo",
    "city_zh": "Rwentobo",
    "country": "Uganda",
    "country_zh": "烏干達",
    "country_iso_code": "UG",
    "timezone": "Africa/Kampala",
    "latitude": -1.18944,
    "longitude": 30.19472
  },
  {
    "city": "Rwentanga",
    "city_zh": "Rwentanga",
    "country": "Uganda",
    "country_zh": "烏干達",
    "country_iso_code": "UG",
    "timezone": "Africa/Kampala",
    "latitude": -0.55,
    "longitude": 30.51667
  },
  {
    "city": "Rwensunga",
    "city_zh": "Rwensunga",
    "country": "Uganda",
    "country_zh": "烏干達",
    "country_iso_code": "UG",
    "timezone": "Africa/Kampala",
    "latitude": -0.24361,
    "longitude": 30.9975
  },
  {
    "city": "Rwensinga",
    "city_zh": "Rwensinga",
    "country": "Uganda",
    "country_zh": "烏干達",
    "country_iso_code": "UG",
    "timezone": "Africa/Kampala",
    "latitude": -0.86667,
    "longitude": 30.11667
  },
  {
    "city": "Rwenshama",
    "city_zh": "Rwenshama",
    "country": "Uganda",
    "country_zh": "烏干達",
    "country_iso_code": "UG",
    "timezone": "Africa/Kampala",
    "latitude": -0.41241,
    "longitude": 29.77432
  },
  {
    "city": "Rwenkuba",
    "city_zh": "Rwenkuba",
    "country": "Uganda",
    "country_zh": "烏干達",
    "country_iso_code": "UG",
    "timezone": "Africa/Kampala",
    "latitude": -1.13333,
    "longitude": 30.18333
  },
  {
    "city": "Rwenkuba",
    "city_zh": "Rwenkuba",
    "country": "Uganda",
    "country_zh": "烏干達",
    "country_iso_code": "UG",
    "timezone": "Africa/Kampala",
    "latitude": -0.73333,
    "longitude": 31.11667
  },
  {
    "city": "Rwenkondo",
    "city_zh": "Rwenkondo",
    "country": "Uganda",
    "country_zh": "烏干達",
    "country_iso_code": "UG",
    "timezone": "Africa/Kampala",
    "latitude": -0.61667,
    "longitude": 30.58333
  },
  {
    "city": "Rwenjura",
    "city_zh": "Rwenjura",
    "country": "Uganda",
    "country_zh": "烏干達",
    "country_iso_code": "UG",
    "timezone": "Africa/Kampala",
    "latitude": 0.1,
    "longitude": 29.88333
  },
  {
    "city": "Rwenjaza",
    "city_zh": "Rwenjaza",
    "country": "Uganda",
    "country_zh": "烏干達",
    "country_iso_code": "UG",
    "timezone": "Africa/Kampala",
    "latitude": 0.13333,
    "longitude": 30.45
  },
  {
    "city": "Rwengwe",
    "city_zh": "Rwengwe",
    "country": "Uganda",
    "country_zh": "烏干達",
    "country_iso_code": "UG",
    "timezone": "Africa/Kampala",
    "latitude": -0.35,
    "longitude": 30.41667
  },
  {
    "city": "Rwengwe",
    "city_zh": "Rwengwe",
    "country": "Uganda",
    "country_zh": "烏干達",
    "country_iso_code": "UG",
    "timezone": "Africa/Kampala",
    "latitude": -0.13333,
    "longitude": 30.9
  },
  {
    "city": "Rwengoma",
    "city_zh": "Rwengoma",
    "country": "Uganda",
    "country_zh": "烏干達",
    "country_iso_code": "UG",
    "timezone": "Africa/Kampala",
    "latitude": -0.76444,
    "longitude": 30.16667
  },
  {
    "city": "Rwengoha",
    "city_zh": "Rwengoha",
    "country": "Uganda",
    "country_zh": "烏干達",
    "country_iso_code": "UG",
    "timezone": "Africa/Kampala",
    "latitude": -0.86667,
    "longitude": 30.13333
  },
  {
    "city": "Rwengo",
    "city_zh": "Rwengo",
    "country": "Uganda",
    "country_zh": "烏干達",
    "country_iso_code": "UG",
    "timezone": "Africa/Kampala",
    "latitude": 0.11,
    "longitude": 30.36417
  },
  {
    "city": "Rwene",
    "city_zh": "Rwene",
    "country": "Uganda",
    "country_zh": "烏干達",
    "country_iso_code": "UG",
    "timezone": "Africa/Kampala",
    "latitude": -1.4,
    "longitude": 30.03333
  },
  {
    "city": "Rwendama",
    "city_zh": "Rwendama",
    "country": "Uganda",
    "country_zh": "烏干達",
    "country_iso_code": "UG",
    "timezone": "Africa/Kampala",
    "latitude": -0.53333,
    "longitude": 30.8
  },
  {
    "city": "Rwempungu",
    "city_zh": "Rwempungu",
    "country": "Uganda",
    "country_zh": "烏干達",
    "country_iso_code": "UG",
    "timezone": "Africa/Kampala",
    "latitude": -0.9,
    "longitude": 30.28333
  },
  {
    "city": "Rwempogo",
    "city_zh": "Rwempogo",
    "country": "Uganda",
    "country_zh": "烏干達",
    "country_iso_code": "UG",
    "timezone": "Africa/Kampala",
    "latitude": -0.48333,
    "longitude": 31.08333
  },
  {
    "city": "Rwembwa",
    "city_zh": "Rwembwa",
    "country": "Uganda",
    "country_zh": "烏干達",
    "country_iso_code": "UG",
    "timezone": "Africa/Kampala",
    "latitude": -0.81667,
    "longitude": 30.83333
  },
  {
    "city": "Rwekunye",
    "city_zh": "Rwekunye",
    "country": "Uganda",
    "country_zh": "烏干達",
    "country_iso_code": "UG",
    "timezone": "Africa/Kampala",
    "latitude": 1.70919,
    "longitude": 32.02889
  },
  {
    "city": "Rweichiniro",
    "city_zh": "Rweichiniro",
    "country": "Uganda",
    "country_zh": "烏干達",
    "country_iso_code": "UG",
    "timezone": "Africa/Kampala",
    "latitude": -0.98944,
    "longitude": 30.28889
  },
  {
    "city": "Rweibumba",
    "city_zh": "Rweibumba",
    "country": "Uganda",
    "country_zh": "烏干達",
    "country_iso_code": "UG",
    "timezone": "Africa/Kampala",
    "latitude": -0.46667,
    "longitude": 31.06667
  },
  {
    "city": "Rweibare",
    "city_zh": "Rweibare",
    "country": "Uganda",
    "country_zh": "烏干達",
    "country_iso_code": "UG",
    "timezone": "Africa/Kampala",
    "latitude": -0.38333,
    "longitude": 30.6
  },
  {
    "city": "Rwebishengo",
    "city_zh": "Rwebishengo",
    "country": "Uganda",
    "country_zh": "烏干達",
    "country_iso_code": "UG",
    "timezone": "Africa/Kampala",
    "latitude": 1.05,
    "longitude": 30.26667
  },
  {
    "city": "Rwebikwato",
    "city_zh": "Rwebikwato",
    "country": "Uganda",
    "country_zh": "烏干達",
    "country_iso_code": "UG",
    "timezone": "Africa/Kampala",
    "latitude": 0.33333,
    "longitude": 30.48333
  },
  {
    "city": "Rwawurumba",
    "city_zh": "Rwawurumba",
    "country": "Uganda",
    "country_zh": "烏干達",
    "country_iso_code": "UG",
    "timezone": "Africa/Kampala",
    "latitude": -0.58333,
    "longitude": 31.1
  },
  {
    "city": "Rwashamaire",
    "city_zh": "Rwashamaire",
    "country": "Uganda",
    "country_zh": "烏干達",
    "country_iso_code": "UG",
    "timezone": "Africa/Kampala",
    "latitude": -0.89306,
    "longitude": 30.14333
  },
  {
    "city": "Rwanzu",
    "city_zh": "Rwanzu",
    "country": "Uganda",
    "country_zh": "烏干達",
    "country_iso_code": "UG",
    "timezone": "Africa/Kampala",
    "latitude": -1.25,
    "longitude": 29.61667
  },
  {
    "city": "Rwanzha",
    "city_zh": "Rwanzha",
    "country": "Uganda",
    "country_zh": "烏干達",
    "country_iso_code": "UG",
    "timezone": "Africa/Kampala",
    "latitude": -0.71667,
    "longitude": 29.98333
  },
  {
    "city": "Rwanyampazi",
    "city_zh": "Rwanyampazi",
    "country": "Uganda",
    "country_zh": "烏干達",
    "country_iso_code": "UG",
    "timezone": "Africa/Kampala",
    "latitude": -0.6,
    "longitude": 30.51667
  },
  {
    "city": "Rwanyamahembe",
    "city_zh": "Rwanyamahembe",
    "country": "Uganda",
    "country_zh": "烏干達",
    "country_iso_code": "UG",
    "timezone": "Africa/Kampala",
    "latitude": -0.43333,
    "longitude": 30.55
  },
  {
    "city": "Rwantsinga",
    "city_zh": "Rwantsinga",
    "country": "Uganda",
    "country_zh": "烏干達",
    "country_iso_code": "UG",
    "timezone": "Africa/Kampala",
    "latitude": -0.45,
    "longitude": 30.66667
  },
  {
    "city": "Rwanga",
    "city_zh": "Rwanga",
    "country": "Uganda",
    "country_zh": "烏干達",
    "country_iso_code": "UG",
    "timezone": "Africa/Kampala",
    "latitude": -0.81333,
    "longitude": 29.71778
  },
  {
    "city": "Rwanamira",
    "city_zh": "Rwanamira",
    "country": "Uganda",
    "country_zh": "烏干達",
    "country_iso_code": "UG",
    "timezone": "Africa/Kampala",
    "latitude": -0.36667,
    "longitude": 30.61667
  },
  {
    "city": "Rwamunku",
    "city_zh": "Rwamunku",
    "country": "Uganda",
    "country_zh": "烏干達",
    "country_iso_code": "UG",
    "timezone": "Africa/Kampala",
    "latitude": -0.6,
    "longitude": 30.91667
  },
  {
    "city": "Rwamuhara",
    "city_zh": "Rwamuhara",
    "country": "Uganda",
    "country_zh": "烏干達",
    "country_iso_code": "UG",
    "timezone": "Africa/Kampala",
    "latitude": -0.16722,
    "longitude": 30.65472
  },
  {
    "city": "Rwamucucu",
    "city_zh": "Rwamucucu",
    "country": "Uganda",
    "country_zh": "烏干達",
    "country_iso_code": "UG",
    "timezone": "Africa/Kampala",
    "latitude": -1.20972,
    "longitude": 30.06
  },
  {
    "city": "Rwamanja",
    "city_zh": "Rwamanja",
    "country": "Uganda",
    "country_zh": "烏干達",
    "country_iso_code": "UG",
    "timezone": "Africa/Kampala",
    "latitude": 0.28333,
    "longitude": 30.6
  },
  {
    "city": "Rwamakukuru",
    "city_zh": "Rwamakukuru",
    "country": "Uganda",
    "country_zh": "烏干達",
    "country_iso_code": "UG",
    "timezone": "Africa/Kampala",
    "latitude": -0.38333,
    "longitude": 31.08333
  },
  {
    "city": "Rwamahwa",
    "city_zh": "Rwamahwa",
    "country": "Uganda",
    "country_zh": "烏干達",
    "country_iso_code": "UG",
    "timezone": "Africa/Kampala",
    "latitude": -0.77861,
    "longitude": 29.92444
  },
  {
    "city": "Rwamabondo",
    "city_zh": "Rwamabondo",
    "country": "Uganda",
    "country_zh": "烏干達",
    "country_iso_code": "UG",
    "timezone": "Africa/Kampala",
    "latitude": -0.76451,
    "longitude": 30.16017
  },
  {
    "city": "Rwamabale",
    "city_zh": "Rwamabale",
    "country": "Uganda",
    "country_zh": "烏干達",
    "country_iso_code": "UG",
    "timezone": "Africa/Kampala",
    "latitude": -1.16667,
    "longitude": 29.83333
  },
  {
    "city": "Rwamabale",
    "city_zh": "Rwamabale",
    "country": "Uganda",
    "country_zh": "烏干達",
    "country_iso_code": "UG",
    "timezone": "Africa/Kampala",
    "latitude": 0.90365,
    "longitude": 30.18782
  },
  {
    "city": "Rwakororo",
    "city_zh": "Rwakororo",
    "country": "Uganda",
    "country_zh": "烏干達",
    "country_iso_code": "UG",
    "timezone": "Africa/Kampala",
    "latitude": -1.26667,
    "longitude": 29.86667
  },
  {
    "city": "Rwaitengya",
    "city_zh": "Rwaitengya",
    "country": "Uganda",
    "country_zh": "烏干達",
    "country_iso_code": "UG",
    "timezone": "Africa/Kampala",
    "latitude": 0.48333,
    "longitude": 30.68333
  },
  {
    "city": "Rwagimba",
    "city_zh": "Rwagimba",
    "country": "Uganda",
    "country_zh": "烏干達",
    "country_iso_code": "UG",
    "timezone": "Africa/Kampala",
    "latitude": 0.48333,
    "longitude": 30.1
  },
  {
    "city": "Ruyanja",
    "city_zh": "Ruyanja",
    "country": "Uganda",
    "country_zh": "烏干達",
    "country_iso_code": "UG",
    "timezone": "Africa/Kampala",
    "latitude": -0.9,
    "longitude": 30.15
  },
  {
    "city": "Ruyanga",
    "city_zh": "Ruyanga",
    "country": "Uganda",
    "country_zh": "烏干達",
    "country_iso_code": "UG",
    "timezone": "Africa/Kampala",
    "latitude": -0.98333,
    "longitude": 30.73333
  },
  {
    "city": "Rutonde",
    "city_zh": "Rutonde",
    "country": "Uganda",
    "country_zh": "烏干達",
    "country_iso_code": "UG",
    "timezone": "Africa/Kampala",
    "latitude": -0.9,
    "longitude": 29.75
  },
  {
    "city": "Rutoma",
    "city_zh": "Rutoma",
    "country": "Uganda",
    "country_zh": "烏干達",
    "country_iso_code": "UG",
    "timezone": "Africa/Kampala",
    "latitude": -1.23333,
    "longitude": 29.96667
  },
  {
    "city": "Rutoma",
    "city_zh": "Rutoma",
    "country": "Uganda",
    "country_zh": "烏干達",
    "country_iso_code": "UG",
    "timezone": "Africa/Kampala",
    "latitude": -1.06667,
    "longitude": 29.9
  },
  {
    "city": "Rutoma",
    "city_zh": "Rutoma",
    "country": "Uganda",
    "country_zh": "烏干達",
    "country_iso_code": "UG",
    "timezone": "Africa/Kampala",
    "latitude": -0.93333,
    "longitude": 30.2
  },
  {
    "city": "Rutoma",
    "city_zh": "Rutoma",
    "country": "Uganda",
    "country_zh": "烏干達",
    "country_iso_code": "UG",
    "timezone": "Africa/Kampala",
    "latitude": 0.82583,
    "longitude": 30.42456
  },
  {
    "city": "Rutoma",
    "city_zh": "Rutoma",
    "country": "Uganda",
    "country_zh": "烏干達",
    "country_iso_code": "UG",
    "timezone": "Africa/Kampala",
    "latitude": -0.81667,
    "longitude": 30.01667
  },
  {
    "city": "Rutoma",
    "city_zh": "Rutoma",
    "country": "Uganda",
    "country_zh": "烏干達",
    "country_iso_code": "UG",
    "timezone": "Africa/Kampala",
    "latitude": -0.65,
    "longitude": 29.96667
  },
  {
    "city": "Rutoma",
    "city_zh": "Rutoma",
    "country": "Uganda",
    "country_zh": "烏干達",
    "country_iso_code": "UG",
    "timezone": "Africa/Kampala",
    "latitude": -0.56667,
    "longitude": 30.38333
  },
  {
    "city": "Rutooma",
    "city_zh": "Rutooma",
    "country": "Uganda",
    "country_zh": "烏干達",
    "country_iso_code": "UG",
    "timezone": "Africa/Kampala",
    "latitude": -0.47,
    "longitude": 30.59611
  },
  {
    "city": "Rutokye",
    "city_zh": "Rutokye",
    "country": "Uganda",
    "country_zh": "烏干達",
    "country_iso_code": "UG",
    "timezone": "Africa/Kampala",
    "latitude": -0.51667,
    "longitude": 30.01667
  },
  {
    "city": "Ruti",
    "city_zh": "Ruti",
    "country": "Uganda",
    "country_zh": "烏干達",
    "country_iso_code": "UG",
    "timezone": "Africa/Kampala",
    "latitude": -0.09583,
    "longitude": 29.83111
  },
  {
    "city": "Rutete",
    "city_zh": "Rutete",
    "country": "Uganda",
    "country_zh": "烏干達",
    "country_iso_code": "UG",
    "timezone": "Africa/Kampala",
    "latitude": 0.55328,
    "longitude": 30.30021
  },
  {
    "city": "Rutenga",
    "city_zh": "Rutenga",
    "country": "Uganda",
    "country_zh": "烏干達",
    "country_iso_code": "UG",
    "timezone": "Africa/Kampala",
    "latitude": -1.05722,
    "longitude": 29.8575
  },
  {
    "city": "Rutale",
    "city_zh": "Rutale",
    "country": "Uganda",
    "country_zh": "烏干達",
    "country_iso_code": "UG",
    "timezone": "Africa/Kampala",
    "latitude": -1.4,
    "longitude": 29.96667
  },
  {
    "city": "Rusya",
    "city_zh": "Rusya",
    "country": "Uganda",
    "country_zh": "烏干達",
    "country_iso_code": "UG",
    "timezone": "Africa/Kampala",
    "latitude": -0.71667,
    "longitude": 30.7
  },
  {
    "city": "Ruswa",
    "city_zh": "Ruswa",
    "country": "Uganda",
    "country_zh": "烏干達",
    "country_iso_code": "UG",
    "timezone": "Africa/Kampala",
    "latitude": -0.95,
    "longitude": 30.95
  },
  {
    "city": "Rushozi",
    "city_zh": "Rushozi",
    "country": "Uganda",
    "country_zh": "烏干達",
    "country_iso_code": "UG",
    "timezone": "Africa/Kampala",
    "latitude": -0.46667,
    "longitude": 30.71667
  },
  {
    "city": "Rushoroza",
    "city_zh": "Rushoroza",
    "country": "Uganda",
    "country_zh": "烏干達",
    "country_iso_code": "UG",
    "timezone": "Africa/Kampala",
    "latitude": -1.28333,
    "longitude": 29.98333
  },
  {
    "city": "Rushere",
    "city_zh": "Rushere",
    "country": "Uganda",
    "country_zh": "烏干達",
    "country_iso_code": "UG",
    "timezone": "Africa/Kampala",
    "latitude": -0.23667,
    "longitude": 30.96111
  },
  {
    "city": "Rushenyi",
    "city_zh": "Rushenyi",
    "country": "Uganda",
    "country_zh": "烏干達",
    "country_iso_code": "UG",
    "timezone": "Africa/Kampala",
    "latitude": -1.11805,
    "longitude": 30.1761
  },
  {
    "city": "Rushasha",
    "city_zh": "Rushasha",
    "country": "Uganda",
    "country_zh": "烏干達",
    "country_iso_code": "UG",
    "timezone": "Africa/Kampala",
    "latitude": -0.58333,
    "longitude": 30.51667
  },
  {
    "city": "Rushambya",
    "city_zh": "Rushambya",
    "country": "Uganda",
    "country_zh": "烏干達",
    "country_iso_code": "UG",
    "timezone": "Africa/Kampala",
    "latitude": -0.75,
    "longitude": 30.53333
  },
  {
    "city": "Rushambia",
    "city_zh": "Rushambia",
    "country": "Uganda",
    "country_zh": "烏干達",
    "country_iso_code": "UG",
    "timezone": "Africa/Kampala",
    "latitude": -0.45,
    "longitude": 30.31667
  },
  {
    "city": "Rusekere",
    "city_zh": "Rusekere",
    "country": "Uganda",
    "country_zh": "烏干達",
    "country_iso_code": "UG",
    "timezone": "Africa/Kampala",
    "latitude": 0.73393,
    "longitude": 30.37894
  },
  {
    "city": "Ruruku",
    "city_zh": "Ruruku",
    "country": "Uganda",
    "country_zh": "烏干達",
    "country_iso_code": "UG",
    "timezone": "Africa/Kampala",
    "latitude": -0.75,
    "longitude": 29.95
  },
  {
    "city": "Rurandura",
    "city_zh": "Rurandura",
    "country": "Uganda",
    "country_zh": "烏干達",
    "country_iso_code": "UG",
    "timezone": "Africa/Kampala",
    "latitude": -1.2,
    "longitude": 29.76667
  },
  {
    "city": "Ruragara",
    "city_zh": "Ruragara",
    "country": "Uganda",
    "country_zh": "烏干達",
    "country_iso_code": "UG",
    "timezone": "Africa/Kampala",
    "latitude": -0.6,
    "longitude": 31.08333
  },
  {
    "city": "Rupa",
    "city_zh": "Rupa",
    "country": "Uganda",
    "country_zh": "烏干達",
    "country_iso_code": "UG",
    "timezone": "Africa/Kampala",
    "latitude": 2.59222,
    "longitude": 34.76306
  },
  {
    "city": "Runga",
    "city_zh": "Runga",
    "country": "Uganda",
    "country_zh": "烏干達",
    "country_iso_code": "UG",
    "timezone": "Africa/Kampala",
    "latitude": 1.72953,
    "longitude": 31.3063
  },
  {
    "city": "Rumogi",
    "city_zh": "Rumogi",
    "country": "Uganda",
    "country_zh": "烏干達",
    "country_iso_code": "UG",
    "timezone": "Africa/Kampala",
    "latitude": 3.55685,
    "longitude": 31.36085
  },
  {
    "city": "Rumira",
    "city_zh": "Rumira",
    "country": "Uganda",
    "country_zh": "烏干達",
    "country_iso_code": "UG",
    "timezone": "Africa/Kampala",
    "latitude": -0.88333,
    "longitude": 30.68333
  },
  {
    "city": "Rumbaire",
    "city_zh": "Rumbaire",
    "country": "Uganda",
    "country_zh": "烏干達",
    "country_iso_code": "UG",
    "timezone": "Africa/Kampala",
    "latitude": -0.05,
    "longitude": 30.4
  },
  {
    "city": "Rukungiri",
    "city_zh": "Rukungiri",
    "country": "Uganda",
    "country_zh": "烏干達",
    "country_iso_code": "UG",
    "timezone": "Africa/Kampala",
    "latitude": -0.84111,
    "longitude": 29.94194
  },
  {
    "city": "Rukukuru",
    "city_zh": "Rukukuru",
    "country": "Uganda",
    "country_zh": "烏干達",
    "country_iso_code": "UG",
    "timezone": "Africa/Kampala",
    "latitude": -0.56667,
    "longitude": 31.11667
  },
  {
    "city": "Rukoni",
    "city_zh": "Rukoni",
    "country": "Uganda",
    "country_zh": "烏干達",
    "country_iso_code": "UG",
    "timezone": "Africa/Kampala",
    "latitude": -0.93417,
    "longitude": 30.49389
  },
  {
    "city": "Rukondo",
    "city_zh": "Rukondo",
    "country": "Uganda",
    "country_zh": "烏干達",
    "country_iso_code": "UG",
    "timezone": "Africa/Kampala",
    "latitude": -0.38333,
    "longitude": 30.36667
  },
  {
    "city": "Rukoma",
    "city_zh": "Rukoma",
    "country": "Uganda",
    "country_zh": "烏干達",
    "country_iso_code": "UG",
    "timezone": "Africa/Kampala",
    "latitude": -0.68333,
    "longitude": 30.66667
  },
  {
    "city": "Rukoki",
    "city_zh": "Rukoki",
    "country": "Uganda",
    "country_zh": "烏干達",
    "country_iso_code": "UG",
    "timezone": "Africa/Kampala",
    "latitude": 0.2,
    "longitude": 30.1
  },
  {
    "city": "Rukiri",
    "city_zh": "Rukiri",
    "country": "Uganda",
    "country_zh": "烏干達",
    "country_iso_code": "UG",
    "timezone": "Africa/Kampala",
    "latitude": -0.32028,
    "longitude": 30.41917
  },
  {
    "city": "Rukinga",
    "city_zh": "Rukinga",
    "country": "Uganda",
    "country_zh": "烏干達",
    "country_iso_code": "UG",
    "timezone": "Africa/Kampala",
    "latitude": -0.8,
    "longitude": 30.9
  },
  {
    "city": "Ruhoko",
    "city_zh": "Ruhoko",
    "country": "Uganda",
    "country_zh": "烏干達",
    "country_iso_code": "UG",
    "timezone": "Africa/Kampala",
    "latitude": -0.65,
    "longitude": 30.25
  },
  {
    "city": "Ruhoko",
    "city_zh": "Ruhoko",
    "country": "Uganda",
    "country_zh": "烏干達",
    "country_iso_code": "UG",
    "timezone": "Africa/Kampala",
    "latitude": -0.69722,
    "longitude": 30.28611
  },
  {
    "city": "Ruhobo",
    "city_zh": "Ruhobo",
    "country": "Uganda",
    "country_zh": "烏干達",
    "country_iso_code": "UG",
    "timezone": "Africa/Kampala",
    "latitude": -0.53333,
    "longitude": 30.16667
  },
  {
    "city": "Ruhiri",
    "city_zh": "Ruhiri",
    "country": "Uganda",
    "country_zh": "烏干達",
    "country_iso_code": "UG",
    "timezone": "Africa/Kampala",
    "latitude": 0.13333,
    "longitude": 29.98333
  },
  {
    "city": "Ruhira",
    "city_zh": "Ruhira",
    "country": "Uganda",
    "country_zh": "烏干達",
    "country_iso_code": "UG",
    "timezone": "Africa/Kampala",
    "latitude": -0.97028,
    "longitude": 30.86444
  },
  {
    "city": "Ruhinda",
    "city_zh": "Ruhinda",
    "country": "Uganda",
    "country_zh": "烏干達",
    "country_iso_code": "UG",
    "timezone": "Africa/Kampala",
    "latitude": -0.72778,
    "longitude": 29.95528
  },
  {
    "city": "Ruhengere",
    "city_zh": "Ruhengere",
    "country": "Uganda",
    "country_zh": "烏干達",
    "country_iso_code": "UG",
    "timezone": "Africa/Kampala",
    "latitude": -0.36667,
    "longitude": 30.75
  },
  {
    "city": "Ruhendwa",
    "city_zh": "Ruhendwa",
    "country": "Uganda",
    "country_zh": "烏干達",
    "country_iso_code": "UG",
    "timezone": "Africa/Kampala",
    "latitude": -0.53333,
    "longitude": 30.63333
  },
  {
    "city": "Ruhara",
    "city_zh": "Ruhara",
    "country": "Uganda",
    "country_zh": "烏干達",
    "country_iso_code": "UG",
    "timezone": "Africa/Kampala",
    "latitude": -1.13333,
    "longitude": 30.25
  },
  {
    "city": "Ruhanga",
    "city_zh": "Ruhanga",
    "country": "Uganda",
    "country_zh": "烏干達",
    "country_iso_code": "UG",
    "timezone": "Africa/Kampala",
    "latitude": -0.86028,
    "longitude": 30.28333
  },
  {
    "city": "Ruhanga",
    "city_zh": "Ruhanga",
    "country": "Uganda",
    "country_zh": "烏干達",
    "country_iso_code": "UG",
    "timezone": "Africa/Kampala",
    "latitude": -0.80111,
    "longitude": 30.26417
  },
  {
    "city": "Ruhandagazi",
    "city_zh": "Ruhandagazi",
    "country": "Uganda",
    "country_zh": "烏干達",
    "country_iso_code": "UG",
    "timezone": "Africa/Kampala",
    "latitude": -0.87361,
    "longitude": 29.81417
  },
  {
    "city": "Ruhama",
    "city_zh": "Ruhama",
    "country": "Uganda",
    "country_zh": "烏干達",
    "country_iso_code": "UG",
    "timezone": "Africa/Kampala",
    "latitude": -1.06694,
    "longitude": 30.38444
  },
  {
    "city": "Rugyeyo",
    "city_zh": "Rugyeyo",
    "country": "Uganda",
    "country_zh": "烏干達",
    "country_iso_code": "UG",
    "timezone": "Africa/Kampala",
    "latitude": -0.97361,
    "longitude": 29.8475
  },
  {
    "city": "Rugonjo",
    "city_zh": "Rugonjo",
    "country": "Uganda",
    "country_zh": "烏干達",
    "country_iso_code": "UG",
    "timezone": "Africa/Kampala",
    "latitude": 0.35,
    "longitude": 30.41667
  },
  {
    "city": "Rugongo",
    "city_zh": "Rugongo",
    "country": "Uganda",
    "country_zh": "烏干達",
    "country_iso_code": "UG",
    "timezone": "Africa/Kampala",
    "latitude": -0.36667,
    "longitude": 30.48333
  },
  {
    "city": "Rugendabalo",
    "city_zh": "Rugendabalo",
    "country": "Uganda",
    "country_zh": "烏干達",
    "country_iso_code": "UG",
    "timezone": "Africa/Kampala",
    "latitude": -0.3,
    "longitude": 30.1
  },
  {
    "city": "Rugando",
    "city_zh": "Rugando",
    "country": "Uganda",
    "country_zh": "烏干達",
    "country_iso_code": "UG",
    "timezone": "Africa/Kampala",
    "latitude": -0.93333,
    "longitude": 29.61667
  },
  {
    "city": "Rugando",
    "city_zh": "Rugando",
    "country": "Uganda",
    "country_zh": "烏干達",
    "country_iso_code": "UG",
    "timezone": "Africa/Kampala",
    "latitude": -0.63333,
    "longitude": 30.51667
  },
  {
    "city": "Rugaga",
    "city_zh": "Rugaga",
    "country": "Uganda",
    "country_zh": "烏干達",
    "country_iso_code": "UG",
    "timezone": "Africa/Kampala",
    "latitude": -0.88333,
    "longitude": 30.86667
  },
  {
    "city": "Rugaga",
    "city_zh": "Rugaga",
    "country": "Uganda",
    "country_zh": "烏干達",
    "country_iso_code": "UG",
    "timezone": "Africa/Kampala",
    "latitude": -0.81611,
    "longitude": 30.99722
  },
  {
    "city": "Ruerere",
    "city_zh": "Ruerere",
    "country": "Uganda",
    "country_zh": "烏干達",
    "country_iso_code": "UG",
    "timezone": "Africa/Kampala",
    "latitude": -0.8,
    "longitude": 29.85
  },
  {
    "city": "Ruchenche",
    "city_zh": "Ruchenche",
    "country": "Uganda",
    "country_zh": "烏干達",
    "country_iso_code": "UG",
    "timezone": "Africa/Kampala",
    "latitude": -0.63333,
    "longitude": 30.53333
  },
  {
    "city": "Rubuzigye",
    "city_zh": "Rubuzigye",
    "country": "Uganda",
    "country_zh": "烏干達",
    "country_iso_code": "UG",
    "timezone": "Africa/Kampala",
    "latitude": -0.48333,
    "longitude": 30.08333
  },
  {
    "city": "Rubunu",
    "city_zh": "Rubunu",
    "country": "Uganda",
    "country_zh": "烏干達",
    "country_iso_code": "UG",
    "timezone": "Africa/Kampala",
    "latitude": -0.65,
    "longitude": 31.08333
  },
  {
    "city": "Rubuguli",
    "city_zh": "Rubuguli",
    "country": "Uganda",
    "country_zh": "烏干達",
    "country_iso_code": "UG",
    "timezone": "Africa/Kampala",
    "latitude": -1.12194,
    "longitude": 29.68611
  },
  {
    "city": "Rubu",
    "city_zh": "Rubu",
    "country": "Uganda",
    "country_zh": "烏干達",
    "country_iso_code": "UG",
    "timezone": "Africa/Kampala",
    "latitude": 3.1479,
    "longitude": 30.91133
  },
  {
    "city": "Ruborogota",
    "city_zh": "Ruborogota",
    "country": "Uganda",
    "country_zh": "烏干達",
    "country_iso_code": "UG",
    "timezone": "Africa/Kampala",
    "latitude": -1.07028,
    "longitude": 30.59028
  },
  {
    "city": "Rubongi",
    "city_zh": "Rubongi",
    "country": "Uganda",
    "country_zh": "烏干達",
    "country_iso_code": "UG",
    "timezone": "Africa/Kampala",
    "latitude": 0.69789,
    "longitude": 34.14695
  },
  {
    "city": "Rubona",
    "city_zh": "Rubona",
    "country": "Uganda",
    "country_zh": "烏干達",
    "country_iso_code": "UG",
    "timezone": "Africa/Kampala",
    "latitude": 0.55537,
    "longitude": 30.17329
  },
  {
    "city": "Rubirizi",
    "city_zh": "Rubirizi",
    "country": "Uganda",
    "country_zh": "烏干達",
    "country_iso_code": "UG",
    "timezone": "Africa/Kampala",
    "latitude": -1.0,
    "longitude": 29.96667
  },
  {
    "city": "Rubirizi",
    "city_zh": "Rubirizi",
    "country": "Uganda",
    "country_zh": "烏干達",
    "country_iso_code": "UG",
    "timezone": "Africa/Kampala",
    "latitude": -0.29889,
    "longitude": 30.13361
  },
  {
    "city": "Rubingo",
    "city_zh": "Rubingo",
    "country": "Uganda",
    "country_zh": "烏干達",
    "country_iso_code": "UG",
    "timezone": "Africa/Kampala",
    "latitude": -0.76667,
    "longitude": 30.18333
  },
  {
    "city": "Rubindi",
    "city_zh": "Rubindi",
    "country": "Uganda",
    "country_zh": "烏干達",
    "country_iso_code": "UG",
    "timezone": "Africa/Kampala",
    "latitude": -0.37417,
    "longitude": 30.60944
  },
  {
    "city": "Rubeya",
    "city_zh": "Rubeya",
    "country": "Uganda",
    "country_zh": "烏干達",
    "country_iso_code": "UG",
    "timezone": "Africa/Kampala",
    "latitude": -0.63333,
    "longitude": 30.7
  },
  {
    "city": "Rubaya",
    "city_zh": "Rubaya",
    "country": "Uganda",
    "country_zh": "烏干達",
    "country_iso_code": "UG",
    "timezone": "Africa/Kampala",
    "latitude": -1.41667,
    "longitude": 29.95
  },
  {
    "city": "Rubaya",
    "city_zh": "Rubaya",
    "country": "Uganda",
    "country_zh": "烏干達",
    "country_iso_code": "UG",
    "timezone": "Africa/Kampala",
    "latitude": -0.78333,
    "longitude": 29.76667
  },
  {
    "city": "Rubaya",
    "city_zh": "Rubaya",
    "country": "Uganda",
    "country_zh": "烏干達",
    "country_iso_code": "UG",
    "timezone": "Africa/Kampala",
    "latitude": -0.45917,
    "longitude": 30.66972
  },
  {
    "city": "Rubanga",
    "city_zh": "Rubanga",
    "country": "Uganda",
    "country_zh": "烏干達",
    "country_iso_code": "UG",
    "timezone": "Africa/Kampala",
    "latitude": -0.88333,
    "longitude": 29.96667
  },
  {
    "city": "Rubanga",
    "city_zh": "Rubanga",
    "country": "Uganda",
    "country_zh": "烏干達",
    "country_iso_code": "UG",
    "timezone": "Africa/Kampala",
    "latitude": -0.85,
    "longitude": 29.95
  },
  {
    "city": "Rubanda",
    "city_zh": "Rubanda",
    "country": "Uganda",
    "country_zh": "烏干達",
    "country_iso_code": "UG",
    "timezone": "Africa/Kampala",
    "latitude": -1.18833,
    "longitude": 29.84611
  },
  {
    "city": "Rubabu",
    "city_zh": "Rubabu",
    "country": "Uganda",
    "country_zh": "烏干達",
    "country_iso_code": "UG",
    "timezone": "Africa/Kampala",
    "latitude": -0.91667,
    "longitude": 29.95
  },
  {
    "city": "Rubaare",
    "city_zh": "Rubaare",
    "country": "Uganda",
    "country_zh": "烏干達",
    "country_iso_code": "UG",
    "timezone": "Africa/Kampala",
    "latitude": -1.01694,
    "longitude": 30.18889
  },
  {
    "city": "Rubaare",
    "city_zh": "Rubaare",
    "country": "Uganda",
    "country_zh": "烏干達",
    "country_iso_code": "UG",
    "timezone": "Africa/Kampala",
    "latitude": -1.08389,
    "longitude": 30.20167
  },
  {
    "city": "Ruangi",
    "city_zh": "Ruangi",
    "country": "Uganda",
    "country_zh": "烏干達",
    "country_iso_code": "UG",
    "timezone": "Africa/Kampala",
    "latitude": 2.11039,
    "longitude": 31.45382
  },
  {
    "city": "Orom",
    "city_zh": "Orom",
    "country": "Uganda",
    "country_zh": "烏干達",
    "country_iso_code": "UG",
    "timezone": "Africa/Kampala",
    "latitude": 3.39956,
    "longitude": 33.46954
  },
  {
    "city": "Rom",
    "city_zh": "Rom",
    "country": "Uganda",
    "country_zh": "烏干達",
    "country_iso_code": "UG",
    "timezone": "Africa/Kampala",
    "latitude": 3.31829,
    "longitude": 33.5565
  },
  {
    "city": "Risai",
    "city_zh": "Risai",
    "country": "Uganda",
    "country_zh": "烏干達",
    "country_iso_code": "UG",
    "timezone": "Africa/Kampala",
    "latitude": 3.5293,
    "longitude": 34.32808
  },
  {
    "city": "Rigbo",
    "city_zh": "Rigbo",
    "country": "Uganda",
    "country_zh": "烏干達",
    "country_iso_code": "UG",
    "timezone": "Africa/Kampala",
    "latitude": 3.0496,
    "longitude": 31.42095
  },
  {
    "city": "Rhino Camp",
    "city_zh": "Rhino Camp",
    "country": "Uganda",
    "country_zh": "烏干達",
    "country_iso_code": "UG",
    "timezone": "Africa/Kampala",
    "latitude": 2.97279,
    "longitude": 31.39633
  },
  {
    "city": "Rengen",
    "city_zh": "Rengen",
    "country": "Uganda",
    "country_zh": "烏干達",
    "country_iso_code": "UG",
    "timezone": "Africa/Kampala",
    "latitude": 3.08333,
    "longitude": 34.1
  },
  {
    "city": "Rakai",
    "city_zh": "Rakai",
    "country": "Uganda",
    "country_zh": "烏干達",
    "country_iso_code": "UG",
    "timezone": "Africa/Kampala",
    "latitude": -0.72,
    "longitude": 31.48389
  },
  {
    "city": "Ragem",
    "city_zh": "Ragem",
    "country": "Uganda",
    "country_zh": "烏干達",
    "country_iso_code": "UG",
    "timezone": "Africa/Kampala",
    "latitude": 2.67215,
    "longitude": 31.40079
  },
  {
    "city": "Purongo",
    "city_zh": "Purongo",
    "country": "Uganda",
    "country_zh": "烏干達",
    "country_iso_code": "UG",
    "timezone": "Africa/Kampala",
    "latitude": 2.53492,
    "longitude": 31.83976
  },
  {
    "city": "Pupu",
    "city_zh": "Pupu",
    "country": "Uganda",
    "country_zh": "烏干達",
    "country_iso_code": "UG",
    "timezone": "Africa/Kampala",
    "latitude": 2.53333,
    "longitude": 33.83333
  },
  {
    "city": "Puno Atar",
    "city_zh": "Puno Atar",
    "country": "Uganda",
    "country_zh": "烏干達",
    "country_iso_code": "UG",
    "timezone": "Africa/Kampala",
    "latitude": 1.93625,
    "longitude": 32.91109
  },
  {
    "city": "Pumit",
    "city_zh": "Pumit",
    "country": "Uganda",
    "country_zh": "烏干達",
    "country_iso_code": "UG",
    "timezone": "Africa/Kampala",
    "latitude": 2.75178,
    "longitude": 31.36163
  },
  {
    "city": "Port Bell",
    "city_zh": "贝尔港",
    "country": "Uganda",
    "country_zh": "烏干達",
    "country_iso_code": "UG",
    "timezone": "Africa/Kampala",
    "latitude": 0.29241,
    "longitude": 32.65952
  },
  {
    "city": "Pokwero",
    "city_zh": "Pokwero",
    "country": "Uganda",
    "country_zh": "烏干達",
    "country_iso_code": "UG",
    "timezone": "Africa/Kampala",
    "latitude": 2.55829,
    "longitude": 31.41671
  },
  {
    "city": "Paoko",
    "city_zh": "Paoko",
    "country": "Uganda",
    "country_zh": "烏干達",
    "country_iso_code": "UG",
    "timezone": "Africa/Kampala",
    "latitude": 3.4627,
    "longitude": 31.90973
  },
  {
    "city": "Pokia",
    "city_zh": "Pokia",
    "country": "Uganda",
    "country_zh": "烏干達",
    "country_iso_code": "UG",
    "timezone": "Africa/Kampala",
    "latitude": 2.99426,
    "longitude": 30.86976
  },
  {
    "city": "Poke",
    "city_zh": "Poke",
    "country": "Uganda",
    "country_zh": "烏干達",
    "country_iso_code": "UG",
    "timezone": "Africa/Kampala",
    "latitude": 1.95544,
    "longitude": 32.53108
  },
  {
    "city": "Puduti",
    "city_zh": "Puduti",
    "country": "Uganda",
    "country_zh": "烏干達",
    "country_iso_code": "UG",
    "timezone": "Africa/Kampala",
    "latitude": 0.62699,
    "longitude": 34.0986
  },
  {
    "city": "Podia",
    "city_zh": "Podia",
    "country": "Uganda",
    "country_zh": "烏干達",
    "country_iso_code": "UG",
    "timezone": "Africa/Kampala",
    "latitude": 1.55691,
    "longitude": 32.34694
  },
  {
    "city": "Pirre",
    "city_zh": "Pirre",
    "country": "Uganda",
    "country_zh": "烏干達",
    "country_iso_code": "UG",
    "timezone": "Africa/Kampala",
    "latitude": 3.83361,
    "longitude": 34.11028
  },
  {
    "city": "Pingire",
    "city_zh": "Pingire",
    "country": "Uganda",
    "country_zh": "烏干達",
    "country_iso_code": "UG",
    "timezone": "Africa/Kampala",
    "latitude": 1.35694,
    "longitude": 33.36
  },
  {
    "city": "Pilitok",
    "city_zh": "Pilitok",
    "country": "Uganda",
    "country_zh": "烏干達",
    "country_iso_code": "UG",
    "timezone": "Africa/Kampala",
    "latitude": 1.90534,
    "longitude": 33.2899
  },
  {
    "city": "Pigire",
    "city_zh": "Pigire",
    "country": "Uganda",
    "country_zh": "烏干達",
    "country_iso_code": "UG",
    "timezone": "Africa/Kampala",
    "latitude": 1.46667,
    "longitude": 33.33333
  },
  {
    "city": "Pigire",
    "city_zh": "Pigire",
    "country": "Uganda",
    "country_zh": "烏干達",
    "country_iso_code": "UG",
    "timezone": "Africa/Kampala",
    "latitude": 1.43333,
    "longitude": 33.36667
  },
  {
    "city": "Petete",
    "city_zh": "Petete",
    "country": "Uganda",
    "country_zh": "烏干達",
    "country_iso_code": "UG",
    "timezone": "Africa/Kampala",
    "latitude": 1.14917,
    "longitude": 33.93167
  },
  {
    "city": "Petta",
    "city_zh": "Petta",
    "country": "Uganda",
    "country_zh": "烏干達",
    "country_iso_code": "UG",
    "timezone": "Africa/Kampala",
    "latitude": 0.78505,
    "longitude": 34.08246
  },
  {
    "city": "Pei-Pei",
    "city_zh": "Pei-Pei",
    "country": "Uganda",
    "country_zh": "烏干達",
    "country_iso_code": "UG",
    "timezone": "Africa/Kampala",
    "latitude": 0.75867,
    "longitude": 34.12609
  },
  {
    "city": "Pei",
    "city_zh": "Pei",
    "country": "Uganda",
    "country_zh": "烏干達",
    "country_iso_code": "UG",
    "timezone": "Africa/Kampala",
    "latitude": 2.4587,
    "longitude": 30.95629
  },
  {
    "city": "Payongo",
    "city_zh": "Payongo",
    "country": "Uganda",
    "country_zh": "烏干達",
    "country_iso_code": "UG",
    "timezone": "Africa/Kampala",
    "latitude": 2.44851,
    "longitude": 31.38772
  },