[
  {
    "city": "Puijas",
    "city_zh": "Puijas",
    "country": "Estonia",
    "country_zh": "愛沙尼亞",
    "country_iso_code": "EE",
    "timezone": "Europe/Tallinn",
    "latitude": 58.55,
    "longitude": 22.73333
  },
  {
    "city": "Nehatu",
    "city_zh": "Nehatu",
    "country": "Estonia",
    "country_zh": "愛沙尼亞",
    "country_iso_code": "EE",
    "timezone": "Europe/Tallinn",
    "latitude": 58.56972,
    "longitude": 23.66611
  },
  {
    "city": "Mereküla",
    "city_zh": "Mereküla",
    "country": "Estonia",
    "country_zh": "愛沙尼亞",
    "country_iso_code": "EE",
    "timezone": "Europe/Tallinn",
    "latitude": 58.30389,
    "longitude": 24.59389
  },
  {
    "city": "Krundiküla",
    "city_zh": "Krundiküla",
    "country": "Estonia",
    "country_zh": "愛沙尼亞",
    "country_iso_code": "EE",
    "timezone": "Europe/Tallinn",
    "latitude": 58.04472,
    "longitude": 24.50556
  },
  {
    "city": "Järve",
    "city_zh": "Järve",
    "country": "Estonia",
    "country_zh": "愛沙尼亞",
    "country_iso_code": "EE",
    "timezone": "Europe/Tallinn",
    "latitude": 58.17694,
    "longitude": 25.97056
  },
  {
    "city": "Vändra",
    "city_zh": "Vändra",
    "country": "Estonia",
    "country_zh": "愛沙尼亞",
    "country_iso_code": "EE",
    "timezone": "Europe/Tallinn",
    "latitude": 58.64806,
    "longitude": 25.03611
  },
  {
    "city": "Võuküla",
    "city_zh": "Võuküla",
    "country": "Estonia",
    "country_zh": "愛沙尼亞",
    "country_iso_code": "EE",
    "timezone": "Europe/Tallinn",
    "latitude": 58.06278,
    "longitude": 27.30472
  },
  {
    "city": "Võtikvere",
    "city_zh": "Võtikvere",
    "country": "Estonia",
    "country_zh": "愛沙尼亞",
    "country_iso_code": "EE",
    "timezone": "Europe/Tallinn",
    "latitude": 58.86639,
    "longitude": 26.84944
  },
  {
    "city": "Võsupere",
    "city_zh": "Võsupere",
    "country": "Estonia",
    "country_zh": "愛沙尼亞",
    "country_iso_code": "EE",
    "timezone": "Europe/Tallinn",
    "latitude": 59.49556,
    "longitude": 25.96667
  },
  {
    "city": "Võsu",
    "city_zh": "Võsu",
    "country": "Estonia",
    "country_zh": "愛沙尼亞",
    "country_iso_code": "EE",
    "timezone": "Europe/Tallinn",
    "latitude": 59.5725,
    "longitude": 25.97528
  },
  {
    "city": "Võsivere",
    "city_zh": "Võsivere",
    "country": "Estonia",
    "country_zh": "愛沙尼亞",
    "country_iso_code": "EE",
    "timezone": "Europe/Tallinn",
    "latitude": 58.33722,
    "longitude": 26.42861
  },
  {
    "city": "Võrusoo",
    "city_zh": "Võrusoo",
    "country": "Estonia",
    "country_zh": "愛沙尼亞",
    "country_iso_code": "EE",
    "timezone": "Europe/Tallinn",
    "latitude": 57.82778,
    "longitude": 27.05056
  },
  {
    "city": "Võru",
    "city_zh": "沃魯",
    "country": "Estonia",
    "country_zh": "愛沙尼亞",
    "country_iso_code": "EE",
    "timezone": "Europe/Tallinn",
    "latitude": 57.83389,
    "longitude": 27.01944
  },
  {
    "city": "Vorsti",
    "city_zh": "Vorsti",
    "country": "Estonia",
    "country_zh": "愛沙尼亞",
    "country_iso_code": "EE",
    "timezone": "Europe/Tallinn",
    "latitude": 58.70278,
    "longitude": 25.97111
  },
  {
    "city": "Võrsna",
    "city_zh": "Võrsna",
    "country": "Estonia",
    "country_zh": "愛沙尼亞",
    "country_iso_code": "EE",
    "timezone": "Europe/Tallinn",
    "latitude": 58.39583,
    "longitude": 22.76306
  },
  {
    "city": "Vormsi",
    "city_zh": "沃尔姆西岛",
    "country": "Estonia",
    "country_zh": "愛沙尼亞",
    "country_iso_code": "EE",
    "timezone": "Europe/Tallinn",
    "latitude": 59.0,
    "longitude": 23.21667
  },
  {
    "city": "Võrkla",
    "city_zh": "Võrkla",
    "country": "Estonia",
    "country_zh": "愛沙尼亞",
    "country_iso_code": "EE",
    "timezone": "Europe/Tallinn",
    "latitude": 59.43361,
    "longitude": 26.68556
  },
  {
    "city": "Võrevere",
    "city_zh": "Võrevere",
    "country": "Estonia",
    "country_zh": "愛沙尼亞",
    "country_iso_code": "EE",
    "timezone": "Europe/Tallinn",
    "latitude": 58.75861,
    "longitude": 25.84417
  },
  {
    "city": "Vorbuse",
    "city_zh": "Vorbuse",
    "country": "Estonia",
    "country_zh": "愛沙尼亞",
    "country_iso_code": "EE",
    "timezone": "Europe/Tallinn",
    "latitude": 58.41667,
    "longitude": 26.65833
  },
  {
    "city": "Voose",
    "city_zh": "Voose",
    "country": "Estonia",
    "country_zh": "愛沙尼亞",
    "country_iso_code": "EE",
    "timezone": "Europe/Tallinn",
    "latitude": 59.19778,
    "longitude": 25.42167
  },
  {
    "city": "Voose",
    "city_zh": "Voose",
    "country": "Estonia",
    "country_zh": "愛沙尼亞",
    "country_iso_code": "EE",
    "timezone": "Europe/Tallinn",
    "latitude": 58.64278,
    "longitude": 23.67667
  },
  {
    "city": "Vooru",
    "city_zh": "Vooru",
    "country": "Estonia",
    "country_zh": "愛沙尼亞",
    "country_iso_code": "EE",
    "timezone": "Europe/Tallinn",
    "latitude": 58.12722,
    "longitude": 25.94722
  },
  {
    "city": "Voorepera",
    "city_zh": "Voorepera",
    "country": "Estonia",
    "country_zh": "愛沙尼亞",
    "country_iso_code": "EE",
    "timezone": "Europe/Tallinn",
    "latitude": 59.40583,
    "longitude": 27.13111
  },
  {
    "city": "Voore",
    "city_zh": "Voore",
    "country": "Estonia",
    "country_zh": "愛沙尼亞",
    "country_iso_code": "EE",
    "timezone": "Europe/Tallinn",
    "latitude": 59.25745,
    "longitude": 24.58138
  },
  {
    "city": "Voore",
    "city_zh": "Voore",
    "country": "Estonia",
    "country_zh": "愛沙尼亞",
    "country_iso_code": "EE",
    "timezone": "Europe/Tallinn",
    "latitude": 59.23361,
    "longitude": 26.50278
  },
  {
    "city": "Võõpsu",
    "city_zh": "Võõpsu",
    "country": "Estonia",
    "country_zh": "愛沙尼亞",
    "country_iso_code": "EE",
    "timezone": "Europe/Tallinn",
    "latitude": 58.08124,
    "longitude": 27.53697
  },
  {
    "city": "Vööla",
    "city_zh": "Vööla",
    "country": "Estonia",
    "country_zh": "愛沙尼亞",
    "country_iso_code": "EE",
    "timezone": "Europe/Tallinn",
    "latitude": 59.07139,
    "longitude": 23.50111
  },
  {
    "city": "Võõpste",
    "city_zh": "Võõpste",
    "country": "Estonia",
    "country_zh": "愛沙尼亞",
    "country_iso_code": "EE",
    "timezone": "Europe/Tallinn",
    "latitude": 58.35111,
    "longitude": 27.07972
  },
  {
    "city": "Võntküla",
    "city_zh": "Võntküla",
    "country": "Estonia",
    "country_zh": "愛沙尼亞",
    "country_iso_code": "EE",
    "timezone": "Europe/Tallinn",
    "latitude": 58.96889,
    "longitude": 23.80444
  },
  {
    "city": "Võnnu",
    "city_zh": "Võnnu",
    "country": "Estonia",
    "country_zh": "愛沙尼亞",
    "country_iso_code": "EE",
    "timezone": "Europe/Tallinn",
    "latitude": 58.91667,
    "longitude": 23.7
  },
  {
    "city": "Võnnu",
    "city_zh": "Võnnu",
    "country": "Estonia",
    "country_zh": "愛沙尼亞",
    "country_iso_code": "EE",
    "timezone": "Europe/Tallinn",
    "latitude": 58.90556,
    "longitude": 23.70556
  },
  {
    "city": "Võnnu",
    "city_zh": "Võnnu",
    "country": "Estonia",
    "country_zh": "愛沙尼亞",
    "country_iso_code": "EE",
    "timezone": "Europe/Tallinn",
    "latitude": 58.27833,
    "longitude": 27.04806
  },
  {
    "city": "Võmmorski",
    "city_zh": "Võmmorski",
    "country": "Estonia",
    "country_zh": "愛沙尼亞",
    "country_iso_code": "EE",
    "timezone": "Europe/Tallinn",
    "latitude": 57.83111,
    "longitude": 27.54194
  },
  {
    "city": "Voltveti",
    "city_zh": "Voltveti",
    "country": "Estonia",
    "country_zh": "愛沙尼亞",
    "country_iso_code": "EE",
    "timezone": "Europe/Tallinn",
    "latitude": 58.15139,
    "longitude": 25.03389
  },
  {
    "city": "Võlle",
    "city_zh": "Võlle",
    "country": "Estonia",
    "country_zh": "愛沙尼亞",
    "country_iso_code": "EE",
    "timezone": "Europe/Tallinn",
    "latitude": 59.18556,
    "longitude": 25.22389
  },
  {
    "city": "Võlla-Mõisaküla",
    "city_zh": "Võlla-Mõisaküla",
    "country": "Estonia",
    "country_zh": "愛沙尼亞",
    "country_iso_code": "EE",
    "timezone": "Europe/Tallinn",
    "latitude": 58.45,
    "longitude": 24.18333
  },
  {
    "city": "Võlla",
    "city_zh": "Võlla",
    "country": "Estonia",
    "country_zh": "愛沙尼亞",
    "country_iso_code": "EE",
    "timezone": "Europe/Tallinn",
    "latitude": 58.59639,
    "longitude": 23.36167
  },
  {
    "city": "Võlla",
    "city_zh": "Võlla",
    "country": "Estonia",
    "country_zh": "愛沙尼亞",
    "country_iso_code": "EE",
    "timezone": "Europe/Tallinn",
    "latitude": 58.50083,
    "longitude": 24.69278
  },
  {
    "city": "Võlla",
    "city_zh": "Võlla",
    "country": "Estonia",
    "country_zh": "愛沙尼亞",
    "country_iso_code": "EE",
    "timezone": "Europe/Tallinn",
    "latitude": 58.46556,
    "longitude": 24.17639
  },
  {
    "city": "Võle",
    "city_zh": "Võle",
    "country": "Estonia",
    "country_zh": "愛沙尼亞",
    "country_iso_code": "EE",
    "timezone": "Europe/Tallinn",
    "latitude": 59.46278,
    "longitude": 26.24694
  },
  {
    "city": "Tabivere",
    "city_zh": "Tabivere",
    "country": "Estonia",
    "country_zh": "愛沙尼亞",
    "country_iso_code": "EE",
    "timezone": "Europe/Tallinn",
    "latitude": 58.55418,
    "longitude": 26.58404
  },
  {
    "city": "Voki",
    "city_zh": "Voki",
    "country": "Estonia",
    "country_zh": "愛沙尼亞",
    "country_iso_code": "EE",
    "timezone": "Europe/Tallinn",
    "latitude": 58.00972,
    "longitude": 26.43
  },
  {
    "city": "Voka",
    "city_zh": "Voka",
    "country": "Estonia",
    "country_zh": "愛沙尼亞",
    "country_iso_code": "EE",
    "timezone": "Europe/Tallinn",
    "latitude": 59.40776,
    "longitude": 27.58263
  },
  {
    "city": "Võivere",
    "city_zh": "Võivere",
    "country": "Estonia",
    "country_zh": "愛沙尼亞",
    "country_iso_code": "EE",
    "timezone": "Europe/Tallinn",
    "latitude": 59.18806,
    "longitude": 24.96833
  },
  {
    "city": "Võivere",
    "city_zh": "Võivere",
    "country": "Estonia",
    "country_zh": "愛沙尼亞",
    "country_iso_code": "EE",
    "timezone": "Europe/Tallinn",
    "latitude": 59.04778,
    "longitude": 26.35222
  },
  {
    "city": "Võitra",
    "city_zh": "Võitra",
    "country": "Estonia",
    "country_zh": "愛沙尼亞",
    "country_iso_code": "EE",
    "timezone": "Europe/Tallinn",
    "latitude": 58.56722,
    "longitude": 24.10556
  },
  {
    "city": "Võistre",
    "city_zh": "Võistre",
    "country": "Estonia",
    "country_zh": "愛沙尼亞",
    "country_iso_code": "EE",
    "timezone": "Europe/Tallinn",
    "latitude": 58.4425,
    "longitude": 25.58472
  },
  {
    "city": "Võiste",
    "city_zh": "Võiste",
    "country": "Estonia",
    "country_zh": "愛沙尼亞",
    "country_iso_code": "EE",
    "timezone": "Europe/Tallinn",
    "latitude": 58.46667,
    "longitude": 24.48333
  },
  {
    "city": "Võiste",
    "city_zh": "Võiste",
    "country": "Estonia",
    "country_zh": "愛沙尼亞",
    "country_iso_code": "EE",
    "timezone": "Europe/Tallinn",
    "latitude": 58.20748,
    "longitude": 24.48256
  },
  {
    "city": "Võisiku",
    "city_zh": "Võisiku",
    "country": "Estonia",
    "country_zh": "愛沙尼亞",
    "country_iso_code": "EE",
    "timezone": "Europe/Tallinn",
    "latitude": 58.62833,
    "longitude": 25.92056
  },
  {
    "city": "Võiküla",
    "city_zh": "Võiküla",
    "country": "Estonia",
    "country_zh": "愛沙尼亞",
    "country_iso_code": "EE",
    "timezone": "Europe/Tallinn",
    "latitude": 58.54778,
    "longitude": 23.40444
  },
  {
    "city": "Võigaste",
    "city_zh": "Võigaste",
    "country": "Estonia",
    "country_zh": "愛沙尼亞",
    "country_iso_code": "EE",
    "timezone": "Europe/Tallinn",
    "latitude": 58.71528,
    "longitude": 23.64639
  },
  {
    "city": "Võidula",
    "city_zh": "Võidula",
    "country": "Estonia",
    "country_zh": "愛沙尼亞",
    "country_iso_code": "EE",
    "timezone": "Europe/Tallinn",
    "latitude": 58.70389,
    "longitude": 25.09528
  },
  {
    "city": "Võidu",
    "city_zh": "Võidu",
    "country": "Estonia",
    "country_zh": "愛沙尼亞",
    "country_iso_code": "EE",
    "timezone": "Europe/Tallinn",
    "latitude": 58.14472,
    "longitude": 24.58361
  },
  {
    "city": "Võide",
    "city_zh": "Võide",
    "country": "Estonia",
    "country_zh": "愛沙尼亞",
    "country_iso_code": "EE",
    "timezone": "Europe/Tallinn",
    "latitude": 59.25667,
    "longitude": 27.28472
  },
  {
    "city": "Võiardi",
    "city_zh": "Võiardi",
    "country": "Estonia",
    "country_zh": "愛沙尼亞",
    "country_iso_code": "EE",
    "timezone": "Europe/Tallinn",
    "latitude": 58.03806,
    "longitude": 27.25056
  },
  {
    "city": "Võhu",
    "city_zh": "Võhu",
    "country": "Estonia",
    "country_zh": "愛沙尼亞",
    "country_iso_code": "EE",
    "timezone": "Europe/Tallinn",
    "latitude": 59.225,
    "longitude": 26.58028
  },
  {
    "city": "Vohnja",
    "city_zh": "Vohnja",
    "country": "Estonia",
    "country_zh": "愛沙尼亞",
    "country_iso_code": "EE",
    "timezone": "Europe/Tallinn",
    "latitude": 59.375,
    "longitude": 26.04417
  },
  {
    "city": "Võhmuta",
    "city_zh": "Võhmuta",
    "country": "Estonia",
    "country_zh": "愛沙尼亞",
    "country_iso_code": "EE",
    "timezone": "Europe/Tallinn",
    "latitude": 59.08,
    "longitude": 25.95611
  },
  {
    "city": "Võhmetu",
    "city_zh": "Võhmetu",
    "country": "Estonia",
    "country_zh": "愛沙尼亞",
    "country_iso_code": "EE",
    "timezone": "Europe/Tallinn",
    "latitude": 59.21694,
    "longitude": 26.21639
  },
  {
    "city": "Võhma",
    "city_zh": "Võhma",
    "country": "Estonia",
    "country_zh": "愛沙尼亞",
    "country_iso_code": "EE",
    "timezone": "Europe/Tallinn",
    "latitude": 59.53111,
    "longitude": 25.8625
  },
  {
    "city": "Võhma",
    "city_zh": "Võhma",
    "country": "Estonia",
    "country_zh": "愛沙尼亞",
    "country_iso_code": "EE",
    "timezone": "Europe/Tallinn",
    "latitude": 59.37111,
    "longitude": 26.55111
  },
  {
    "city": "Võhma",
    "city_zh": "Võhma",
    "country": "Estonia",
    "country_zh": "愛沙尼亞",
    "country_iso_code": "EE",
    "timezone": "Europe/Tallinn",
    "latitude": 58.72222,
    "longitude": 24.10528
  },
  {
    "city": "Võhma",
    "city_zh": "沃赫馬",
    "country": "Estonia",
    "country_zh": "愛沙尼亞",
    "country_iso_code": "EE",
    "timezone": "Europe/Tallinn",
    "latitude": 58.62833,
    "longitude": 25.54833
  },
  {
    "city": "Võhma",
    "city_zh": "Võhma",
    "country": "Estonia",
    "country_zh": "愛沙尼亞",
    "country_iso_code": "EE",
    "timezone": "Europe/Tallinn",
    "latitude": 58.58222,
    "longitude": 22.85722
  },
  {
    "city": "Võhma",
    "city_zh": "Võhma",
    "country": "Estonia",
    "country_zh": "愛沙尼亞",
    "country_iso_code": "EE",
    "timezone": "Europe/Tallinn",
    "latitude": 58.53056,
    "longitude": 22.34778
  },
  {
    "city": "Võhma",
    "city_zh": "Võhma",
    "country": "Estonia",
    "country_zh": "愛沙尼亞",
    "country_iso_code": "EE",
    "timezone": "Europe/Tallinn",
    "latitude": 58.4875,
    "longitude": 25.60083
  },
  {
    "city": "Võhma",
    "city_zh": "Võhma",
    "country": "Estonia",
    "country_zh": "愛沙尼亞",
    "country_iso_code": "EE",
    "timezone": "Europe/Tallinn",
    "latitude": 58.32667,
    "longitude": 24.1275
  },
  {
    "city": "Võeva",
    "city_zh": "Võeva",
    "country": "Estonia",
    "country_zh": "愛沙尼亞",
    "country_iso_code": "EE",
    "timezone": "Europe/Tallinn",
    "latitude": 58.77667,
    "longitude": 24.49889
  },
  {
    "city": "Võerdla",
    "city_zh": "Võerdla",
    "country": "Estonia",
    "country_zh": "愛沙尼亞",
    "country_iso_code": "EE",
    "timezone": "Europe/Tallinn",
    "latitude": 59.45478,
    "longitude": 25.06631
  },
  {
    "city": "Võduvere",
    "city_zh": "Võduvere",
    "country": "Estonia",
    "country_zh": "愛沙尼亞",
    "country_iso_code": "EE",
    "timezone": "Europe/Tallinn",
    "latitude": 58.7525,
    "longitude": 26.42889
  },
  {
    "city": "Vodja",
    "city_zh": "Vodja",
    "country": "Estonia",
    "country_zh": "愛沙尼亞",
    "country_iso_code": "EE",
    "timezone": "Europe/Tallinn",
    "latitude": 58.93861,
    "longitude": 25.69167
  },
  {
    "city": "Vodava",
    "city_zh": "Vodava",
    "country": "Estonia",
    "country_zh": "愛沙尼亞",
    "country_iso_code": "EE",
    "timezone": "Europe/Tallinn",
    "latitude": 59.40676,
    "longitude": 28.0306
  },
  {
    "city": "Vitsjärve",
    "city_zh": "Vitsjärve",
    "country": "Estonia",
    "country_zh": "愛沙尼亞",
    "country_iso_code": "EE",
    "timezone": "Europe/Tallinn",
    "latitude": 58.65333,
    "longitude": 25.81389
  },
  {
    "city": "Viti",
    "city_zh": "Viti",
    "country": "Estonia",
    "country_zh": "愛沙尼亞",
    "country_iso_code": "EE",
    "timezone": "Europe/Tallinn",
    "latitude": 59.44102,
    "longitude": 24.37943
  },
  {
    "city": "Visusti",
    "city_zh": "Visusti",
    "country": "Estonia",
    "country_zh": "愛沙尼亞",
    "country_iso_code": "EE",
    "timezone": "Europe/Tallinn",
    "latitude": 58.98417,
    "longitude": 25.98972
  },
  {
    "city": "Visusti",
    "city_zh": "Visusti",
    "country": "Estonia",
    "country_zh": "愛沙尼亞",
    "country_iso_code": "EE",
    "timezone": "Europe/Tallinn",
    "latitude": 58.62361,
    "longitude": 26.50472
  },
  {
    "city": "Vitsla",
    "city_zh": "Vitsla",
    "country": "Estonia",
    "country_zh": "愛沙尼亞",
    "country_iso_code": "EE",
    "timezone": "Europe/Tallinn",
    "latitude": 59.13222,
    "longitude": 25.81944
  },
  {
    "city": "Vissuvere",
    "city_zh": "Vissuvere",
    "country": "Estonia",
    "country_zh": "愛沙尼亞",
    "country_iso_code": "EE",
    "timezone": "Europe/Tallinn",
    "latitude": 58.94028,
    "longitude": 25.405
  },
  {
    "city": "Vissuvere",
    "city_zh": "Vissuvere",
    "country": "Estonia",
    "country_zh": "愛沙尼亞",
    "country_iso_code": "EE",
    "timezone": "Europe/Tallinn",
    "latitude": 58.545,
    "longitude": 25.89111
  },
  {
    "city": "Vissi",
    "city_zh": "Vissi",
    "country": "Estonia",
    "country_zh": "愛沙尼亞",
    "country_iso_code": "EE",
    "timezone": "Europe/Tallinn",
    "latitude": 58.25528,
    "longitude": 26.44278
  },
  {
    "city": "Viskla",
    "city_zh": "Viskla",
    "country": "Estonia",
    "country_zh": "愛沙尼亞",
    "country_iso_code": "EE",
    "timezone": "Europe/Tallinn",
    "latitude": 59.21667,
    "longitude": 25.20361
  },
  {
    "city": "Visja",
    "city_zh": "Visja",
    "country": "Estonia",
    "country_zh": "愛沙尼亞",
    "country_iso_code": "EE",
    "timezone": "Europe/Tallinn",
    "latitude": 59.20278,
    "longitude": 24.88889
  },
  {
    "city": "Virve",
    "city_zh": "Virve",
    "country": "Estonia",
    "country_zh": "愛沙尼亞",
    "country_iso_code": "EE",
    "timezone": "Europe/Tallinn",
    "latitude": 59.59306,
    "longitude": 25.60306
  },
  {
    "city": "Virve",
    "city_zh": "Virve",
    "country": "Estonia",
    "country_zh": "愛沙尼亞",
    "country_iso_code": "EE",
    "timezone": "Europe/Tallinn",
    "latitude": 57.88222,
    "longitude": 27.2375
  },
  {
    "city": "Viruvere",
    "city_zh": "Viruvere",
    "country": "Estonia",
    "country_zh": "愛沙尼亞",
    "country_iso_code": "EE",
    "timezone": "Europe/Tallinn",
    "latitude": 58.75056,
    "longitude": 26.30944
  },
  {
    "city": "Viruvere",
    "city_zh": "Viruvere",
    "country": "Estonia",
    "country_zh": "愛沙尼亞",
    "country_iso_code": "EE",
    "timezone": "Europe/Tallinn",
    "latitude": 58.69833,
    "longitude": 25.85472
  },
  {
    "city": "Roela",
    "city_zh": "Roela",
    "country": "Estonia",
    "country_zh": "愛沙尼亞",
    "country_iso_code": "EE",
    "timezone": "Europe/Tallinn",
    "latitude": 59.17028,
    "longitude": 26.60028
  },
  {
    "city": "Virunurme",
    "city_zh": "Virunurme",
    "country": "Estonia",
    "country_zh": "愛沙尼亞",
    "country_iso_code": "EE",
    "timezone": "Europe/Tallinn",
    "latitude": 59.19528,
    "longitude": 27.04583
  },
  {
    "city": "Viru-Nigula",
    "city_zh": "Viru-Nigula",
    "country": "Estonia",
    "country_zh": "愛沙尼亞",
    "country_iso_code": "EE",
    "timezone": "Europe/Tallinn",
    "latitude": 59.44417,
    "longitude": 26.6875
  },
  {
    "city": "Viruna",
    "city_zh": "Viruna",
    "country": "Estonia",
    "country_zh": "愛沙尼亞",
    "country_iso_code": "EE",
    "timezone": "Europe/Tallinn",
    "latitude": 58.49694,
    "longitude": 23.99889
  },
  {
    "city": "Viruküla",
    "city_zh": "Viruküla",
    "country": "Estonia",
    "country_zh": "愛沙尼亞",
    "country_iso_code": "EE",
    "timezone": "Europe/Tallinn",
    "latitude": 59.09222,
    "longitude": 24.2025
  },
  {
    "city": "Viru-Kabala",
    "city_zh": "Viru-Kabala",
    "country": "Estonia",
    "country_zh": "愛沙尼亞",
    "country_iso_code": "EE",
    "timezone": "Europe/Tallinn",
    "latitude": 59.35306,
    "longitude": 26.67556
  },
  {
    "city": "Viru-Jaagupi",
    "city_zh": "Viru-Jaagupi",
    "country": "Estonia",
    "country_zh": "愛沙尼亞",
    "country_iso_code": "EE",
    "timezone": "Europe/Tallinn",
    "latitude": 59.2425,
    "longitude": 26.47583
  },
  {
    "city": "Virtsu",
    "city_zh": "Virtsu",
    "country": "Estonia",
    "country_zh": "愛沙尼亞",
    "country_iso_code": "EE",
    "timezone": "Europe/Tallinn",
    "latitude": 58.62806,
    "longitude": 27.14722
  },
  {
    "city": "Virtsu",
    "city_zh": "Virtsu",
    "country": "Estonia",
    "country_zh": "愛沙尼亞",
    "country_iso_code": "EE",
    "timezone": "Europe/Tallinn",
    "latitude": 58.57,
    "longitude": 23.52389
  },
  {
    "city": "Virla",
    "city_zh": "Virla",
    "country": "Estonia",
    "country_zh": "愛沙尼亞",
    "country_iso_code": "EE",
    "timezone": "Europe/Tallinn",
    "latitude": 59.05472,
    "longitude": 25.26083
  },
  {
    "city": "Virita",
    "city_zh": "Virita",
    "country": "Estonia",
    "country_zh": "愛沙尼亞",
    "country_iso_code": "EE",
    "timezone": "Europe/Tallinn",
    "latitude": 58.58444,
    "longitude": 23.65
  },
  {
    "city": "Virita",
    "city_zh": "Virita",
    "country": "Estonia",
    "country_zh": "愛沙尼亞",
    "country_iso_code": "EE",
    "timezone": "Europe/Tallinn",
    "latitude": 58.36722,
    "longitude": 22.05444
  },
  {
    "city": "Virika",
    "city_zh": "Virika",
    "country": "Estonia",
    "country_zh": "愛沙尼亞",
    "country_iso_code": "EE",
    "timezone": "Europe/Tallinn",
    "latitude": 58.85,
    "longitude": 25.43333
  },
  {
    "city": "Viratu",
    "city_zh": "Viratu",
    "country": "Estonia",
    "country_zh": "愛沙尼亞",
    "country_iso_code": "EE",
    "timezone": "Europe/Tallinn",
    "latitude": 58.65,
    "longitude": 25.13333
  },
  {
    "city": "Vintse",
    "city_zh": "Vintse",
    "country": "Estonia",
    "country_zh": "愛沙尼亞",
    "country_iso_code": "EE",
    "timezone": "Europe/Tallinn",
    "latitude": 59.27444,
    "longitude": 23.855
  },
  {
    "city": "Vintri",
    "city_zh": "Vintri",
    "country": "Estonia",
    "country_zh": "愛沙尼亞",
    "country_iso_code": "EE",
    "timezone": "Europe/Tallinn",
    "latitude": 58.35139,
    "longitude": 22.44806
  },
  {
    "city": "Vintri",
    "city_zh": "Vintri",
    "country": "Estonia",
    "country_zh": "愛沙尼亞",
    "country_iso_code": "EE",
    "timezone": "Europe/Tallinn",
    "latitude": 58.04389,
    "longitude": 22.19694
  },
  {
    "city": "Vinski",
    "city_zh": "Vinski",
    "country": "Estonia",
    "country_zh": "愛沙尼亞",
    "country_iso_code": "EE",
    "timezone": "Europe/Tallinn",
    "latitude": 57.75,
    "longitude": 27.5
  },
  {
    "city": "Vinni",
    "city_zh": "Vinni",
    "country": "Estonia",
    "country_zh": "愛沙尼亞",
    "country_iso_code": "EE",
    "timezone": "Europe/Tallinn",
    "latitude": 59.29583,
    "longitude": 26.43222
  },
  {
    "city": "Vana-Vinni",
    "city_zh": "Vana-Vinni",
    "country": "Estonia",
    "country_zh": "愛沙尼亞",
    "country_iso_code": "EE",
    "timezone": "Europe/Tallinn",
    "latitude": 59.28944,
    "longitude": 26.39694
  },
  {
    "city": "Vinguta",
    "city_zh": "Vinguta",
    "country": "Estonia",
    "country_zh": "愛沙尼亞",
    "country_iso_code": "EE",
    "timezone": "Europe/Tallinn",
    "latitude": 58.89833,
    "longitude": 24.24889
  },
  {
    "city": "Vingiküla",
    "city_zh": "Vingiküla",
    "country": "Estonia",
    "country_zh": "愛沙尼亞",
    "country_iso_code": "EE",
    "timezone": "Europe/Tallinn",
    "latitude": 58.415,
    "longitude": 24.49889
  },
  {
    "city": "Vingerja",
    "city_zh": "Vingerja",
    "country": "Estonia",
    "country_zh": "愛沙尼亞",
    "country_iso_code": "EE",
    "timezone": "Europe/Tallinn",
    "latitude": 58.33333,
    "longitude": 24.80167
  },
  {
    "city": "Viljandi",
    "city_zh": "維爾揚迪",
    "country": "Estonia",
    "country_zh": "愛沙尼亞",
    "country_iso_code": "EE",
    "timezone": "Europe/Tallinn",
    "latitude": 58.36389,
    "longitude": 25.59
  },
  {
    "city": "Viluste",
    "city_zh": "Viluste",
    "country": "Estonia",
    "country_zh": "愛沙尼亞",
    "country_iso_code": "EE",
    "timezone": "Europe/Tallinn",
    "latitude": 57.98639,
    "longitude": 27.33028
  },
  {
    "city": "Vilusi",
    "city_zh": "Vilusi",
    "country": "Estonia",
    "country_zh": "愛沙尼亞",
    "country_iso_code": "EE",
    "timezone": "Europe/Tallinn",
    "latitude": 58.87778,
    "longitude": 26.95528
  },
  {
    "city": "Viltina",
    "city_zh": "Viltina",
    "country": "Estonia",
    "country_zh": "愛沙尼亞",
    "country_iso_code": "EE",
    "timezone": "Europe/Tallinn",
    "latitude": 58.40861,
    "longitude": 23.05472
  },
  {
    "city": "Vilta",
    "city_zh": "Vilta",
    "country": "Estonia",
    "country_zh": "愛沙尼亞",
    "country_iso_code": "EE",
    "timezone": "Europe/Tallinn",
    "latitude": 58.88,
    "longitude": 24.26778
  },
  {
    "city": "Vilsandi",
    "city_zh": "Vilsandi",
    "country": "Estonia",
    "country_zh": "愛沙尼亞",
    "country_iso_code": "EE",
    "timezone": "Europe/Tallinn",
    "latitude": 58.37583,
    "longitude": 21.84944
  },
  {
    "city": "Villamaa",
    "city_zh": "Villamaa",
    "country": "Estonia",
    "country_zh": "愛沙尼亞",
    "country_iso_code": "EE",
    "timezone": "Europe/Tallinn",
    "latitude": 58.92182,
    "longitude": 22.39211
  },
  {
    "city": "Villa",
    "city_zh": "Villa",
    "country": "Estonia",
    "country_zh": "愛沙尼亞",
    "country_iso_code": "EE",
    "timezone": "Europe/Tallinn",
    "latitude": 58.26306,
    "longitude": 25.88583
  },
  {
    "city": "Villa",
    "city_zh": "Villa",
    "country": "Estonia",
    "country_zh": "愛沙尼亞",
    "country_iso_code": "EE",
    "timezone": "Europe/Tallinn",
    "latitude": 57.68639,
    "longitude": 27.08333
  },
  {
    "city": "Vilkla",
    "city_zh": "Vilkla",
    "country": "Estonia",
    "country_zh": "愛沙尼亞",
    "country_iso_code": "EE",
    "timezone": "Europe/Tallinn",
    "latitude": 58.88833,
    "longitude": 23.61444
  },
  {
    "city": "Vilivere",
    "city_zh": "Vilivere",
    "country": "Estonia",
    "country_zh": "愛沙尼亞",
    "country_iso_code": "EE",
    "timezone": "Europe/Tallinn",
    "latitude": 59.20194,
    "longitude": 24.71417
  },
  {
    "city": "Vilivalla",
    "city_zh": "Vilivalla",
    "country": "Estonia",
    "country_zh": "愛沙尼亞",
    "country_iso_code": "EE",
    "timezone": "Europe/Tallinn",
    "latitude": 59.23611,
    "longitude": 23.92778
  },
  {
    "city": "Vilivalla",
    "city_zh": "Vilivalla",
    "country": "Estonia",
    "country_zh": "愛沙尼亞",
    "country_iso_code": "EE",
    "timezone": "Europe/Tallinn",
    "latitude": 58.90939,
    "longitude": 22.83864
  },
  {
    "city": "Vilita",
    "city_zh": "Vilita",
    "country": "Estonia",
    "country_zh": "愛沙尼亞",
    "country_iso_code": "EE",
    "timezone": "Europe/Tallinn",
    "latitude": 58.76028,
    "longitude": 25.42472
  },
  {
    "city": "Vilima",
    "city_zh": "Vilima",
    "country": "Estonia",
    "country_zh": "愛沙尼亞",
    "country_iso_code": "EE",
    "timezone": "Europe/Tallinn",
    "latitude": 58.90131,
    "longitude": 22.22999
  },
  {
    "city": "Vilidu",
    "city_zh": "Vilidu",
    "country": "Estonia",
    "country_zh": "愛沙尼亞",
    "country_iso_code": "EE",
    "timezone": "Europe/Tallinn",
    "latitude": 58.43694,
    "longitude": 22.81667
  },
  {
    "city": "Vilama",
    "city_zh": "Vilama",
    "country": "Estonia",
    "country_zh": "愛沙尼亞",
    "country_iso_code": "EE",
    "timezone": "Europe/Tallinn",
    "latitude": 59.19667,
    "longitude": 25.29444
  },
  {
    "city": "Vikipalu",
    "city_zh": "Vikipalu",
    "country": "Estonia",
    "country_zh": "愛沙尼亞",
    "country_iso_code": "EE",
    "timezone": "Europe/Tallinn",
    "latitude": 59.35194,
    "longitude": 25.43333
  },
  {
    "city": "Viki",
    "city_zh": "Viki",
    "country": "Estonia",
    "country_zh": "愛沙尼亞",
    "country_iso_code": "EE",
    "timezone": "Europe/Tallinn",
    "latitude": 58.34167,
    "longitude": 22.09917
  },
  {
    "city": "Viivikonna",
    "city_zh": "Viivikonna",
    "country": "Estonia",
    "country_zh": "愛沙尼亞",
    "country_iso_code": "EE",
    "timezone": "Europe/Tallinn",
    "latitude": 59.33855,
    "longitude": 27.68666
  },
  {
    "city": "Viitna",
    "city_zh": "Viitna",
    "country": "Estonia",
    "country_zh": "愛沙尼亞",
    "country_iso_code": "EE",
    "timezone": "Europe/Tallinn",
    "latitude": 59.4575,
    "longitude": 26.01444
  },
  {
    "city": "Viitka",
    "city_zh": "Viitka",
    "country": "Estonia",
    "country_zh": "愛沙尼亞",
    "country_iso_code": "EE",
    "timezone": "Europe/Tallinn",
    "latitude": 57.68889,
    "longitude": 27.3325
  },
  {
    "city": "Viitina",
    "city_zh": "Viitina",
    "country": "Estonia",
    "country_zh": "愛沙尼亞",
    "country_iso_code": "EE",
    "timezone": "Europe/Tallinn",
    "latitude": 57.6875,
    "longitude": 26.93222
  },
  {
    "city": "Viiterna",
    "city_zh": "Viiterna",
    "country": "Estonia",
    "country_zh": "愛沙尼亞",
    "country_iso_code": "EE",
    "timezone": "Europe/Tallinn",
    "latitude": 58.7,
    "longitude": 22.61667
  },
  {
    "city": "Viita",
    "city_zh": "Viita",
    "country": "Estonia",
    "country_zh": "愛沙尼亞",
    "country_iso_code": "EE",
    "timezone": "Europe/Tallinn",
    "latitude": 58.90673,
    "longitude": 22.3456
  },
  {
    "city": "Viisu",
    "city_zh": "Viisu",
    "country": "Estonia",
    "country_zh": "愛沙尼亞",
    "country_iso_code": "EE",
    "timezone": "Europe/Tallinn",
    "latitude": 59.13222,
    "longitude": 24.29889
  },
  {
    "city": "Viisu",
    "city_zh": "Viisu",
    "country": "Estonia",
    "country_zh": "愛沙尼亞",
    "country_iso_code": "EE",
    "timezone": "Europe/Tallinn",
    "latitude": 58.98472,
    "longitude": 25.72083
  },
  {
    "city": "Viisu",
    "city_zh": "Viisu",
    "country": "Estonia",
    "country_zh": "愛沙尼亞",
    "country_iso_code": "EE",
    "timezone": "Europe/Tallinn",
    "latitude": 58.94528,
    "longitude": 25.67167
  },
  {
    "city": "Viisuküla",
    "city_zh": "Viisuküla",
    "country": "Estonia",
    "country_zh": "愛沙尼亞",
    "country_iso_code": "EE",
    "timezone": "Europe/Tallinn",
    "latitude": 58.27917,
    "longitude": 25.67278
  },
  {
    "city": "Viisli",
    "city_zh": "Viisli",
    "country": "Estonia",
    "country_zh": "愛沙尼亞",
    "country_iso_code": "EE",
    "timezone": "Europe/Tallinn",
    "latitude": 58.18194,
    "longitude": 27.2025
  },
  {
    "city": "Viisjaagu",
    "city_zh": "Viisjaagu",
    "country": "Estonia",
    "country_zh": "愛沙尼亞",
    "country_iso_code": "EE",
    "timezone": "Europe/Tallinn",
    "latitude": 58.26667,
    "longitude": 26.43333
  },
  {
    "city": "Viirika",
    "city_zh": "Viirika",
    "country": "Estonia",
    "country_zh": "愛沙尼亞",
    "country_iso_code": "EE",
    "timezone": "Europe/Tallinn",
    "latitude": 59.0025,
    "longitude": 25.13639
  },
  {
    "city": "Viiri",
    "city_zh": "Viiri",
    "country": "Estonia",
    "country_zh": "愛沙尼亞",
    "country_iso_code": "EE",
    "timezone": "Europe/Tallinn",
    "latitude": 58.70552,
    "longitude": 22.53959
  },
  {
    "city": "Viiratsi",
    "city_zh": "Viiratsi",
    "country": "Estonia",
    "country_zh": "愛沙尼亞",
    "country_iso_code": "EE",
    "timezone": "Europe/Tallinn",
    "latitude": 58.36,
    "longitude": 25.63722
  },
  {
    "city": "Viira",
    "city_zh": "Viira",
    "country": "Estonia",
    "country_zh": "愛沙尼亞",
    "country_iso_code": "EE",
    "timezone": "Europe/Tallinn",
    "latitude": 58.53389,
    "longitude": 22.73778
  },
  {
    "city": "Viira",
    "city_zh": "Viira",
    "country": "Estonia",
    "country_zh": "愛沙尼亞",
    "country_iso_code": "EE",
    "timezone": "Europe/Tallinn",
    "latitude": 58.60333,
    "longitude": 23.21944
  },
  {
    "city": "Viira",
    "city_zh": "Viira",
    "country": "Estonia",
    "country_zh": "愛沙尼亞",
    "country_iso_code": "EE",
    "timezone": "Europe/Tallinn",
    "latitude": 58.54583,
    "longitude": 23.67472
  },
  {
    "city": "Viira",
    "city_zh": "Viira",
    "country": "Estonia",
    "country_zh": "愛沙尼亞",
    "country_iso_code": "EE",
    "timezone": "Europe/Tallinn",
    "latitude": 58.40861,
    "longitude": 27.06222
  },
  {
    "city": "Viira",
    "city_zh": "Viira",
    "country": "Estonia",
    "country_zh": "愛沙尼亞",
    "country_iso_code": "EE",
    "timezone": "Europe/Tallinn",
    "latitude": 58.29278,
    "longitude": 22.42083
  },
  {
    "city": "Viira",
    "city_zh": "Viira",
    "country": "Estonia",
    "country_zh": "愛沙尼亞",
    "country_iso_code": "EE",
    "timezone": "Europe/Tallinn",
    "latitude": 58.06151,
    "longitude": 24.48119
  },
  {
    "city": "Viinistu",
    "city_zh": "Viinistu",
    "country": "Estonia",
    "country_zh": "愛沙尼亞",
    "country_iso_code": "EE",
    "timezone": "Europe/Tallinn",
    "latitude": 59.64278,
    "longitude": 25.75611
  },
  {
    "city": "Viinahaua",
    "city_zh": "Viinahaua",
    "country": "Estonia",
    "country_zh": "愛沙尼亞",
    "country_iso_code": "EE",
    "timezone": "Europe/Tallinn",
    "latitude": 58.48333,
    "longitude": 24.96667
  },
  {
    "city": "Viimsi",
    "city_zh": "Viimsi",
    "country": "Estonia",
    "country_zh": "愛沙尼亞",
    "country_iso_code": "EE",
    "timezone": "Europe/Tallinn",
    "latitude": 59.50502,
    "longitude": 24.84807
  },
  {
    "city": "Viilupi",
    "city_zh": "Viilupi",
    "country": "Estonia",
    "country_zh": "愛沙尼亞",
    "country_iso_code": "EE",
    "timezone": "Europe/Tallinn",
    "latitude": 58.87045,
    "longitude": 22.91145
  },
  {
    "city": "Viidu",
    "city_zh": "Viidu",
    "country": "Estonia",
    "country_zh": "愛沙尼亞",
    "country_iso_code": "EE",
    "timezone": "Europe/Tallinn",
    "latitude": 58.28167,
    "longitude": 22.13889
  },
  {
    "city": "Viidike",
    "city_zh": "Viidike",
    "country": "Estonia",
    "country_zh": "愛沙尼亞",
    "country_iso_code": "EE",
    "timezone": "Europe/Tallinn",
    "latitude": 58.46111,
    "longitude": 26.87917
  },
  {
    "city": "Vihula",
    "city_zh": "Vihula",
    "country": "Estonia",
    "country_zh": "愛沙尼亞",
    "country_iso_code": "EE",
    "timezone": "Europe/Tallinn",
    "latitude": 59.54361,
    "longitude": 26.15722
  },
  {
    "city": "Vihtsi",
    "city_zh": "Vihtsi",
    "country": "Estonia",
    "country_zh": "愛沙尼亞",
    "country_iso_code": "EE",
    "timezone": "Europe/Tallinn",
    "latitude": 58.1,
    "longitude": 25.36667
  },
  {
    "city": "Jaama",
    "city_zh": "Jaama",
    "country": "Estonia",
    "country_zh": "愛沙尼亞",
    "country_iso_code": "EE",
    "timezone": "Europe/Tallinn",
    "latitude": 59.04167,
    "longitude": 27.71194
  },
  {
    "city": "Vihtra",
    "city_zh": "Vihtra",
    "country": "Estonia",
    "country_zh": "愛沙尼亞",
    "country_iso_code": "EE",
    "timezone": "Europe/Tallinn",
    "latitude": 58.5875,
    "longitude": 25.01528
  },
  {
    "city": "Vihterpalu",
    "city_zh": "Vihterpalu",
    "country": "Estonia",
    "country_zh": "愛沙尼亞",
    "country_iso_code": "EE",
    "timezone": "Europe/Tallinn",
    "latitude": 59.25167,
    "longitude": 23.87694
  },
  {
    "city": "Vihi",
    "city_zh": "Vihi",
    "country": "Estonia",
    "country_zh": "愛沙尼亞",
    "country_iso_code": "EE",
    "timezone": "Europe/Tallinn",
    "latitude": 58.58083,
    "longitude": 25.37389
  },
  {
    "city": "Vihavu",
    "city_zh": "Vihavu",
    "country": "Estonia",
    "country_zh": "愛沙尼亞",
    "country_iso_code": "EE",
    "timezone": "Europe/Tallinn",
    "latitude": 58.36056,
    "longitude": 26.27667
  },
  {
    "city": "Vihasoo",
    "city_zh": "Vihasoo",
    "country": "Estonia",
    "country_zh": "愛沙尼亞",
    "country_iso_code": "EE",
    "timezone": "Europe/Tallinn",
    "latitude": 59.55944,
    "longitude": 25.8025
  },
  {
    "city": "Vihakse",
    "city_zh": "Vihakse",
    "country": "Estonia",
    "country_zh": "愛沙尼亞",
    "country_iso_code": "EE",
    "timezone": "Europe/Tallinn",
    "latitude": 58.285,
    "longitude": 24.06583
  },
  {
    "city": "Kivi-Vigala",
    "city_zh": "Kivi-Vigala",
    "country": "Estonia",
    "country_zh": "愛沙尼亞",
    "country_iso_code": "EE",
    "timezone": "Europe/Tallinn",
    "latitude": 58.71528,
    "longitude": 24.37694
  },
  {
    "city": "Vidruka",
    "city_zh": "Vidruka",
    "country": "Estonia",
    "country_zh": "愛沙尼亞",
    "country_iso_code": "EE",
    "timezone": "Europe/Tallinn",
    "latitude": 58.99417,
    "longitude": 23.84111
  },
  {
    "city": "Vidrike",
    "city_zh": "Vidrike",
    "country": "Estonia",
    "country_zh": "愛沙尼亞",
    "country_iso_code": "EE",
    "timezone": "Europe/Tallinn",
    "latitude": 57.98861,
    "longitude": 26.51639
  },
  {
    "city": "Vetla",
    "city_zh": "Vetla",
    "country": "Estonia",
    "country_zh": "愛沙尼亞",
    "country_iso_code": "EE",
    "timezone": "Europe/Tallinn",
    "latitude": 59.21972,
    "longitude": 25.4525
  },
  {
    "city": "Vetiku",
    "city_zh": "Vetiku",
    "country": "Estonia",
    "country_zh": "愛沙尼亞",
    "country_iso_code": "EE",
    "timezone": "Europe/Tallinn",
    "latitude": 59.31667,
    "longitude": 26.43167
  },
  {
    "city": "Vetepere",
    "city_zh": "Vetepere",
    "country": "Estonia",
    "country_zh": "愛沙尼亞",
    "country_iso_code": "EE",
    "timezone": "Europe/Tallinn",
    "latitude": 59.13167,
    "longitude": 25.62333
  },
  {
    "city": "Vestla",
    "city_zh": "Vestla",
    "country": "Estonia",
    "country_zh": "愛沙尼亞",
    "country_iso_code": "EE",
    "timezone": "Europe/Tallinn",
    "latitude": 58.33333,
    "longitude": 22.48333
  },
  {
    "city": "Vesneri",
    "city_zh": "Vesneri",
    "country": "Estonia",
    "country_zh": "愛沙尼亞",
    "country_iso_code": "EE",
    "timezone": "Europe/Tallinn",
    "latitude": 58.43028,
    "longitude": 26.8475
  },
  {
    "city": "Veskitaguse",
    "city_zh": "Veskitaguse",
    "country": "Estonia",
    "country_zh": "愛沙尼亞",
    "country_iso_code": "EE",
    "timezone": "Europe/Tallinn",
    "latitude": 59.31984,
    "longitude": 24.95509
  },
  {
    "city": "Veskiküla",
    "city_zh": "Veskiküla",
    "country": "Estonia",
    "country_zh": "愛沙尼亞",
    "country_iso_code": "EE",
    "timezone": "Europe/Tallinn",
    "latitude": 59.235,
    "longitude": 24.23389
  },
  {
    "city": "Veski",
    "city_zh": "Veski",
    "country": "Estonia",
    "country_zh": "愛沙尼亞",
    "country_iso_code": "EE",
    "timezone": "Europe/Tallinn",
    "latitude": 58.98444,
    "longitude": 23.85639
  },
  {
    "city": "Veskiaru",
    "city_zh": "Veskiaru",
    "country": "Estonia",
    "country_zh": "愛沙尼亞",
    "country_iso_code": "EE",
    "timezone": "Europe/Tallinn",
    "latitude": 58.85,
    "longitude": 25.66667
  },
  {
    "city": "Veski",
    "city_zh": "Veski",
    "country": "Estonia",
    "country_zh": "愛沙尼亞",
    "country_iso_code": "EE",
    "timezone": "Europe/Tallinn",
    "latitude": 58.80944,
    "longitude": 24.56306
  },
  {
    "city": "Veske",
    "city_zh": "Veske",
    "country": "Estonia",
    "country_zh": "愛沙尼亞",
    "country_iso_code": "EE",
    "timezone": "Europe/Tallinn",
    "latitude": 58.54556,
    "longitude": 22.68889
  },
  {
    "city": "Veski",
    "city_zh": "Veski",
    "country": "Estonia",
    "country_zh": "愛沙尼亞",
    "country_iso_code": "EE",
    "timezone": "Europe/Tallinn",
    "latitude": 58.5325,
    "longitude": 24.71694
  },
  {
    "city": "Veski",
    "city_zh": "Veski",
    "country": "Estonia",
    "country_zh": "愛沙尼亞",
    "country_iso_code": "EE",
    "timezone": "Europe/Tallinn",
    "latitude": 58.15,
    "longitude": 25.81667
  },
  {
    "city": "Veski",
    "city_zh": "Veski",
    "country": "Estonia",
    "country_zh": "愛沙尼亞",
    "country_iso_code": "EE",
    "timezone": "Europe/Tallinn",
    "latitude": 58.10389,
    "longitude": 26.76944
  },
  {
    "city": "Veriora",
    "city_zh": "Veriora",
    "country": "Estonia",
    "country_zh": "愛沙尼亞",
    "country_iso_code": "EE",
    "timezone": "Europe/Tallinn",
    "latitude": 58.00417,
    "longitude": 27.35194
  },
  {
    "city": "Verilaske",
    "city_zh": "Verilaske",
    "country": "Estonia",
    "country_zh": "愛沙尼亞",
    "country_iso_code": "EE",
    "timezone": "Europe/Tallinn",
    "latitude": 58.36833,
    "longitude": 25.69583
  },
  {
    "city": "Vergi",
    "city_zh": "Vergi",
    "country": "Estonia",
    "country_zh": "愛沙尼亞",
    "country_iso_code": "EE",
    "timezone": "Europe/Tallinn",
    "latitude": 59.59333,
    "longitude": 26.08778
  },
  {
    "city": "Verevi",
    "city_zh": "Verevi",
    "country": "Estonia",
    "country_zh": "愛沙尼亞",
    "country_iso_code": "EE",
    "timezone": "Europe/Tallinn",
    "latitude": 58.37667,
    "longitude": 26.19056
  },
  {
    "city": "Vennati",
    "city_zh": "Vennati",
    "country": "Estonia",
    "country_zh": "愛沙尼亞",
    "country_iso_code": "EE",
    "timezone": "Europe/Tallinn",
    "latitude": 58.26861,
    "longitude": 22.34722
  },
  {
    "city": "Venevere",
    "city_zh": "Venevere",
    "country": "Estonia",
    "country_zh": "愛沙尼亞",
    "country_iso_code": "EE",
    "timezone": "Europe/Tallinn",
    "latitude": 59.01639,
    "longitude": 26.71056
  },
  {
    "city": "Venevere",
    "city_zh": "Venevere",
    "country": "Estonia",
    "country_zh": "愛沙尼亞",
    "country_iso_code": "EE",
    "timezone": "Europe/Tallinn",
    "latitude": 58.91889,
    "longitude": 25.47472
  },
  {
    "city": "Veneküla",
    "city_zh": "Veneküla",
    "country": "Estonia",
    "country_zh": "愛沙尼亞",
    "country_iso_code": "EE",
    "timezone": "Europe/Tallinn",
    "latitude": 58.93333,
    "longitude": 24.9
  },
  {
    "city": "Veneküla",
    "city_zh": "Veneküla",
    "country": "Estonia",
    "country_zh": "愛沙尼亞",
    "country_iso_code": "EE",
    "timezone": "Europe/Tallinn",
    "latitude": 58.775,
    "longitude": 24.42222
  },
  {
    "city": "Veneküla",
    "city_zh": "Veneküla",
    "country": "Estonia",
    "country_zh": "愛沙尼亞",
    "country_iso_code": "EE",
    "timezone": "Europe/Tallinn",
    "latitude": 58.45,
    "longitude": 22.88333
  },
  {
    "city": "Venehoone",
    "city_zh": "Venehoone",
    "country": "Estonia",
    "country_zh": "愛沙尼亞",
    "country_iso_code": "EE",
    "timezone": "Europe/Tallinn",
    "latitude": 59.31667,
    "longitude": 26.18333
  },
  {
    "city": "Veltsi",
    "city_zh": "Veltsi",
    "country": "Estonia",
    "country_zh": "愛沙尼亞",
    "country_iso_code": "EE",
    "timezone": "Europe/Tallinn",
    "latitude": 59.39861,
    "longitude": 26.26528
  },
  {
    "city": "Veltsa",
    "city_zh": "Veltsa",
    "country": "Estonia",
    "country_zh": "愛沙尼亞",
    "country_iso_code": "EE",
    "timezone": "Europe/Tallinn",
    "latitude": 58.60056,
    "longitude": 24.06778
  },
  {
    "city": "Velise-Nõlva",
    "city_zh": "Velise-Nõlva",
    "country": "Estonia",
    "country_zh": "愛沙尼亞",
    "country_iso_code": "EE",
    "timezone": "Europe/Tallinn",
    "latitude": 58.78556,
    "longitude": 24.54194
  },
  {
    "city": "Velise",
    "city_zh": "Velise",
    "country": "Estonia",
    "country_zh": "愛沙尼亞",
    "country_iso_code": "EE",
    "timezone": "Europe/Tallinn",
    "latitude": 58.79444,
    "longitude": 24.52389
  },
  {
    "city": "Vehendi",
    "city_zh": "Vehendi",
    "country": "Estonia",
    "country_zh": "愛沙尼亞",
    "country_iso_code": "EE",
    "timezone": "Europe/Tallinn",
    "latitude": 58.24278,
    "longitude": 26.145
  },
  {
    "city": "Veere",
    "city_zh": "Veere",
    "country": "Estonia",
    "country_zh": "愛沙尼亞",
    "country_iso_code": "EE",
    "timezone": "Europe/Tallinn",
    "latitude": 58.50528,
    "longitude": 23.10056
  },
  {
    "city": "Veelikse",
    "city_zh": "Veelikse",
    "country": "Estonia",
    "country_zh": "愛沙尼亞",
    "country_iso_code": "EE",
    "timezone": "Europe/Tallinn",
    "latitude": 58.10694,
    "longitude": 25.26972
  },
  {
    "city": "Veelikse",
    "city_zh": "Veelikse",
    "country": "Estonia",
    "country_zh": "愛沙尼亞",
    "country_iso_code": "EE",
    "timezone": "Europe/Tallinn",
    "latitude": 58.03306,
    "longitude": 24.86194
  },
  {
    "city": "Vee",
    "city_zh": "Vee",
    "country": "Estonia",
    "country_zh": "愛沙尼亞",
    "country_iso_code": "EE",
    "timezone": "Europe/Tallinn",
    "latitude": 58.62389,
    "longitude": 24.31361
  },
  {
    "city": "Vedu",
    "city_zh": "Vedu",
    "country": "Estonia",
    "country_zh": "愛沙尼亞",
    "country_iso_code": "EE",
    "timezone": "Europe/Tallinn",
    "latitude": 58.6,
    "longitude": 24.2
  },
  {
    "city": "Vedu",
    "city_zh": "Vedu",
    "country": "Estonia",
    "country_zh": "愛沙尼亞",
    "country_iso_code": "EE",
    "timezone": "Europe/Tallinn",
    "latitude": 58.49083,
    "longitude": 26.76667
  },
  {
    "city": "Vedruka",
    "city_zh": "Vedruka",
    "country": "Estonia",
    "country_zh": "愛沙尼亞",
    "country_iso_code": "EE",
    "timezone": "Europe/Tallinn",
    "latitude": 58.32222,
    "longitude": 22.04556
  },
  {
    "city": "Vedra",
    "city_zh": "Vedra",
    "country": "Estonia",
    "country_zh": "愛沙尼亞",
    "country_iso_code": "EE",
    "timezone": "Europe/Tallinn",
    "latitude": 59.02583,
    "longitude": 23.69111
  },
  {
    "city": "Veadla",
    "city_zh": "Veadla",
    "country": "Estonia",
    "country_zh": "愛沙尼亞",
    "country_iso_code": "EE",
    "timezone": "Europe/Tallinn",
    "latitude": 59.20833,
    "longitude": 26.33889
  },
  {
    "city": "Vasalemma",
    "city_zh": "Vasalemma",
    "country": "Estonia",
    "country_zh": "愛沙尼亞",
    "country_iso_code": "EE",
    "timezone": "Europe/Tallinn",
    "latitude": 59.24417,
    "longitude": 24.29
  },
  {
    "city": "Vatsla",
    "city_zh": "Vatsla",
    "country": "Estonia",
    "country_zh": "愛沙尼亞",
    "country_iso_code": "EE",
    "timezone": "Europe/Tallinn",
    "latitude": 59.39933,
    "longitude": 24.49409
  },
  {
    "city": "Vatsküla",
    "city_zh": "Vatsküla",
    "country": "Estonia",
    "country_zh": "愛沙尼亞",
    "country_iso_code": "EE",
    "timezone": "Europe/Tallinn",
    "latitude": 58.27528,
    "longitude": 22.62889
  },
  {
    "city": "Vätsu",
    "city_zh": "Vätsu",
    "country": "Estonia",
    "country_zh": "愛沙尼亞",
    "country_iso_code": "EE",
    "timezone": "Europe/Tallinn",
    "latitude": 58.84861,
    "longitude": 23.66694
  },
  {
    "city": "Vatla",
    "city_zh": "Vatla",
    "country": "Estonia",
    "country_zh": "愛沙尼亞",
    "country_iso_code": "EE",
    "timezone": "Europe/Tallinn",
    "latitude": 58.55944,
    "longitude": 23.74056
  },
  {
    "city": "Vatku",
    "city_zh": "Vatku",
    "country": "Estonia",
    "country_zh": "愛沙尼亞",
    "country_iso_code": "EE",
    "timezone": "Europe/Tallinn",
    "latitude": 59.53778,
    "longitude": 25.81833
  },
  {
    "city": "Vasula",
    "city_zh": "Vasula",
    "country": "Estonia",
    "country_zh": "愛沙尼亞",
    "country_iso_code": "EE",
    "timezone": "Europe/Tallinn",
    "latitude": 58.47194,
    "longitude": 26.73111
  },
  {
    "city": "Vastupää",
    "city_zh": "Vastupää",
    "country": "Estonia",
    "country_zh": "愛沙尼亞",
    "country_iso_code": "EE",
    "timezone": "Europe/Tallinn",
    "latitude": 58.66639,
    "longitude": 24.10583
  },
  {
    "city": "Vahtra",
    "city_zh": "Vahtra",
    "country": "Estonia",
    "country_zh": "愛沙尼亞",
    "country_iso_code": "EE",
    "timezone": "Europe/Tallinn",
    "latitude": 58.14972,
    "longitude": 26.66861
  },
  {
    "city": "Vastse-Otepää",
    "city_zh": "Vastse-Otepää",
    "country": "Estonia",
    "country_zh": "愛沙尼亞",
    "country_iso_code": "EE",
    "timezone": "Europe/Tallinn",
    "latitude": 58.03333,
    "longitude": 26.65
  },
  {
    "city": "Vastsemõisa",
    "city_zh": "Vastsemõisa",
    "country": "Estonia",
    "country_zh": "愛沙尼亞",
    "country_iso_code": "EE",
    "timezone": "Europe/Tallinn",
    "latitude": 58.01667,
    "longitude": 26.58333
  },
  {
    "city": "Vastseliina",
    "city_zh": "Vastseliina",
    "country": "Estonia",
    "country_zh": "愛沙尼亞",
    "country_iso_code": "EE",
    "timezone": "Europe/Tallinn",
    "latitude": 57.72972,
    "longitude": 27.29361
  },
  {
    "city": "Vahtseliina",
    "city_zh": "Vahtseliina",
    "country": "Estonia",
    "country_zh": "愛沙尼亞",
    "country_iso_code": "EE",
    "timezone": "Europe/Tallinn",
    "latitude": 57.72639,
    "longitude": 27.35833
  },
  {
    "city": "Vastse-Kuuste",
    "city_zh": "Vastse-Kuuste",
    "country": "Estonia",
    "country_zh": "愛沙尼亞",
    "country_iso_code": "EE",
    "timezone": "Europe/Tallinn",
    "latitude": 58.16778,
    "longitude": 26.92861
  },
  {
    "city": "Vastja",
    "city_zh": "Vastja",
    "country": "Estonia",
    "country_zh": "愛沙尼亞",
    "country_iso_code": "EE",
    "timezone": "Europe/Tallinn",
    "latitude": 58.85139,
    "longitude": 24.86889
  },
  {
    "city": "Vastemõisa",
    "city_zh": "Vastemõisa",
    "country": "Estonia",
    "country_zh": "愛沙尼亞",
    "country_iso_code": "EE",
    "timezone": "Europe/Tallinn",
    "latitude": 58.44222,
    "longitude": 25.43306
  },
  {
    "city": "Vasta",
    "city_zh": "Vasta",
    "country": "Estonia",
    "country_zh": "愛沙尼亞",
    "country_iso_code": "EE",
    "timezone": "Europe/Tallinn",
    "latitude": 59.45861,
    "longitude": 26.68972
  },
  {
    "city": "Vassivere",
    "city_zh": "Vassivere",
    "country": "Estonia",
    "country_zh": "愛沙尼亞",
    "country_iso_code": "EE",
    "timezone": "Europe/Tallinn",
    "latitude": 59.04611,
    "longitude": 26.6
  },
  {
    "city": "Vassevere",
    "city_zh": "Vassevere",
    "country": "Estonia",
    "country_zh": "愛沙尼亞",
    "country_iso_code": "EE",
    "timezone": "Europe/Tallinn",
    "latitude": 58.72556,
    "longitude": 26.74444
  },
  {
    "city": "Vassevere",
    "city_zh": "Vassevere",
    "country": "Estonia",
    "country_zh": "愛沙尼亞",
    "country_iso_code": "EE",
    "timezone": "Europe/Tallinn",
    "latitude": 58.68028,
    "longitude": 26.87
  },
  {
    "city": "Vaskrääma",
    "city_zh": "Vaskrääma",
    "country": "Estonia",
    "country_zh": "愛沙尼亞",
    "country_iso_code": "EE",
    "timezone": "Europe/Tallinn",
    "latitude": 58.30889,
    "longitude": 24.69944
  },
  {
    "city": "Vasknarva",
    "city_zh": "Vasknarva",
    "country": "Estonia",
    "country_zh": "愛沙尼亞",
    "country_iso_code": "EE",
    "timezone": "Europe/Tallinn",
    "latitude": 59.00194,
    "longitude": 27.73056
  },
  {
    "city": "Vaskjala",
    "city_zh": "Vaskjala",
    "country": "Estonia",
    "country_zh": "愛沙尼亞",
    "country_iso_code": "EE",
    "timezone": "Europe/Tallinn",
    "latitude": 59.36096,
    "longitude": 24.94869
  },
  {
    "city": "Vasavere",
    "city_zh": "Vasavere",
    "country": "Estonia",
    "country_zh": "愛沙尼亞",
    "country_iso_code": "EE",
    "timezone": "Europe/Tallinn",
    "latitude": 59.30283,
    "longitude": 27.50881
  },
  {
    "city": "Vasara",
    "city_zh": "Vasara",
    "country": "Estonia",
    "country_zh": "愛沙尼亞",
    "country_iso_code": "EE",
    "timezone": "Europe/Tallinn",
    "latitude": 58.35417,
    "longitude": 25.77444
  },
  {
    "city": "Varudi",
    "city_zh": "Varudi",
    "country": "Estonia",
    "country_zh": "愛沙尼亞",
    "country_iso_code": "EE",
    "timezone": "Europe/Tallinn",
    "latitude": 59.40333,
    "longitude": 26.58417
  },
  {
    "city": "Värssu",
    "city_zh": "Värssu",
    "country": "Estonia",
    "country_zh": "愛沙尼亞",
    "country_iso_code": "EE",
    "timezone": "Europe/Tallinn",
    "latitude": 58.93119,
    "longitude": 22.94704
  },
  {
    "city": "Varstu",
    "city_zh": "Varstu",
    "country": "Estonia",
    "country_zh": "愛沙尼亞",
    "country_iso_code": "EE",
    "timezone": "Europe/Tallinn",
    "latitude": 57.63917,
    "longitude": 26.65972
  },
  {
    "city": "Värska",
    "city_zh": "Värska",
    "country": "Estonia",
    "country_zh": "愛沙尼亞",
    "country_iso_code": "EE",
    "timezone": "Europe/Tallinn",
    "latitude": 57.95806,
    "longitude": 27.63806
  },
  {
    "city": "Varsaallika",
    "city_zh": "Varsaallika",
    "country": "Estonia",
    "country_zh": "愛沙尼亞",
    "country_iso_code": "EE",
    "timezone": "Europe/Tallinn",
    "latitude": 59.45439,
    "longitude": 24.85413
  },
  {
    "city": "Varpe",
    "city_zh": "Varpe",
    "country": "Estonia",
    "country_zh": "愛沙尼亞",
    "country_iso_code": "EE",
    "timezone": "Europe/Tallinn",
    "latitude": 58.265,
    "longitude": 22.05444
  },
  {
    "city": "Varnja",
    "city_zh": "Varnja",
    "country": "Estonia",
    "country_zh": "愛沙尼亞",
    "country_iso_code": "EE",
    "timezone": "Europe/Tallinn",
    "latitude": 58.48944,
    "longitude": 27.23583
  },
  {
    "city": "Varni",
    "city_zh": "Varni",
    "country": "Estonia",
    "country_zh": "愛沙尼亞",
    "country_iso_code": "EE",
    "timezone": "Europe/Tallinn",
    "latitude": 58.83333,
    "longitude": 23.53333
  },
  {
    "city": "Varkja",
    "city_zh": "Varkja",
    "country": "Estonia",
    "country_zh": "愛沙尼亞",
    "country_iso_code": "EE",
    "timezone": "Europe/Tallinn",
    "latitude": 58.36444,
    "longitude": 22.16
  },
  {
    "city": "Varkali",
    "city_zh": "Varkali",
    "country": "Estonia",
    "country_zh": "愛沙尼亞",
    "country_iso_code": "EE",
    "timezone": "Europe/Tallinn",
    "latitude": 57.75,
    "longitude": 27.46667
  },
  {
    "city": "Varja",
    "city_zh": "Varja",
    "country": "Estonia",
    "country_zh": "愛沙尼亞",
    "country_iso_code": "EE",
    "timezone": "Europe/Tallinn",
    "latitude": 59.40056,
    "longitude": 27.09528
  },
  {
    "city": "Varivere",
    "city_zh": "Varivere",
    "country": "Estonia",
    "country_zh": "愛沙尼亞",
    "country_iso_code": "EE",
    "timezone": "Europe/Tallinn",
    "latitude": 59.01889,
    "longitude": 25.83444
  },
  {
    "city": "Varinurme",
    "city_zh": "Varinurme",
    "country": "Estonia",
    "country_zh": "愛沙尼亞",
    "country_iso_code": "EE",
    "timezone": "Europe/Tallinn",
    "latitude": 59.35472,
    "longitude": 26.90389
  },
  {
    "city": "Variku",
    "city_zh": "Variku",
    "country": "Estonia",
    "country_zh": "愛沙尼亞",
    "country_iso_code": "EE",
    "timezone": "Europe/Tallinn",
    "latitude": 59.12472,
    "longitude": 23.79806
  },
  {
    "city": "Variku",
    "city_zh": "Variku",
    "country": "Estonia",
    "country_zh": "愛沙尼亞",
    "country_iso_code": "EE",
    "timezone": "Europe/Tallinn",
    "latitude": 58.35083,
    "longitude": 26.67639
  },
  {
    "city": "Varesmetsa",
    "city_zh": "Varesmetsa",
    "country": "Estonia",
    "country_zh": "愛沙尼亞",
    "country_iso_code": "EE",
    "timezone": "Europe/Tallinn",
    "latitude": 59.11222,
    "longitude": 27.39056
  },
  {
    "city": "Varesmäe",
    "city_zh": "Varesmäe",
    "country": "Estonia",
    "country_zh": "愛沙尼亞",
    "country_iso_code": "EE",
    "timezone": "Europe/Tallinn",
    "latitude": 58.05417,
    "longitude": 27.52528
  },
  {
    "city": "Varese",
    "city_zh": "Varese",
    "country": "Estonia",
    "country_zh": "愛沙尼亞",
    "country_iso_code": "EE",
    "timezone": "Europe/Tallinn",
    "latitude": 59.06528,
    "longitude": 24.31139
  },
  {
    "city": "Varemurru",
    "city_zh": "Varemurru",
    "country": "Estonia",
    "country_zh": "愛沙尼亞",
    "country_iso_code": "EE",
    "timezone": "Europe/Tallinn",
    "latitude": 58.38389,
    "longitude": 23.74972
  },
  {
    "city": "Vardja",
    "city_zh": "Vardja",
    "country": "Estonia",
    "country_zh": "愛沙尼亞",
    "country_iso_code": "EE",
    "timezone": "Europe/Tallinn",
    "latitude": 59.16389,
    "longitude": 25.22083
  },
  {
    "city": "Vardja",
    "city_zh": "Vardja",
    "country": "Estonia",
    "country_zh": "愛沙尼亞",
    "country_iso_code": "EE",
    "timezone": "Europe/Tallinn",
    "latitude": 58.32833,
    "longitude": 25.615
  },
  {
    "city": "Vardi",
    "city_zh": "Vardi",
    "country": "Estonia",
    "country_zh": "愛沙尼亞",
    "country_iso_code": "EE",
    "timezone": "Europe/Tallinn",
    "latitude": 59.03722,
    "longitude": 24.45361
  },
  {
    "city": "Vardi",
    "city_zh": "Vardi",
    "country": "Estonia",
    "country_zh": "愛沙尼亞",
    "country_iso_code": "EE",
    "timezone": "Europe/Tallinn",
    "latitude": 58.3025,
    "longitude": 25.51056
  },
  {
    "city": "Varbuse",
    "city_zh": "Varbuse",
    "country": "Estonia",
    "country_zh": "愛沙尼亞",
    "country_iso_code": "EE",
    "timezone": "Europe/Tallinn",
    "latitude": 58.02333,
    "longitude": 26.91722
  },
  {
    "city": "Varbla",
    "city_zh": "Varbla",
    "country": "Estonia",
    "country_zh": "愛沙尼亞",
    "country_iso_code": "EE",
    "timezone": "Europe/Tallinn",
    "latitude": 58.43194,
    "longitude": 23.76111
  },
  {
    "city": "Varbevere",
    "city_zh": "Varbevere",
    "country": "Estonia",
    "country_zh": "愛沙尼亞",
    "country_iso_code": "EE",
    "timezone": "Europe/Tallinn",
    "latitude": 58.71361,
    "longitude": 26.66361
  },
  {
    "city": "Värati",
    "city_zh": "Värati",
    "country": "Estonia",
    "country_zh": "愛沙尼亞",
    "country_iso_code": "EE",
    "timezone": "Europe/Tallinn",
    "latitude": 58.31528,
    "longitude": 23.99639
  },
  {
    "city": "Varangu",
    "city_zh": "Varangu",
    "country": "Estonia",
    "country_zh": "愛沙尼亞",
    "country_iso_code": "EE",
    "timezone": "Europe/Tallinn",
    "latitude": 59.465,
    "longitude": 26.34833
  },
  {
    "city": "Vara",
    "city_zh": "Vara",
    "country": "Estonia",
    "country_zh": "愛沙尼亞",
    "country_iso_code": "EE",
    "timezone": "Europe/Tallinn",
    "latitude": 58.52083,
    "longitude": 26.88167
  },
  {
    "city": "Vaopere",
    "city_zh": "Vaopere",
    "country": "Estonia",
    "country_zh": "愛沙尼亞",
    "country_iso_code": "EE",
    "timezone": "Europe/Tallinn",
    "latitude": 59.065,
    "longitude": 25.16056
  },
  {
    "city": "Väo",
    "city_zh": "Väo",
    "country": "Estonia",
    "country_zh": "愛沙尼亞",
    "country_iso_code": "EE",
    "timezone": "Europe/Tallinn",
    "latitude": 59.43893,
    "longitude": 24.89717
  },
  {
    "city": "Vao",
    "city_zh": "Vao",
    "country": "Estonia",
    "country_zh": "愛沙尼亞",
    "country_iso_code": "EE",
    "timezone": "Europe/Tallinn",
    "latitude": 59.10583,
    "longitude": 26.19028
  },
  {
    "city": "Vao",
    "city_zh": "Vao",
    "country": "Estonia",
    "country_zh": "愛沙尼亞",
    "country_iso_code": "EE",
    "timezone": "Europe/Tallinn",
    "latitude": 58.93917,
    "longitude": 25.98222
  },
  {
    "city": "Vankse",
    "city_zh": "Vankse",
    "country": "Estonia",
    "country_zh": "愛沙尼亞",
    "country_iso_code": "EE",
    "timezone": "Europe/Tallinn",
    "latitude": 59.08611,
    "longitude": 24.89667
  },
  {
    "city": "Vabriku",
    "city_zh": "Vabriku",
    "country": "Estonia",
    "country_zh": "愛沙尼亞",
    "country_iso_code": "EE",
    "timezone": "Europe/Tallinn",
    "latitude": 58.69556,
    "longitude": 25.11694
  },
  {
    "city": "Vandjala",
    "city_zh": "Vandjala",
    "country": "Estonia",
    "country_zh": "愛沙尼亞",
    "country_iso_code": "EE",
    "timezone": "Europe/Tallinn",
    "latitude": 59.44014,
    "longitude": 25.07943
  },
  {
    "city": "Vana-Võidu",
    "city_zh": "Vana-Võidu",
    "country": "Estonia",
    "country_zh": "愛沙尼亞",
    "country_iso_code": "EE",
    "timezone": "Europe/Tallinn",
    "latitude": 58.39056,
    "longitude": 25.65417
  },
  {
    "city": "Vana-Virtsu",
    "city_zh": "Vana-Virtsu",
    "country": "Estonia",
    "country_zh": "愛沙尼亞",
    "country_iso_code": "EE",
    "timezone": "Europe/Tallinn",
    "latitude": 58.56667,
    "longitude": 23.53333
  },
  {
    "city": "Vana-Vigala",
    "city_zh": "Vana-Vigala",
    "country": "Estonia",
    "country_zh": "愛沙尼亞",
    "country_iso_code": "EE",
    "timezone": "Europe/Tallinn",
    "latitude": 58.76972,
    "longitude": 24.27361
  },
  {
    "city": "Vanaveski",
    "city_zh": "Vanaveski",
    "country": "Estonia",
    "country_zh": "愛沙尼亞",
    "country_iso_code": "EE",
    "timezone": "Europe/Tallinn",
    "latitude": 58.37056,
    "longitude": 25.30639
  },
  {
    "city": "Venevere",
    "city_zh": "Venevere",
    "country": "Estonia",
    "country_zh": "愛沙尼亞",
    "country_iso_code": "EE",
    "timezone": "Europe/Tallinn",
    "latitude": 58.59194,
    "longitude": 25.71472
  },
  {
    "city": "Vana-Varbla",
    "city_zh": "Vana-Varbla",
    "country": "Estonia",
    "country_zh": "愛沙尼亞",
    "country_iso_code": "EE",
    "timezone": "Europe/Tallinn",
    "latitude": 58.43333,
    "longitude": 23.73333
  },
  {
    "city": "Vanavälja",
    "city_zh": "Vanavälja",
    "country": "Estonia",
    "country_zh": "愛沙尼亞",
    "country_iso_code": "EE",
    "timezone": "Europe/Tallinn",
    "latitude": 58.38222,
    "longitude": 25.83639
  },
  {
    "city": "Vanausse",
    "city_zh": "Vanausse",
    "country": "Estonia",
    "country_zh": "愛沙尼亞",
    "country_iso_code": "EE",
    "timezone": "Europe/Tallinn",
    "latitude": 58.2,
    "longitude": 25.15
  },
  {
    "city": "Vanatare",
    "city_zh": "Vanatare",
    "country": "Estonia",
    "country_zh": "愛沙尼亞",
    "country_iso_code": "EE",
    "timezone": "Europe/Tallinn",
    "latitude": 57.85,
    "longitude": 26.36667
  },
  {
    "city": "Vana Tänassilma",
    "city_zh": "Vana Tänassilma",
    "country": "Estonia",
    "country_zh": "愛沙尼亞",
    "country_iso_code": "EE",
    "timezone": "Europe/Tallinn",
    "latitude": 58.39806,
    "longitude": 25.83917
  },
  {
    "city": "Suislepa",
    "city_zh": "Suislepa",
    "country": "Estonia",
    "country_zh": "愛沙尼亞",
    "country_iso_code": "EE",
    "timezone": "Europe/Tallinn",
    "latitude": 58.14972,
    "longitude": 25.95694
  },
  {
    "city": "Vana Sõtke",
    "city_zh": "Vana Sõtke",
    "country": "Estonia",
    "country_zh": "愛沙尼亞",
    "country_iso_code": "EE",
    "timezone": "Europe/Tallinn",
    "latitude": 59.36667,
    "longitude": 27.73333
  },
  {
    "city": "Vana-Saaluse",
    "city_zh": "Vana-Saaluse",
    "country": "Estonia",
    "country_zh": "愛沙尼亞",
    "country_iso_code": "EE",
    "timezone": "Europe/Tallinn",
    "latitude": 57.72361,
    "longitude": 27.21222
  },
  {
    "city": "Vana-Roosa",
    "city_zh": "Vana-Roosa",
    "country": "Estonia",
    "country_zh": "愛沙尼亞",
    "country_iso_code": "EE",
    "timezone": "Europe/Tallinn",
    "latitude": 57.67139,
    "longitude": 26.6725
  },
  {
    "city": "Vana-Pornuse",
    "city_zh": "Vana-Pornuse",
    "country": "Estonia",
    "country_zh": "愛沙尼亞",
    "country_iso_code": "EE",
    "timezone": "Europe/Tallinn",
    "latitude": 58.15,
    "longitude": 25.43333
  },
  {
    "city": "Vanapere",
    "city_zh": "Vanapere",
    "country": "Estonia",
    "country_zh": "愛沙尼亞",
    "country_iso_code": "EE",
    "timezone": "Europe/Tallinn",
    "latitude": 59.41543,
    "longitude": 24.92114
  },
  {
    "city": "Vanaõue",
    "city_zh": "Vanaõue",
    "country": "Estonia",
    "country_zh": "愛沙尼亞",
    "country_iso_code": "EE",
    "timezone": "Europe/Tallinn",
    "latitude": 58.68333,
    "longitude": 25.11667
  },
  {
    "city": "Vana-Otepää",
    "city_zh": "Vana-Otepää",
    "country": "Estonia",
    "country_zh": "愛沙尼亞",
    "country_iso_code": "EE",
    "timezone": "Europe/Tallinn",
    "latitude": 58.08139,
    "longitude": 26.53056
  },
  {
    "city": "Vana-Nurtu",
    "city_zh": "Vana-Nurtu",
    "country": "Estonia",
    "country_zh": "愛沙尼亞",
    "country_iso_code": "EE",
    "timezone": "Europe/Tallinn",
    "latitude": 58.80278,
    "longitude": 24.62861
  },
  {
    "city": "Mäeküla",
    "city_zh": "Mäeküla",
    "country": "Estonia",
    "country_zh": "愛沙尼亞",
    "country_iso_code": "EE",
    "timezone": "Europe/Tallinn",
    "latitude": 59.31083,
    "longitude": 24.53917
  },
  {
    "city": "Vanamõisa",
    "city_zh": "Vanamõisa",
    "country": "Estonia",
    "country_zh": "愛沙尼亞",
    "country_iso_code": "EE",
    "timezone": "Europe/Tallinn",
    "latitude": 59.445,
    "longitude": 26.21556
  },
  {
    "city": "Vanamõisa",
    "city_zh": "Vanamõisa",
    "country": "Estonia",
    "country_zh": "愛沙尼亞",
    "country_iso_code": "EE",
    "timezone": "Europe/Tallinn",
    "latitude": 59.3222,
    "longitude": 24.51796
  },
  {
    "city": "Vanamõisa",
    "city_zh": "Vanamõisa",
    "country": "Estonia",
    "country_zh": "愛沙尼亞",
    "country_iso_code": "EE",
    "timezone": "Europe/Tallinn",
    "latitude": 59.29611,
    "longitude": 26.00833
  },
  {
    "city": "Vanamõisa",
    "city_zh": "Vanamõisa",
    "country": "Estonia",
    "country_zh": "愛沙尼亞",
    "country_iso_code": "EE",
    "timezone": "Europe/Tallinn",
    "latitude": 58.83861,
    "longitude": 24.58222
  },
  {
    "city": "Vanamõisa",
    "city_zh": "Vanamõisa",
    "country": "Estonia",
    "country_zh": "愛沙尼亞",
    "country_iso_code": "EE",
    "timezone": "Europe/Tallinn",
    "latitude": 58.7975,
    "longitude": 26.75444
  },
  {
    "city": "Vanamõisa",
    "city_zh": "Vanamõisa",
    "country": "Estonia",
    "country_zh": "愛沙尼亞",
    "country_iso_code": "EE",
    "timezone": "Europe/Tallinn",
    "latitude": 58.74973,
    "longitude": 22.5017
  },
  {
    "city": "Vanamõisa",
    "city_zh": "Vanamõisa",
    "country": "Estonia",
    "country_zh": "愛沙尼亞",
    "country_iso_code": "EE",
    "timezone": "Europe/Tallinn",
    "latitude": 58.72611,
    "longitude": 24.3125
  },
  {
    "city": "Vanamõisa",
    "city_zh": "Vanamõisa",
    "country": "Estonia",
    "country_zh": "愛沙尼亞",
    "country_iso_code": "EE",
    "timezone": "Europe/Tallinn",
    "latitude": 58.59278,
    "longitude": 23.19639
  },
  {
    "city": "Vanamõisa",
    "city_zh": "Vanamõisa",
    "country": "Estonia",
    "country_zh": "愛沙尼亞",
    "country_iso_code": "EE",
    "timezone": "Europe/Tallinn",
    "latitude": 58.44944,
    "longitude": 25.47694
  },
  {
    "city": "Vanamõisa",
    "city_zh": "Vanamõisa",
    "country": "Estonia",
    "country_zh": "愛沙尼亞",
    "country_iso_code": "EE",
    "timezone": "Europe/Tallinn",
    "latitude": 58.25,
    "longitude": 22.67056
  },
  {
    "city": "Vanamõisa",
    "city_zh": "Vanamõisa",
    "country": "Estonia",
    "country_zh": "愛沙尼亞",
    "country_iso_code": "EE",
    "timezone": "Europe/Tallinn",
    "latitude": 58.10194,
    "longitude": 25.29944
  },
  {
    "city": "Vanamõisa",
    "city_zh": "Vanamõisa",
    "country": "Estonia",
    "country_zh": "愛沙尼亞",
    "country_iso_code": "EE",
    "timezone": "Europe/Tallinn",
    "latitude": 58.03056,
    "longitude": 26.34917
  },
  {
    "city": "Vana Leebiku",
    "city_zh": "Vana Leebiku",
    "country": "Estonia",
    "country_zh": "愛沙尼亞",
    "country_iso_code": "EE",
    "timezone": "Europe/Tallinn",
    "latitude": 58.06667,
    "longitude": 25.91667
  },
  {
    "city": "Vanaküla",
    "city_zh": "Vanaküla",
    "country": "Estonia",
    "country_zh": "愛沙尼亞",
    "country_iso_code": "EE",
    "timezone": "Europe/Tallinn",
    "latitude": 59.47944,
    "longitude": 25.80306
  },
  {
    "city": "Vanaküla",
    "city_zh": "Vanaküla",
    "country": "Estonia",
    "country_zh": "愛沙尼亞",
    "country_iso_code": "EE",
    "timezone": "Europe/Tallinn",
    "latitude": 59.11833,
    "longitude": 23.58722
  },
  {
    "city": "Vanaküla",
    "city_zh": "Vanaküla",
    "country": "Estonia",
    "country_zh": "愛沙尼亞",
    "country_iso_code": "EE",
    "timezone": "Europe/Tallinn",
    "latitude": 58.9025,
    "longitude": 23.90389
  },
  {
    "city": "Vanaküla",
    "city_zh": "Vanaküla",
    "country": "Estonia",
    "country_zh": "愛沙尼亞",
    "country_iso_code": "EE",
    "timezone": "Europe/Tallinn",
    "latitude": 58.41667,
    "longitude": 24.16667
  },
  {
    "city": "Vanaküla",
    "city_zh": "Vanaküla",
    "country": "Estonia",
    "country_zh": "愛沙尼亞",
    "country_iso_code": "EE",
    "timezone": "Europe/Tallinn",
    "latitude": 58.06583,
    "longitude": 27.17944
  },
  {
    "city": "Vanakubja",
    "city_zh": "Vanakubja",
    "country": "Estonia",
    "country_zh": "愛沙尼亞",
    "country_iso_code": "EE",
    "timezone": "Europe/Tallinn",
    "latitude": 58.47111,
    "longitude": 22.23556
  },
  {
    "city": "Vana-Koiola",
    "city_zh": "Vana-Koiola",
    "country": "Estonia",
    "country_zh": "愛沙尼亞",
    "country_iso_code": "EE",
    "timezone": "Europe/Tallinn",
    "latitude": 57.96111,
    "longitude": 27.04889
  },
  {
    "city": "Vana-Kastre",
    "city_zh": "Vana-Kastre",
    "country": "Estonia",
    "country_zh": "愛沙尼亞",
    "country_iso_code": "EE",
    "timezone": "Europe/Tallinn",
    "latitude": 58.35694,
    "longitude": 26.90889
  },
  {
    "city": "Kasaritsa",
    "city_zh": "Kasaritsa",
    "country": "Estonia",
    "country_zh": "愛沙尼亞",
    "country_iso_code": "EE",
    "timezone": "Europe/Tallinn",
    "latitude": 57.78417,
    "longitude": 27.03861
  },
  {
    "city": "Vana-Kariste",
    "city_zh": "Vana-Kariste",
    "country": "Estonia",
    "country_zh": "愛沙尼亞",
    "country_iso_code": "EE",
    "timezone": "Europe/Tallinn",
    "latitude": 58.17056,
    "longitude": 25.28167
  },
  {
    "city": "Vana-Kaiu",
    "city_zh": "Vana-Kaiu",
    "country": "Estonia",
    "country_zh": "愛沙尼亞",
    "country_iso_code": "EE",
    "timezone": "Europe/Tallinn",
    "latitude": 58.98944,
    "longitude": 25.08389
  },
  {
    "city": "Vana-Kaarma",
    "city_zh": "Vana-Kaarma",
    "country": "Estonia",
    "country_zh": "愛沙尼亞",
    "country_iso_code": "EE",
    "timezone": "Europe/Tallinn",
    "latitude": 58.35,
    "longitude": 22.55
  },
  {
    "city": "Vana-Jõgeva",
    "city_zh": "Vana-Jõgeva",
    "country": "Estonia",
    "country_zh": "愛沙尼亞",
    "country_iso_code": "EE",
    "timezone": "Europe/Tallinn",
    "latitude": 58.72917,
    "longitude": 26.41611
  },
  {
    "city": "Vana-Antsla",
    "city_zh": "Vana-Antsla",
    "country": "Estonia",
    "country_zh": "愛沙尼亞",
    "country_iso_code": "EE",
    "timezone": "Europe/Tallinn",
    "latitude": 57.86611,
    "longitude": 26.53222
  },
  {
    "city": "Valjala",
    "city_zh": "Valjala",
    "country": "Estonia",
    "country_zh": "愛沙尼亞",
    "country_iso_code": "EE",
    "timezone": "Europe/Tallinn",
    "latitude": 58.40611,
    "longitude": 22.80111
  },
  {
    "city": "Valuste",
    "city_zh": "Valuste",
    "country": "Estonia",
    "country_zh": "愛沙尼亞",
    "country_iso_code": "EE",
    "timezone": "Europe/Tallinn",
    "latitude": 58.67278,
    "longitude": 23.82083
  },
  {
    "city": "Väluste",
    "city_zh": "Väluste",
    "country": "Estonia",
    "country_zh": "愛沙尼亞",
    "country_iso_code": "EE",
    "timezone": "Europe/Tallinn",
    "latitude": 58.30028,
    "longitude": 25.88111
  },
  {
    "city": "Valtu",
    "city_zh": "Valtu",
    "country": "Estonia",
    "country_zh": "愛沙尼亞",
    "country_iso_code": "EE",
    "timezone": "Europe/Tallinn",
    "latitude": 58.98083,
    "longitude": 24.84111
  },
  {
    "city": "Välta",
    "city_zh": "Välta",
    "country": "Estonia",
    "country_zh": "愛沙尼亞",
    "country_iso_code": "EE",
    "timezone": "Europe/Tallinn",
    "latitude": 58.4825,
    "longitude": 23.15306
  },
  {
    "city": "Valma",
    "city_zh": "Valma",
    "country": "Estonia",
    "country_zh": "愛沙尼亞",
    "country_iso_code": "EE",
    "timezone": "Europe/Tallinn",
    "latitude": 58.63333,
    "longitude": 25.16667
  },
  {
    "city": "Valma",
    "city_zh": "Valma",
    "country": "Estonia",
    "country_zh": "愛沙尼亞",
    "country_iso_code": "EE",
    "timezone": "Europe/Tallinn",
    "latitude": 58.36917,
    "longitude": 25.95778
  },
  {
    "city": "Valli",
    "city_zh": "Valli",
    "country": "Estonia",
    "country_zh": "愛沙尼亞",
    "country_iso_code": "EE",
    "timezone": "Europe/Tallinn",
    "latitude": 58.87667,
    "longitude": 24.72944
  },
  {
    "city": "Valli",
    "city_zh": "Valli",
    "country": "Estonia",
    "country_zh": "愛沙尼亞",
    "country_iso_code": "EE",
    "timezone": "Europe/Tallinn",
    "latitude": 58.88083,
    "longitude": 22.79556
  },
  {
    "city": "Vallapalu",
    "city_zh": "Vallapalu",
    "country": "Estonia",
    "country_zh": "愛沙尼亞",
    "country_iso_code": "EE",
    "timezone": "Europe/Tallinn",
    "latitude": 58.25139,
    "longitude": 26.18306
  },
  {
    "city": "Valkse",
    "city_zh": "Valkse",
    "country": "Estonia",
    "country_zh": "愛沙尼亞",
    "country_iso_code": "EE",
    "timezone": "Europe/Tallinn",
    "latitude": 59.32906,
    "longitude": 24.34585
  },
  {
    "city": "Valksi",
    "city_zh": "Valksi",
    "country": "Estonia",
    "country_zh": "愛沙尼亞",
    "country_iso_code": "EE",
    "timezone": "Europe/Tallinn",
    "latitude": 59.01806,
    "longitude": 23.94861
  },
  {
    "city": "Valkla",
    "city_zh": "Valkla",
    "country": "Estonia",
    "country_zh": "愛沙尼亞",
    "country_iso_code": "EE",
    "timezone": "Europe/Tallinn",
    "latitude": 59.47297,
    "longitude": 25.32321
  },
  {
    "city": "Väljataguse",
    "city_zh": "Väljataguse",
    "country": "Estonia",
    "country_zh": "愛沙尼亞",
    "country_iso_code": "EE",
    "timezone": "Europe/Tallinn",
    "latitude": 59.02,
    "longitude": 24.35
  },
  {
    "city": "Väljamäe",
    "city_zh": "Väljamäe",
    "country": "Estonia",
    "country_zh": "愛沙尼亞",
    "country_iso_code": "EE",
    "timezone": "Europe/Tallinn",
    "latitude": 58.91667,
    "longitude": 24.63333
  },
  {
    "city": "Väljaküla",
    "city_zh": "Väljaküla",
    "country": "Estonia",
    "country_zh": "愛沙尼亞",
    "country_iso_code": "EE",
    "timezone": "Europe/Tallinn",
    "latitude": 58.27999,
    "longitude": 24.59865
  },
  {
    "city": "Väljaküla",
    "city_zh": "Väljaküla",
    "country": "Estonia",
    "country_zh": "愛沙尼亞",
    "country_iso_code": "EE",
    "timezone": "Europe/Tallinn",
    "latitude": 58.17444,
    "longitude": 25.04722
  },
  {
    "city": "Väljaküla",
    "city_zh": "Väljaküla",
    "country": "Estonia",
    "country_zh": "愛沙尼亞",
    "country_iso_code": "EE",
    "timezone": "Europe/Tallinn",
    "latitude": 58.15,
    "longitude": 24.85
  },
  {
    "city": "Välja",
    "city_zh": "Välja",
    "country": "Estonia",
    "country_zh": "愛沙尼亞",
    "country_iso_code": "EE",
    "timezone": "Europe/Tallinn",
    "latitude": 58.52361,
    "longitude": 23.04917
  },
  {
    "city": "Väljaküla",
    "city_zh": "Väljaküla",
    "country": "Estonia",
    "country_zh": "愛沙尼亞",
    "country_iso_code": "EE",
    "timezone": "Europe/Tallinn",
    "latitude": 58.50083,
    "longitude": 22.92778
  },
  {
    "city": "Välja",
    "city_zh": "Välja",
    "country": "Estonia",
    "country_zh": "愛沙尼亞",
    "country_iso_code": "EE",
    "timezone": "Europe/Tallinn",
    "latitude": 58.46389,
    "longitude": 22.61556
  },
  {
    "city": "Väljaküla",
    "city_zh": "Väljaküla",
    "country": "Estonia",
    "country_zh": "愛沙尼亞",
    "country_iso_code": "EE",
    "timezone": "Europe/Tallinn",
    "latitude": 58.34333,
    "longitude": 22.88083
  },
  {
    "city": "Valistre",
    "city_zh": "Valistre",
    "country": "Estonia",
    "country_zh": "愛沙尼亞",
    "country_iso_code": "EE",
    "timezone": "Europe/Tallinn",
    "latitude": 58.6,
    "longitude": 24.54972
  },
  {
    "city": "Valipe",
    "city_zh": "Valipe",
    "country": "Estonia",
    "country_zh": "愛沙尼亞",
    "country_iso_code": "EE",
    "timezone": "Europe/Tallinn",
    "latitude": 59.13333,
    "longitude": 23.65
  },
  {
    "city": "Valipe",
    "city_zh": "Valipe",
    "country": "Estonia",
    "country_zh": "愛沙尼亞",
    "country_iso_code": "EE",
    "timezone": "Europe/Tallinn",
    "latitude": 58.86647,
    "longitude": 22.96159
  },
  {
    "city": "Valila",
    "city_zh": "Valila",
    "country": "Estonia",
    "country_zh": "愛沙尼亞",
    "country_iso_code": "EE",
    "timezone": "Europe/Tallinn",
    "latitude": 58.90056,
    "longitude": 25.9425
  },
  {
    "city": "Valguta",
    "city_zh": "Valguta",
    "country": "Estonia",
    "country_zh": "愛沙尼亞",
    "country_iso_code": "EE",
    "timezone": "Europe/Tallinn",
    "latitude": 58.18417,
    "longitude": 26.1975
  },
  {
    "city": "Valgu",
    "city_zh": "Valgu",
    "country": "Estonia",
    "country_zh": "愛沙尼亞",
    "country_iso_code": "EE",
    "timezone": "Europe/Tallinn",
    "latitude": 58.82194,
    "longitude": 24.59333
  },
  {
    "city": "Valgu",
    "city_zh": "Valgu",
    "country": "Estonia",
    "country_zh": "愛沙尼亞",
    "country_iso_code": "EE",
    "timezone": "Europe/Tallinn",
    "latitude": 58.75671,
    "longitude": 22.63687
  },
  {
    "city": "Valgma",
    "city_zh": "Valgma",
    "country": "Estonia",
    "country_zh": "愛沙尼亞",
    "country_iso_code": "EE",
    "timezone": "Europe/Tallinn",
    "latitude": 59.26583,
    "longitude": 23.96278
  },
  {
    "city": "Valgma",
    "city_zh": "Valgma",
    "country": "Estonia",
    "country_zh": "愛沙尼亞",
    "country_iso_code": "EE",
    "timezone": "Europe/Tallinn",
    "latitude": 58.86806,
    "longitude": 25.65806
  },
  {
    "city": "Valgjärve",
    "city_zh": "Valgjärve",
    "country": "Estonia",
    "country_zh": "愛沙尼亞",
    "country_iso_code": "EE",
    "timezone": "Europe/Tallinn",
    "latitude": 58.07944,
    "longitude": 26.64194
  },
  {
    "city": "Välgita",
    "city_zh": "Välgita",
    "country": "Estonia",
    "country_zh": "愛沙尼亞",
    "country_iso_code": "EE",
    "timezone": "Europe/Tallinn",
    "latitude": 58.47194,
    "longitude": 25.6425
  },
  {
    "city": "Valgesoo",
    "city_zh": "Valgesoo",
    "country": "Estonia",
    "country_zh": "愛沙尼亞",
    "country_iso_code": "EE",
    "timezone": "Europe/Tallinn",
    "latitude": 58.12194,
    "longitude": 27.06139
  },
  {
    "city": "Valgesoo",
    "city_zh": "Valgesoo",
    "country": "Estonia",
    "country_zh": "愛沙尼亞",
    "country_iso_code": "EE",
    "timezone": "Europe/Tallinn",
    "latitude": 59.29306,
    "longitude": 26.56056
  },
  {
    "city": "Valgeristi",
    "city_zh": "Valgeristi",
    "country": "Estonia",
    "country_zh": "愛沙尼亞",
    "country_iso_code": "EE",
    "timezone": "Europe/Tallinn",
    "latitude": 59.08333,
    "longitude": 23.93333
  },
  {
    "city": "Valgeranna",
    "city_zh": "Valgeranna",
    "country": "Estonia",
    "country_zh": "愛沙尼亞",
    "country_iso_code": "EE",
    "timezone": "Europe/Tallinn",
    "latitude": 58.38722,
    "longitude": 24.38333
  },
  {
    "city": "Valgemetsa",
    "city_zh": "Valgemetsa",
    "country": "Estonia",
    "country_zh": "愛沙尼亞",
    "country_iso_code": "EE",
    "timezone": "Europe/Tallinn",
    "latitude": 58.15306,
    "longitude": 26.97528
  },
  {
    "city": "Valgejõe",
    "city_zh": "Valgejõe",
    "country": "Estonia",
    "country_zh": "愛沙尼亞",
    "country_iso_code": "EE",
    "timezone": "Europe/Tallinn",
    "latitude": 59.46306,
    "longitude": 25.79417
  },
  {
    "city": "Valga",
    "city_zh": "瓦爾加",
    "country": "Estonia",
    "country_zh": "愛沙尼亞",
    "country_iso_code": "EE",
    "timezone": "Europe/Tallinn",
    "latitude": 57.77781,
    "longitude": 26.0473
  },
  {
    "city": "Valdimuru",
    "city_zh": "Valdimuru",
    "country": "Estonia",
    "country_zh": "愛沙尼亞",
    "country_iso_code": "EE",
    "timezone": "Europe/Tallinn",
    "latitude": 58.26667,
    "longitude": 24.78306
  },
  {
    "city": "Valasti",
    "city_zh": "Valasti",
    "country": "Estonia",
    "country_zh": "愛沙尼亞",
    "country_iso_code": "EE",
    "timezone": "Europe/Tallinn",
    "latitude": 59.04889,
    "longitude": 25.78083
  },
  {
    "city": "Valaste",
    "city_zh": "Valaste",
    "country": "Estonia",
    "country_zh": "愛沙尼亞",
    "country_iso_code": "EE",
    "timezone": "Europe/Tallinn",
    "latitude": 59.43889,
    "longitude": 27.36722
  },
  {
    "city": "Vaku",
    "city_zh": "Vaku",
    "country": "Estonia",
    "country_zh": "愛沙尼亞",
    "country_iso_code": "EE",
    "timezone": "Europe/Tallinn",
    "latitude": 58.84949,
    "longitude": 22.79113
  },
  {
    "city": "Vaksali",
    "city_zh": "Vaksali",
    "country": "Estonia",
    "country_zh": "愛沙尼亞",
    "country_iso_code": "EE",
    "timezone": "Europe/Tallinn",
    "latitude": 58.98333,
    "longitude": 24.83333
  },
  {
    "city": "Väkra",
    "city_zh": "Väkra",
    "country": "Estonia",
    "country_zh": "愛沙尼亞",
    "country_iso_code": "EE",
    "timezone": "Europe/Tallinn",
    "latitude": 58.45361,
    "longitude": 22.85167
  },
  {
    "city": "Vaki",
    "city_zh": "Vaki",
    "country": "Estonia",
    "country_zh": "愛沙尼亞",
    "country_iso_code": "EE",
    "timezone": "Europe/Tallinn",
    "latitude": 58.63889,
    "longitude": 24.98667
  },
  {
    "city": "Vakalepa",
    "city_zh": "Vakalepa",
    "country": "Estonia",
    "country_zh": "愛沙尼亞",
    "country_iso_code": "EE",
    "timezone": "Europe/Tallinn",
    "latitude": 58.61,
    "longitude": 24.28417
  },
  {
    "city": "Vajangu",
    "city_zh": "Vajangu",
    "country": "Estonia",
    "country_zh": "愛沙尼亞",
    "country_iso_code": "EE",
    "timezone": "Europe/Tallinn",
    "latitude": 59.0975,
    "longitude": 26.03333
  },
  {
    "city": "Vaivere",
    "city_zh": "Vaivere",
    "country": "Estonia",
    "country_zh": "愛沙尼亞",
    "country_iso_code": "EE",
    "timezone": "Europe/Tallinn",
    "latitude": 58.27361,
    "longitude": 22.58611
  },
  {
    "city": "Vaivara",
    "city_zh": "Vaivara",
    "country": "Estonia",
    "country_zh": "愛沙尼亞",
    "country_iso_code": "EE",
    "timezone": "Europe/Tallinn",
    "latitude": 59.37173,
    "longitude": 27.7633
  },
  {
    "city": "Vaisi",
    "city_zh": "Vaisi",
    "country": "Estonia",
    "country_zh": "愛沙尼亞",
    "country_iso_code": "EE",
    "timezone": "Europe/Tallinn",
    "latitude": 59.20944,
    "longitude": 23.70333
  },
  {
    "city": "Vainupea",
    "city_zh": "Vainupea",
    "country": "Estonia",
    "country_zh": "愛沙尼亞",
    "country_iso_code": "EE",
    "timezone": "Europe/Tallinn",
    "latitude": 59.57778,
    "longitude": 26.27056
  },
  {
    "city": "Vaingu",
    "city_zh": "Vaingu",
    "country": "Estonia",
    "country_zh": "愛沙尼亞",
    "country_iso_code": "EE",
    "timezone": "Europe/Tallinn",
    "latitude": 59.21306,
    "longitude": 24.46472
  },
  {
    "city": "Vaimõisa",
    "city_zh": "Vaimõisa",
    "country": "Estonia",
    "country_zh": "愛沙尼亞",
    "country_iso_code": "EE",
    "timezone": "Europe/Tallinn",
    "latitude": 58.97861,
    "longitude": 24.46528
  },
  {
    "city": "Raiste",
    "city_zh": "Raiste",
    "country": "Estonia",
    "country_zh": "愛沙尼亞",
    "country_iso_code": "EE",
    "timezone": "Europe/Tallinn",
    "latitude": 57.91972,
    "longitude": 26.93889
  },
  {
    "city": "Väimela",
    "city_zh": "Väimela",
    "country": "Estonia",
    "country_zh": "愛沙尼亞",
    "country_iso_code": "EE",
    "timezone": "Europe/Tallinn",
    "latitude": 57.89083,
    "longitude": 27.01889
  },
  {
    "city": "Vaimastvere",
    "city_zh": "Vaimastvere",
    "country": "Estonia",
    "country_zh": "愛沙尼亞",
    "country_iso_code": "EE",
    "timezone": "Europe/Tallinn",
    "latitude": 58.81278,
    "longitude": 26.29167
  },
  {
    "city": "Vaila",
    "city_zh": "Vaila",
    "country": "Estonia",
    "country_zh": "愛沙尼亞",
    "country_iso_code": "EE",
    "timezone": "Europe/Tallinn",
    "latitude": 59.39639,
    "longitude": 24.36667
  },
  {
    "city": "Väikseküla",
    "city_zh": "Väikseküla",
    "country": "Estonia",
    "country_zh": "愛沙尼亞",
    "country_iso_code": "EE",
    "timezone": "Europe/Tallinn",
    "latitude": 58.28417,
    "longitude": 24.88167
  },
  {
    "city": "Vaikna",
    "city_zh": "Vaikna",
    "country": "Estonia",
    "country_zh": "愛沙尼亞",
    "country_iso_code": "EE",
    "timezone": "Europe/Tallinn",
    "latitude": 58.92694,
    "longitude": 24.11944
  },
  {
    "city": "Vaikla",
    "city_zh": "Vaikla",
    "country": "Estonia",
    "country_zh": "愛沙尼亞",
    "country_iso_code": "EE",
    "timezone": "Europe/Tallinn",
    "latitude": 59.07556,
    "longitude": 27.36694
  },
  {
    "city": "Väike-Villevere",
    "city_zh": "Väike-Villevere",
    "country": "Estonia",
    "country_zh": "愛沙尼亞",
    "country_iso_code": "EE",
    "timezone": "Europe/Tallinn",
    "latitude": 58.6625,
    "longitude": 25.47111
  },
  {
    "city": "Veerksu",
    "city_zh": "Veerksu",
    "country": "Estonia",
    "country_zh": "愛沙尼亞",
    "country_iso_code": "EE",
    "timezone": "Europe/Tallinn",
    "latitude": 58.02278,
    "longitude": 27.43694
  },
  {
    "city": "Treski",
    "city_zh": "Treski",
    "country": "Estonia",
    "country_zh": "愛沙尼亞",
    "country_iso_code": "EE",
    "timezone": "Europe/Tallinn",
    "latitude": 57.94111,
    "longitude": 27.58583
  },
  {
    "city": "Väike-Tammiku",
    "city_zh": "Väike-Tammiku",
    "country": "Estonia",
    "country_zh": "愛沙尼亞",
    "country_iso_code": "EE",
    "timezone": "Europe/Tallinn",
    "latitude": 59.0,
    "longitude": 26.31667
  },
  {
    "city": "Väike-Särge",
    "city_zh": "Väike-Särge",
    "country": "Estonia",
    "country_zh": "愛沙尼亞",
    "country_iso_code": "EE",
    "timezone": "Europe/Tallinn",
    "latitude": 59.18333,
    "longitude": 24.93333
  },
  {
    "city": "Väike-Rõude",
    "city_zh": "Väike-Rõude",
    "country": "Estonia",
    "country_zh": "愛沙尼亞",
    "country_iso_code": "EE",
    "timezone": "Europe/Tallinn",
    "latitude": 58.77139,
    "longitude": 23.9125
  },
  {
    "city": "Väike-Rõsna",
    "city_zh": "Väike-Rõsna",
    "country": "Estonia",
    "country_zh": "愛沙尼亞",
    "country_iso_code": "EE",
    "timezone": "Europe/Tallinn",
    "latitude": 57.98306,
    "longitude": 27.63333
  },
  {
    "city": "Rootsi",
    "city_zh": "Rootsi",
    "country": "Estonia",
    "country_zh": "愛沙尼亞",
    "country_iso_code": "EE",
    "timezone": "Europe/Tallinn",
    "latitude": 58.22472,
    "longitude": 22.72056
  },
  {
    "city": "Rahula",
    "city_zh": "Rahula",
    "country": "Estonia",
    "country_zh": "愛沙尼亞",
    "country_iso_code": "EE",
    "timezone": "Europe/Tallinn",
    "latitude": 58.54583,
    "longitude": 23.01417
  },
  {
    "city": "Väike-Pusku",
    "city_zh": "Väike-Pusku",
    "country": "Estonia",
    "country_zh": "愛沙尼亞",
    "country_iso_code": "EE",
    "timezone": "Europe/Tallinn",
    "latitude": 58.90361,
    "longitude": 23.47
  },
  {
    "city": "Väike-Pahila",
    "city_zh": "Väike-Pahila",
    "country": "Estonia",
    "country_zh": "愛沙尼亞",
    "country_iso_code": "EE",
    "timezone": "Europe/Tallinn",
    "latitude": 58.545,
    "longitude": 22.85583
  },
  {
    "city": "Väike-Nõmmküla",
    "city_zh": "Väike-Nõmmküla",
    "country": "Estonia",
    "country_zh": "愛沙尼亞",
    "country_iso_code": "EE",
    "timezone": "Europe/Tallinn",
    "latitude": 59.04972,
    "longitude": 23.63722
  },
  {
    "city": "Väike-Maarja",
    "city_zh": "Väike-Maarja",
    "country": "Estonia",
    "country_zh": "愛沙尼亞",
    "country_iso_code": "EE",
    "timezone": "Europe/Tallinn",
    "latitude": 59.12639,
    "longitude": 26.25
  },
  {
    "city": "Väike-Langerma",
    "city_zh": "Väike-Langerma",
    "country": "Estonia",
    "country_zh": "愛沙尼亞",
    "country_iso_code": "EE",
    "timezone": "Europe/Tallinn",
    "latitude": 58.65,
    "longitude": 24.41667
  },
  {
    "city": "Lähtru",
    "city_zh": "Lähtru",
    "country": "Estonia",
    "country_zh": "愛沙尼亞",
    "country_iso_code": "EE",
    "timezone": "Europe/Tallinn",
    "latitude": 58.91611,
    "longitude": 23.88861
  },
  {
    "city": "Rabivere-Väikeküla",
    "city_zh": "Rabivere-Väikeküla",
    "country": "Estonia",
    "country_zh": "愛沙尼亞",
    "country_iso_code": "EE",
    "timezone": "Europe/Tallinn",
    "latitude": 59.09889,
    "longitude": 24.65833
  },
  {
    "city": "Väikeküla",
    "city_zh": "Väikeküla",
    "country": "Estonia",
    "country_zh": "愛沙尼亞",
    "country_iso_code": "EE",
    "timezone": "Europe/Tallinn",
    "latitude": 58.13333,
    "longitude": 25.86667
  },
  {
    "city": "Väike-Kõpu",
    "city_zh": "Väike-Kõpu",
    "country": "Estonia",
    "country_zh": "愛沙尼亞",
    "country_iso_code": "EE",
    "timezone": "Europe/Tallinn",
    "latitude": 58.38167,
    "longitude": 25.39444
  },
  {
    "city": "Väike-Konguta",
    "city_zh": "Väike-Konguta",
    "country": "Estonia",
    "country_zh": "愛沙尼亞",
    "country_iso_code": "EE",
    "timezone": "Europe/Tallinn",
    "latitude": 58.22306,
    "longitude": 26.31361
  },
  {
    "city": "Väike-Kolkja",
    "city_zh": "Väike-Kolkja",
    "country": "Estonia",
    "country_zh": "愛沙尼亞",
    "country_iso_code": "EE",
    "timezone": "Europe/Tallinn",
    "latitude": 58.555,
    "longitude": 27.21306
  },
  {
    "city": "Väike-Kibru",
    "city_zh": "Väike-Kibru",
    "country": "Estonia",
    "country_zh": "愛沙尼亞",
    "country_iso_code": "EE",
    "timezone": "Europe/Tallinn",
    "latitude": 59.28333,
    "longitude": 23.85
  },
  {
    "city": "Väike-Kareda",
    "city_zh": "Väike-Kareda",
    "country": "Estonia",
    "country_zh": "愛沙尼亞",
    "country_iso_code": "EE",
    "timezone": "Europe/Tallinn",
    "latitude": 58.88167,
    "longitude": 25.805
  },
  {
    "city": "Väike-Kalju",
    "city_zh": "Väike-Kalju",
    "country": "Estonia",
    "country_zh": "愛沙尼亞",
    "country_iso_code": "EE",
    "timezone": "Europe/Tallinn",
    "latitude": 58.9,
    "longitude": 24.06667
  },
  {
    "city": "Väike-Ahli",
    "city_zh": "Väike-Ahli",
    "country": "Estonia",
    "country_zh": "愛沙尼亞",
    "country_iso_code": "EE",
    "timezone": "Europe/Tallinn",
    "latitude": 58.88333,
    "longitude": 23.53333
  },
  {
    "city": "Vaigu",
    "city_zh": "Vaigu",
    "country": "Estonia",
    "country_zh": "愛沙尼亞",
    "country_iso_code": "EE",
    "timezone": "Europe/Tallinn",
    "latitude": 58.46667,
    "longitude": 22.03333
  },
  {
    "city": "Vaida",
    "city_zh": "Vaida",
    "country": "Estonia",
    "country_zh": "愛沙尼亞",
    "country_iso_code": "EE",
    "timezone": "Europe/Tallinn",
    "latitude": 59.28546,
    "longitude": 24.97897
  },
  {
    "city": "Vaibla",
    "city_zh": "Vaibla",
    "country": "Estonia",
    "country_zh": "愛沙尼亞",
    "country_iso_code": "EE",
    "timezone": "Europe/Tallinn",
    "latitude": 58.40722,
    "longitude": 26.055
  },
  {
    "city": "Vaiatu",
    "city_zh": "Vaiatu",
    "country": "Estonia",
    "country_zh": "愛沙尼亞",
    "country_iso_code": "EE",
    "timezone": "Europe/Tallinn",
    "latitude": 58.82833,
    "longitude": 26.66444
  },
  {
    "city": "Vahva",
    "city_zh": "Vahva",
    "country": "Estonia",
    "country_zh": "愛沙尼亞",
    "country_iso_code": "EE",
    "timezone": "Europe/Tallinn",
    "latitude": 58.28639,
    "longitude": 21.98944
  },
  {
    "city": "Vahuküla",
    "city_zh": "Vahuküla",
    "country": "Estonia",
    "country_zh": "愛沙尼亞",
    "country_iso_code": "EE",
    "timezone": "Europe/Tallinn",
    "latitude": 58.98278,
    "longitude": 26.08278
  },
  {
    "city": "Vahtrepa",
    "city_zh": "Vahtrepa",
    "country": "Estonia",
    "country_zh": "愛沙尼亞",
    "country_iso_code": "EE",
    "timezone": "Europe/Tallinn",
    "latitude": 58.89293,
    "longitude": 23.0123
  },
  {
    "city": "Vahtraste",
    "city_zh": "Vahtraste",
    "country": "Estonia",
    "country_zh": "愛沙尼亞",
    "country_iso_code": "EE",
    "timezone": "Europe/Tallinn",
    "latitude": 58.64639,
    "longitude": 23.31889
  },
  {
    "city": "Vahi",
    "city_zh": "Vahi",
    "country": "Estonia",
    "country_zh": "愛沙尼亞",
    "country_iso_code": "EE",
    "timezone": "Europe/Tallinn",
    "latitude": 59.37578,
    "longitude": 24.46893
  },
  {
    "city": "Väheru",
    "city_zh": "Väheru",
    "country": "Estonia",
    "country_zh": "愛沙尼亞",
    "country_iso_code": "EE",
    "timezone": "Europe/Tallinn",
    "latitude": 57.79667,
    "longitude": 26.31472
  },
  {
    "city": "Vahenurme",
    "city_zh": "Vahenurme",
    "country": "Estonia",
    "country_zh": "愛沙尼亞",
    "country_iso_code": "EE",
    "timezone": "Europe/Tallinn",
    "latitude": 58.6175,
    "longitude": 24.39639
  },
  {
    "city": "Vaheliku",
    "city_zh": "Vaheliku",
    "country": "Estonia",
    "country_zh": "愛沙尼亞",
    "country_iso_code": "EE",
    "timezone": "Europe/Tallinn",
    "latitude": 58.14667,
    "longitude": 24.56389
  },
  {
    "city": "Vahastu",
    "city_zh": "Vahastu",
    "country": "Estonia",
    "country_zh": "愛沙尼亞",
    "country_iso_code": "EE",
    "timezone": "Europe/Tallinn",
    "latitude": 59.46306,
    "longitude": 25.605
  },
  {
    "city": "Vahastu",
    "city_zh": "Vahastu",
    "country": "Estonia",
    "country_zh": "愛沙尼亞",
    "country_iso_code": "EE",
    "timezone": "Europe/Tallinn",
    "latitude": 58.94889,
    "longitude": 25.26167
  },
  {
    "city": "Vaharu",
    "city_zh": "Vaharu",
    "country": "Estonia",
    "country_zh": "愛沙尼亞",
    "country_iso_code": "EE",
    "timezone": "Europe/Tallinn",
    "latitude": 58.8475,
    "longitude": 24.7825
  },
  {
    "city": "Vahamulla",
    "city_zh": "Vahamulla",
    "country": "Estonia",
    "country_zh": "愛沙尼亞",
    "country_iso_code": "EE",
    "timezone": "Europe/Tallinn",
    "latitude": 58.65,
    "longitude": 25.58333
  },
  {
    "city": "Vahakõnnu",
    "city_zh": "Vahakõnnu",
    "country": "Estonia",
    "country_zh": "愛沙尼亞",
    "country_iso_code": "EE",
    "timezone": "Europe/Tallinn",
    "latitude": 58.84556,
    "longitude": 24.80167
  },
  {
    "city": "Vaguja",
    "city_zh": "Vaguja",
    "country": "Estonia",
    "country_zh": "愛沙尼亞",
    "country_iso_code": "EE",
    "timezone": "Europe/Tallinn",
    "latitude": 58.73417,
    "longitude": 24.33028
  },
  {
    "city": "Vagivere",
    "city_zh": "Vagivere",
    "country": "Estonia",
    "country_zh": "愛沙尼亞",
    "country_iso_code": "EE",
    "timezone": "Europe/Tallinn",
    "latitude": 58.65722,
    "longitude": 23.69861
  },
  {
    "city": "Vägeva",
    "city_zh": "Vägeva",
    "country": "Estonia",
    "country_zh": "愛沙尼亞",
    "country_iso_code": "EE",
    "timezone": "Europe/Tallinn",
    "latitude": 58.90556,
    "longitude": 26.28361
  },
  {
    "city": "Väemla",
    "city_zh": "Väemla",
    "country": "Estonia",
    "country_zh": "愛沙尼亞",
    "country_iso_code": "EE",
    "timezone": "Europe/Tallinn",
    "latitude": 59.26528,
    "longitude": 24.13472
  },
  {
    "city": "Vaemla",
    "city_zh": "Vaemla",
    "country": "Estonia",
    "country_zh": "愛沙尼亞",
    "country_iso_code": "EE",
    "timezone": "Europe/Tallinn",
    "latitude": 58.83199,
    "longitude": 22.82296
  },
  {
    "city": "Vaela",
    "city_zh": "Vaela",
    "country": "Estonia",
    "country_zh": "愛沙尼亞",
    "country_iso_code": "EE",
    "timezone": "Europe/Tallinn",
    "latitude": 59.33659,
    "longitude": 24.81318
  },
  {
    "city": "Vaeküla",
    "city_zh": "Vaeküla",
    "country": "Estonia",
    "country_zh": "愛沙尼亞",
    "country_iso_code": "EE",
    "timezone": "Europe/Tallinn",
    "latitude": 59.34124,
    "longitude": 26.51087
  },
  {
    "city": "Vadi",
    "city_zh": "Vadi",
    "country": "Estonia",
    "country_zh": "愛沙尼亞",
    "country_iso_code": "EE",
    "timezone": "Europe/Tallinn",
    "latitude": 58.99361,
    "longitude": 26.96806
  },
  {
    "city": "Vabriku",
    "city_zh": "Vabriku",
    "country": "Estonia",
    "country_zh": "愛沙尼亞",
    "country_iso_code": "EE",
    "timezone": "Europe/Tallinn",
    "latitude": 58.75,
    "longitude": 24.95
  },
  {
    "city": "Vabriku",
    "city_zh": "Vabriku",
    "country": "Estonia",
    "country_zh": "愛沙尼亞",
    "country_iso_code": "EE",
    "timezone": "Europe/Tallinn",
    "latitude": 58.41556,
    "longitude": 24.83694
  },
  {
    "city": "Vabatküla",
    "city_zh": "Vabatküla",
    "country": "Estonia",
    "country_zh": "愛沙尼亞",
    "country_iso_code": "EE",
    "timezone": "Europe/Tallinn",
    "latitude": 59.33333,
    "longitude": 26.68333
  },
  {
    "city": "Väätsa",
    "city_zh": "Väätsa",
    "country": "Estonia",
    "country_zh": "愛沙尼亞",
    "country_iso_code": "EE",
    "timezone": "Europe/Tallinn",
    "latitude": 58.88556,
    "longitude": 25.44639
  },
  {
    "city": "Vaase",
    "city_zh": "Vaase",
    "country": "Estonia",
    "country_zh": "愛沙尼亞",
    "country_iso_code": "EE",
    "timezone": "Europe/Tallinn",
    "latitude": 59.35778,
    "longitude": 25.21306
  },
  {
    "city": "Vaartsi",
    "city_zh": "Vaartsi",
    "country": "Estonia",
    "country_zh": "愛沙尼亞",
    "country_iso_code": "EE",
    "timezone": "Europe/Tallinn",
    "latitude": 57.85333,
    "longitude": 27.60389
  },
  {
    "city": "Vaarja",
    "city_zh": "Vaarja",
    "country": "Estonia",
    "country_zh": "愛沙尼亞",
    "country_iso_code": "EE",
    "timezone": "Europe/Tallinn",
    "latitude": 58.11667,
    "longitude": 24.83333
  },
  {
    "city": "Väändla",
    "city_zh": "Väändla",
    "country": "Estonia",
    "country_zh": "愛沙尼亞",
    "country_iso_code": "EE",
    "timezone": "Europe/Tallinn",
    "latitude": 58.97028,
    "longitude": 23.83167
  },
  {
    "city": "Väänja",
    "city_zh": "Väänja",
    "country": "Estonia",
    "country_zh": "愛沙尼亞",
    "country_iso_code": "EE",
    "timezone": "Europe/Tallinn",
    "latitude": 58.54361,
    "longitude": 23.92417
  },
  {
    "city": "Väänikvere",
    "city_zh": "Väänikvere",
    "country": "Estonia",
    "country_zh": "愛沙尼亞",
    "country_iso_code": "EE",
    "timezone": "Europe/Tallinn",
    "latitude": 58.51361,
    "longitude": 26.39833
  },
  {
    "city": "Vääna-Mõisaküla",
    "city_zh": "Vääna-Mõisaküla",
    "country": "Estonia",
    "country_zh": "愛沙尼亞",
    "country_iso_code": "EE",
    "timezone": "Europe/Tallinn",
    "latitude": 59.38333,
    "longitude": 24.43333
  },
  {
    "city": "Vääna",
    "city_zh": "Vääna",
    "country": "Estonia",
    "country_zh": "愛沙尼亞",
    "country_iso_code": "EE",
    "timezone": "Europe/Tallinn",
    "latitude": 59.39088,
    "longitude": 24.41196
  },
  {
    "city": "Vaali",
    "city_zh": "Vaali",
    "country": "Estonia",
    "country_zh": "愛沙尼亞",
    "country_iso_code": "EE",
    "timezone": "Europe/Tallinn",
    "latitude": 58.85306,
    "longitude": 25.97194
  },
  {
    "city": "Vaabina",
    "city_zh": "Vaabina",
    "country": "Estonia",
    "country_zh": "愛沙尼亞",
    "country_iso_code": "EE",
    "timezone": "Europe/Tallinn",
    "latitude": 57.86389,
    "longitude": 26.61361
  },
  {
    "city": "Üüvere",
    "city_zh": "Üüvere",
    "country": "Estonia",
    "country_zh": "愛沙尼亞",
    "country_iso_code": "EE",
    "timezone": "Europe/Tallinn",
    "latitude": 58.41556,
    "longitude": 22.97667
  },
  {
    "city": "Uuta",
    "city_zh": "Uuta",
    "country": "Estonia",
    "country_zh": "愛沙尼亞",
    "country_iso_code": "EE",
    "timezone": "Europe/Tallinn",
    "latitude": 58.21944,
    "longitude": 26.44111
  },