[
  {
    "city": "Zunzumua",
    "city_zh": "Zunzumua",
    "country": "Papua New Guinea",
    "country_zh": "巴布亞紐幾內亞",
    "country_iso_code": "PG",
    "timezone": "Pacific/Port_Moresby",
    "latitude": -6.29629,
    "longitude": 147.62732
  },
  {
    "city": "Zukin",
    "city_zh": "Zukin",
    "country": "Papua New Guinea",
    "country_zh": "巴布亞紐幾內亞",
    "country_iso_code": "PG",
    "timezone": "Pacific/Port_Moresby",
    "latitude": -4.54216,
    "longitude": 144.81396
  },
  {
    "city": "Zoroge",
    "city_zh": "Zoroge",
    "country": "Papua New Guinea",
    "country_zh": "巴布亞紐幾內亞",
    "country_iso_code": "PG",
    "timezone": "Pacific/Port_Moresby",
    "latitude": -6.26667,
    "longitude": 147.63333
  },
  {
    "city": "Zongafifi",
    "city_zh": "Zongafifi",
    "country": "Papua New Guinea",
    "country_zh": "巴布亞紐幾內亞",
    "country_iso_code": "PG",
    "timezone": "Pacific/Port_Moresby",
    "latitude": -6.31066,
    "longitude": 147.62492
  },
  {
    "city": "Zitus",
    "city_zh": "Zitus",
    "country": "Papua New Guinea",
    "country_zh": "巴布亞紐幾內亞",
    "country_iso_code": "PG",
    "timezone": "Pacific/Port_Moresby",
    "latitude": -6.19565,
    "longitude": 150.43065
  },
  {
    "city": "Zitari",
    "city_zh": "Zitari",
    "country": "Papua New Guinea",
    "country_zh": "巴布亞紐幾內亞",
    "country_iso_code": "PG",
    "timezone": "Pacific/Port_Moresby",
    "latitude": -6.43333,
    "longitude": 147.01667
  },
  {
    "city": "Zingko",
    "city_zh": "Zingko",
    "country": "Papua New Guinea",
    "country_zh": "巴布亞紐幾內亞",
    "country_iso_code": "PG",
    "timezone": "Pacific/Port_Moresby",
    "latitude": -6.58123,
    "longitude": 147.69186
  },
  {
    "city": "Zinaba",
    "city_zh": "Zinaba",
    "country": "Papua New Guinea",
    "country_zh": "巴布亞紐幾內亞",
    "country_iso_code": "PG",
    "timezone": "Pacific/Port_Moresby",
    "latitude": -7.67553,
    "longitude": 147.42506
  },
  {
    "city": "Zim",
    "city_zh": "Zim",
    "country": "Papua New Guinea",
    "country_zh": "巴布亞紐幾內亞",
    "country_iso_code": "PG",
    "timezone": "Pacific/Port_Moresby",
    "latitude": -8.80674,
    "longitude": 143.1057
  },
  {
    "city": "Zhamora",
    "city_zh": "Zhamora",
    "country": "Papua New Guinea",
    "country_zh": "巴布亞紐幾內亞",
    "country_iso_code": "PG",
    "timezone": "Pacific/Port_Moresby",
    "latitude": -8.36366,
    "longitude": 146.9038
  },
  {
    "city": "Zhamalalava",
    "city_zh": "Zhamalalava",
    "country": "Papua New Guinea",
    "country_zh": "巴布亞紐幾內亞",
    "country_iso_code": "PG",
    "timezone": "Pacific/Port_Moresby",
    "latitude": -8.29726,
    "longitude": 146.91735
  },
  {
    "city": "Zezaging",
    "city_zh": "Zezaging",
    "country": "Papua New Guinea",
    "country_zh": "巴布亞紐幾內亞",
    "country_iso_code": "PG",
    "timezone": "Pacific/Port_Moresby",
    "latitude": -6.5666,
    "longitude": 147.18433
  },
  {
    "city": "Zewitzan",
    "city_zh": "Zewitzan",
    "country": "Papua New Guinea",
    "country_zh": "巴布亞紐幾內亞",
    "country_iso_code": "PG",
    "timezone": "Pacific/Port_Moresby",
    "latitude": -6.51667,
    "longitude": 147.38333
  },
  {
    "city": "Zewitzan",
    "city_zh": "Zewitzan",
    "country": "Papua New Guinea",
    "country_zh": "巴布亞紐幾內亞",
    "country_iso_code": "PG",
    "timezone": "Pacific/Port_Moresby",
    "latitude": -6.42051,
    "longitude": 147.32936
  },
  {
    "city": "Zenguru",
    "city_zh": "Zenguru",
    "country": "Papua New Guinea",
    "country_zh": "巴布亞紐幾內亞",
    "country_iso_code": "PG",
    "timezone": "Pacific/Port_Moresby",
    "latitude": -6.43524,
    "longitude": 147.50646
  },
  {
    "city": "Zengaren",
    "city_zh": "Zengaren",
    "country": "Papua New Guinea",
    "country_zh": "巴布亞紐幾內亞",
    "country_iso_code": "PG",
    "timezone": "Pacific/Port_Moresby",
    "latitude": -6.53273,
    "longitude": 147.42967
  },
  {
    "city": "Zenag",
    "city_zh": "Zenag",
    "country": "Papua New Guinea",
    "country_zh": "巴布亞紐幾內亞",
    "country_iso_code": "PG",
    "timezone": "Pacific/Port_Moresby",
    "latitude": -6.9478,
    "longitude": 146.61519
  },
  {
    "city": "Zebu",
    "city_zh": "Zebu",
    "country": "Papua New Guinea",
    "country_zh": "巴布亞紐幾內亞",
    "country_iso_code": "PG",
    "timezone": "Pacific/Port_Moresby",
    "latitude": -6.23333,
    "longitude": 150.31667
  },
  {
    "city": "Zawan",
    "city_zh": "Zawan",
    "country": "Papua New Guinea",
    "country_zh": "巴布亞紐幾內亞",
    "country_iso_code": "PG",
    "timezone": "Pacific/Port_Moresby",
    "latitude": -5.9,
    "longitude": 146.46667
  },
  {
    "city": "Zarit",
    "city_zh": "Zarit",
    "country": "Papua New Guinea",
    "country_zh": "巴布亞紐幾內亞",
    "country_iso_code": "PG",
    "timezone": "Pacific/Port_Moresby",
    "latitude": -6.88333,
    "longitude": 141.51667
  },
  {
    "city": "Zare",
    "city_zh": "Zare",
    "country": "Papua New Guinea",
    "country_zh": "巴布亞紐幾內亞",
    "country_iso_code": "PG",
    "timezone": "Pacific/Port_Moresby",
    "latitude": -7.85322,
    "longitude": 147.64524
  },
  {
    "city": "Zaraguna",
    "city_zh": "Zaraguna",
    "country": "Papua New Guinea",
    "country_zh": "巴布亞紐幾內亞",
    "country_iso_code": "PG",
    "timezone": "Pacific/Port_Moresby",
    "latitude": -6.21189,
    "longitude": 145.71724
  },
  {
    "city": "Zanung",
    "city_zh": "Zanung",
    "country": "Papua New Guinea",
    "country_zh": "巴布亞紐幾內亞",
    "country_iso_code": "PG",
    "timezone": "Pacific/Port_Moresby",
    "latitude": -4.31667,
    "longitude": 144.66667
  },
  {
    "city": "Zankoa",
    "city_zh": "Zankoa",
    "country": "Papua New Guinea",
    "country_zh": "巴布亞紐幾內亞",
    "country_iso_code": "PG",
    "timezone": "Pacific/Port_Moresby",
    "latitude": -6.23112,
    "longitude": 147.61216
  },
  {
    "city": "Zanggung",
    "city_zh": "Zanggung",
    "country": "Papua New Guinea",
    "country_zh": "巴布亞紐幾內亞",
    "country_iso_code": "PG",
    "timezone": "Pacific/Port_Moresby",
    "latitude": -6.3747,
    "longitude": 147.31929
  },
  {
    "city": "Zama",
    "city_zh": "Zama",
    "country": "Papua New Guinea",
    "country_zh": "巴布亞紐幾內亞",
    "country_iso_code": "PG",
    "timezone": "Pacific/Port_Moresby",
    "latitude": -7.23333,
    "longitude": 141.78333
  },
  {
    "city": "Zalimpa",
    "city_zh": "Zalimpa",
    "country": "Papua New Guinea",
    "country_zh": "巴布亞紐幾內亞",
    "country_iso_code": "PG",
    "timezone": "Pacific/Port_Moresby",
    "latitude": -6.50621,
    "longitude": 147.5248
  },
  {
    "city": "Zakubep",
    "city_zh": "Zakubep",
    "country": "Papua New Guinea",
    "country_zh": "巴布亞紐幾內亞",
    "country_iso_code": "PG",
    "timezone": "Pacific/Port_Moresby",
    "latitude": -6.22012,
    "longitude": 147.60319
  },
  {
    "city": "Zailapu",
    "city_zh": "Zailapu",
    "country": "Papua New Guinea",
    "country_zh": "巴布亞紐幾內亞",
    "country_iso_code": "PG",
    "timezone": "Pacific/Port_Moresby",
    "latitude": -8.12804,
    "longitude": 146.90498
  },
  {
    "city": "Zagomzuhu",
    "city_zh": "Zagomzuhu",
    "country": "Papua New Guinea",
    "country_zh": "巴布亞紐幾內亞",
    "country_iso_code": "PG",
    "timezone": "Pacific/Port_Moresby",
    "latitude": -6.08308,
    "longitude": 145.38208
  },
  {
    "city": "Zagahemi",
    "city_zh": "Zagahemi",
    "country": "Papua New Guinea",
    "country_zh": "巴布亞紐幾內亞",
    "country_iso_code": "PG",
    "timezone": "Pacific/Port_Moresby",
    "latitude": -6.33988,
    "longitude": 147.64457
  },
  {
    "city": "Zafilio",
    "city_zh": "Zafilio",
    "country": "Papua New Guinea",
    "country_zh": "巴布亞紐幾內亞",
    "country_iso_code": "PG",
    "timezone": "Pacific/Port_Moresby",
    "latitude": -6.3762,
    "longitude": 147.7511
  },
  {
    "city": "Yuwun",
    "city_zh": "Yuwun",
    "country": "Papua New Guinea",
    "country_zh": "巴布亞紐幾內亞",
    "country_iso_code": "PG",
    "timezone": "Pacific/Port_Moresby",
    "latitude": -3.38077,
    "longitude": 143.60364
  },
  {
    "city": "Yuwil Hamlets",
    "city_zh": "Yuwil Hamlets",
    "country": "Papua New Guinea",
    "country_zh": "巴布亞紐幾內亞",
    "country_iso_code": "PG",
    "timezone": "Pacific/Port_Moresby",
    "latitude": -3.49396,
    "longitude": 142.26306
  },
  {
    "city": "Yuwetla",
    "city_zh": "Yuwetla",
    "country": "Papua New Guinea",
    "country_zh": "巴布亞紐幾內亞",
    "country_iso_code": "PG",
    "timezone": "Pacific/Port_Moresby",
    "latitude": -3.23881,
    "longitude": 141.09159
  },
  {
    "city": "Yut Meri",
    "city_zh": "Yut Meri",
    "country": "Papua New Guinea",
    "country_zh": "巴布亞紐幾內亞",
    "country_iso_code": "PG",
    "timezone": "Pacific/Port_Moresby",
    "latitude": -4.21667,
    "longitude": 143.71667
  },
  {
    "city": "Yutabi",
    "city_zh": "Yutabi",
    "country": "Papua New Guinea",
    "country_zh": "巴布亞紐幾內亞",
    "country_iso_code": "PG",
    "timezone": "Pacific/Port_Moresby",
    "latitude": -3.5537,
    "longitude": 142.06961
  },
  {
    "city": "Yusari",
    "city_zh": "Yusari",
    "country": "Papua New Guinea",
    "country_zh": "巴布亞紐幾內亞",
    "country_iso_code": "PG",
    "timezone": "Pacific/Port_Moresby",
    "latitude": -7.15,
    "longitude": 142.9
  },
  {
    "city": "Yuripaka",
    "city_zh": "Yuripaka",
    "country": "Papua New Guinea",
    "country_zh": "巴布亞紐幾內亞",
    "country_iso_code": "PG",
    "timezone": "Pacific/Port_Moresby",
    "latitude": -5.83705,
    "longitude": 143.62026
  },
  {
    "city": "Yurau",
    "city_zh": "Yurau",
    "country": "Papua New Guinea",
    "country_zh": "巴布亞紐幾內亞",
    "country_iso_code": "PG",
    "timezone": "Pacific/Port_Moresby",
    "latitude": -6.18959,
    "longitude": 144.93468
  },
  {
    "city": "Yuolpa",
    "city_zh": "Yuolpa",
    "country": "Papua New Guinea",
    "country_zh": "巴布亞紐幾內亞",
    "country_iso_code": "PG",
    "timezone": "Pacific/Port_Moresby",
    "latitude": -3.49518,
    "longitude": 142.43497
  },
  {
    "city": "Yuo",
    "city_zh": "Yuo",
    "country": "Papua New Guinea",
    "country_zh": "巴布亞紐幾內亞",
    "country_iso_code": "PG",
    "timezone": "Pacific/Port_Moresby",
    "latitude": -3.45,
    "longitude": 143.5
  },
  {
    "city": "Yuo",
    "city_zh": "Yuo",
    "country": "Papua New Guinea",
    "country_zh": "巴布亞紐幾內亞",
    "country_iso_code": "PG",
    "timezone": "Pacific/Port_Moresby",
    "latitude": -3.40709,
    "longitude": 143.48936
  },
  {
    "city": "Yunguli",
    "city_zh": "Yunguli",
    "country": "Papua New Guinea",
    "country_zh": "巴布亞紐幾內亞",
    "country_iso_code": "PG",
    "timezone": "Pacific/Port_Moresby",
    "latitude": -6.38333,
    "longitude": 144.06667
  },
  {
    "city": "Yungu",
    "city_zh": "Yungu",
    "country": "Papua New Guinea",
    "country_zh": "巴布亞紐幾內亞",
    "country_iso_code": "PG",
    "timezone": "Pacific/Port_Moresby",
    "latitude": -6.2,
    "longitude": 145.78333
  },
  {
    "city": "Yunggu",
    "city_zh": "Yunggu",
    "country": "Papua New Guinea",
    "country_zh": "巴布亞紐幾內亞",
    "country_iso_code": "PG",
    "timezone": "Pacific/Port_Moresby",
    "latitude": -6.11636,
    "longitude": 147.0373
  },
  {
    "city": "Yungendam",
    "city_zh": "Yungendam",
    "country": "Papua New Guinea",
    "country_zh": "巴布亞紐幾內亞",
    "country_iso_code": "PG",
    "timezone": "Pacific/Port_Moresby",
    "latitude": -5.70527,
    "longitude": 146.14263
  },
  {
    "city": "Yungago",
    "city_zh": "Yungago",
    "country": "Papua New Guinea",
    "country_zh": "巴布亞紐幾內亞",
    "country_iso_code": "PG",
    "timezone": "Pacific/Port_Moresby",
    "latitude": -5.98333,
    "longitude": 145.06667
  },
  {
    "city": "Yumungu",
    "city_zh": "Yumungu",
    "country": "Papua New Guinea",
    "country_zh": "巴布亞紐幾內亞",
    "country_iso_code": "PG",
    "timezone": "Pacific/Port_Moresby",
    "latitude": -3.81098,
    "longitude": 143.53762
  },
  {
    "city": "Yumu",
    "city_zh": "Yumu",
    "country": "Papua New Guinea",
    "country_zh": "巴布亞紐幾內亞",
    "country_iso_code": "PG",
    "timezone": "Pacific/Port_Moresby",
    "latitude": -8.54335,
    "longitude": 147.09836
  },
  {
    "city": "Yumoro",
    "city_zh": "Yumoro",
    "country": "Papua New Guinea",
    "country_zh": "巴布亞紐幾內亞",
    "country_iso_code": "PG",
    "timezone": "Pacific/Port_Moresby",
    "latitude": -3.55,
    "longitude": 141.31667
  },
  {
    "city": "Yumor Number 2",
    "city_zh": "Yumor Number 2",
    "country": "Papua New Guinea",
    "country_zh": "巴布亞紐幾內亞",
    "country_iso_code": "PG",
    "timezone": "Pacific/Port_Moresby",
    "latitude": -3.54506,
    "longitude": 141.2668
  },
  {
    "city": "Yumor Number 1",
    "city_zh": "Yumor Number 1",
    "country": "Papua New Guinea",
    "country_zh": "巴布亞紐幾內亞",
    "country_iso_code": "PG",
    "timezone": "Pacific/Port_Moresby",
    "latitude": -3.58747,
    "longitude": 141.23427
  },
  {
    "city": "Yumi",
    "city_zh": "Yumi",
    "country": "Papua New Guinea",
    "country_zh": "巴布亞紐幾內亞",
    "country_iso_code": "PG",
    "timezone": "Pacific/Port_Moresby",
    "latitude": -6.33333,
    "longitude": 145.46667
  },
  {
    "city": "Yumbitchi",
    "city_zh": "Yumbitchi",
    "country": "Papua New Guinea",
    "country_zh": "巴布亞紐幾內亞",
    "country_iso_code": "PG",
    "timezone": "Pacific/Port_Moresby",
    "latitude": -5.61667,
    "longitude": 143.23333
  },
  {
    "city": "Yumbetesa",
    "city_zh": "Yumbetesa",
    "country": "Papua New Guinea",
    "country_zh": "巴布亞紐幾內亞",
    "country_iso_code": "PG",
    "timezone": "Pacific/Port_Moresby",
    "latitude": -5.70144,
    "longitude": 143.86667
  },
  {
    "city": "Yulinofi",
    "city_zh": "Yulinofi",
    "country": "Papua New Guinea",
    "country_zh": "巴布亞紐幾內亞",
    "country_iso_code": "PG",
    "timezone": "Pacific/Port_Moresby",
    "latitude": -6.28333,
    "longitude": 145.75
  },
  {
    "city": "Yulem",
    "city_zh": "Yulem",
    "country": "Papua New Guinea",
    "country_zh": "巴布亞紐幾內亞",
    "country_iso_code": "PG",
    "timezone": "Pacific/Port_Moresby",
    "latitude": -3.71138,
    "longitude": 142.33132
  },
  {
    "city": "Yulai",
    "city_zh": "Yulai",
    "country": "Papua New Guinea",
    "country_zh": "巴布亞紐幾內亞",
    "country_iso_code": "PG",
    "timezone": "Pacific/Port_Moresby",
    "latitude": -8.55,
    "longitude": 147.13333
  },
  {
    "city": "Yulabi",
    "city_zh": "Yulabi",
    "country": "Papua New Guinea",
    "country_zh": "巴布亞紐幾內亞",
    "country_iso_code": "PG",
    "timezone": "Pacific/Port_Moresby",
    "latitude": -6.32968,
    "longitude": 142.31667
  },
  {
    "city": "Yukyuk",
    "city_zh": "Yukyuk",
    "country": "Papua New Guinea",
    "country_zh": "巴布亞紐幾內亞",
    "country_iso_code": "PG",
    "timezone": "Pacific/Port_Moresby",
    "latitude": -4.7,
    "longitude": 146.01667
  },
  {
    "city": "Yukilo",
    "city_zh": "Yukilo",
    "country": "Papua New Guinea",
    "country_zh": "巴布亞紐幾內亞",
    "country_iso_code": "PG",
    "timezone": "Pacific/Port_Moresby",
    "latitude": -3.67866,
    "longitude": 141.92428
  },
  {
    "city": "Yugugutu",
    "city_zh": "Yugugutu",
    "country": "Papua New Guinea",
    "country_zh": "巴布亞紐幾內亞",
    "country_iso_code": "PG",
    "timezone": "Pacific/Port_Moresby",
    "latitude": -6.33333,
    "longitude": 145.43333
  },
  {
    "city": "Yugua",
    "city_zh": "Yugua",
    "country": "Papua New Guinea",
    "country_zh": "巴布亞紐幾內亞",
    "country_iso_code": "PG",
    "timezone": "Pacific/Port_Moresby",
    "latitude": -6.1,
    "longitude": 144.1
  },
  {
    "city": "Yueriman",
    "city_zh": "Yueriman",
    "country": "Papua New Guinea",
    "country_zh": "巴布亞紐幾內亞",
    "country_iso_code": "PG",
    "timezone": "Pacific/Port_Moresby",
    "latitude": -4.1524,
    "longitude": 143.88667
  },
  {
    "city": "Yoya",
    "city_zh": "Yoya",
    "country": "Papua New Guinea",
    "country_zh": "巴布亞紐幾內亞",
    "country_iso_code": "PG",
    "timezone": "Pacific/Port_Moresby",
    "latitude": -6.28333,
    "longitude": 145.53333
  },
  {
    "city": "Yowong",
    "city_zh": "Yowong",
    "country": "Papua New Guinea",
    "country_zh": "巴布亞紐幾內亞",
    "country_iso_code": "PG",
    "timezone": "Pacific/Port_Moresby",
    "latitude": -5.88094,
    "longitude": 146.78016
  },
  {
    "city": "Yova",
    "city_zh": "Yova",
    "country": "Papua New Guinea",
    "country_zh": "巴布亞紐幾內亞",
    "country_iso_code": "PG",
    "timezone": "Pacific/Port_Moresby",
    "latitude": -6.3,
    "longitude": 145.55
  },
  {
    "city": "You",
    "city_zh": "You",
    "country": "Papua New Guinea",
    "country_zh": "巴布亞紐幾內亞",
    "country_iso_code": "PG",
    "timezone": "Pacific/Port_Moresby",
    "latitude": -6.77115,
    "longitude": 145.17137
  },
  {
    "city": "Yotchibol Trade Post",
    "city_zh": "Yotchibol Trade Post",
    "country": "Papua New Guinea",
    "country_zh": "巴布亞紐幾內亞",
    "country_iso_code": "PG",
    "timezone": "Pacific/Bougainville",
    "latitude": -4.51667,
    "longitude": 154.18333
  },
  {
    "city": "Yotchibol",
    "city_zh": "Yotchibol",
    "country": "Papua New Guinea",
    "country_zh": "巴布亞紐幾內亞",
    "country_iso_code": "PG",
    "timezone": "Pacific/Bougainville",
    "latitude": -4.51625,
    "longitude": 154.17392
  },
  {
    "city": "Yosua",
    "city_zh": "Yosua",
    "country": "Papua New Guinea",
    "country_zh": "巴布亞紐幾內亞",
    "country_iso_code": "PG",
    "timezone": "Pacific/Port_Moresby",
    "latitude": -4.53797,
    "longitude": 142.51334
  },
  {
    "city": "Yorugu",
    "city_zh": "Yorugu",
    "country": "Papua New Guinea",
    "country_zh": "巴布亞紐幾內亞",
    "country_iso_code": "PG",
    "timezone": "Pacific/Port_Moresby",
    "latitude": -6.23277,
    "longitude": 145.0944
  },
  {
    "city": "Yorkia",
    "city_zh": "Yorkia",
    "country": "Papua New Guinea",
    "country_zh": "巴布亞紐幾內亞",
    "country_iso_code": "PG",
    "timezone": "Pacific/Port_Moresby",
    "latitude": -5.70318,
    "longitude": 146.30096
  },
  {
    "city": "Yorki",
    "city_zh": "Yorki",
    "country": "Papua New Guinea",
    "country_zh": "巴布亞紐幾內亞",
    "country_iso_code": "PG",
    "timezone": "Pacific/Port_Moresby",
    "latitude": -5.78413,
    "longitude": 146.25887
  },
  {
    "city": "Yori",
    "city_zh": "Yori",
    "country": "Papua New Guinea",
    "country_zh": "巴布亞紐幾內亞",
    "country_iso_code": "PG",
    "timezone": "Pacific/Port_Moresby",
    "latitude": -5.59843,
    "longitude": 146.32434
  },
  {
    "city": "Yo’obo",
    "city_zh": "Yo’obo",
    "country": "Papua New Guinea",
    "country_zh": "巴布亞紐幾內亞",
    "country_iso_code": "PG",
    "timezone": "Pacific/Port_Moresby",
    "latitude": -6.41667,
    "longitude": 143.33333
  },
  {
    "city": "Yonufu",
    "city_zh": "Yonufu",
    "country": "Papua New Guinea",
    "country_zh": "巴布亞紐幾內亞",
    "country_iso_code": "PG",
    "timezone": "Pacific/Port_Moresby",
    "latitude": -6.55248,
    "longitude": 145.97234
  },
  {
    "city": "Yontebe 2",
    "city_zh": "Yontebe 2",
    "country": "Papua New Guinea",
    "country_zh": "巴布亞紐幾內亞",
    "country_iso_code": "PG",
    "timezone": "Pacific/Port_Moresby",
    "latitude": -6.21667,
    "longitude": 145.63333
  },
  {
    "city": "Yontebe 1",
    "city_zh": "Yontebe 1",
    "country": "Papua New Guinea",
    "country_zh": "巴布亞紐幾內亞",
    "country_iso_code": "PG",
    "timezone": "Pacific/Port_Moresby",
    "latitude": -6.2,
    "longitude": 145.6
  },
  {
    "city": "Yongtau",
    "city_zh": "Yongtau",
    "country": "Papua New Guinea",
    "country_zh": "巴布亞紐幾內亞",
    "country_iso_code": "PG",
    "timezone": "Pacific/Port_Moresby",
    "latitude": -5.51236,
    "longitude": 141.12999
  },
  {
    "city": "Yongiti",
    "city_zh": "Yongiti",
    "country": "Papua New Guinea",
    "country_zh": "巴布亞紐幾內亞",
    "country_iso_code": "PG",
    "timezone": "Pacific/Port_Moresby",
    "latitude": -3.32102,
    "longitude": 142.16755
  },
  {
    "city": "Yongitei",
    "city_zh": "Yongitei",
    "country": "Papua New Guinea",
    "country_zh": "巴布亞紐幾內亞",
    "country_iso_code": "PG",
    "timezone": "Pacific/Port_Moresby",
    "latitude": -3.41581,
    "longitude": 142.0569
  },
  {
    "city": "Yonapa",
    "city_zh": "Yonapa",
    "country": "Papua New Guinea",
    "country_zh": "巴布亞紐幾內亞",
    "country_iso_code": "PG",
    "timezone": "Pacific/Port_Moresby",
    "latitude": -5.7,
    "longitude": 145.43333
  },
  {
    "city": "Yompika",
    "city_zh": "Yompika",
    "country": "Papua New Guinea",
    "country_zh": "巴布亞紐幾內亞",
    "country_iso_code": "PG",
    "timezone": "Pacific/Port_Moresby",
    "latitude": -6.35,
    "longitude": 145.71667
  },
  {
    "city": "Yomika",
    "city_zh": "Yomika",
    "country": "Papua New Guinea",
    "country_zh": "巴布亞紐幾內亞",
    "country_iso_code": "PG",
    "timezone": "Pacific/Port_Moresby",
    "latitude": -5.82096,
    "longitude": 145.39044
  },
  {
    "city": "Yomgamakane",
    "city_zh": "Yomgamakane",
    "country": "Papua New Guinea",
    "country_zh": "巴布亞紐幾內亞",
    "country_iso_code": "PG",
    "timezone": "Pacific/Port_Moresby",
    "latitude": -5.98333,
    "longitude": 145.08333
  },
  {
    "city": "Yombi",
    "city_zh": "Yombi",
    "country": "Papua New Guinea",
    "country_zh": "巴布亞紐幾內亞",
    "country_iso_code": "PG",
    "timezone": "Pacific/Port_Moresby",
    "latitude": -6.2,
    "longitude": 143.98333
  },
  {
    "city": "Yombatai",
    "city_zh": "Yombatai",
    "country": "Papua New Guinea",
    "country_zh": "巴布亞紐幾內亞",
    "country_iso_code": "PG",
    "timezone": "Pacific/Port_Moresby",
    "latitude": -7.0,
    "longitude": 145.88333
  },
  {
    "city": "Yombagau’um",
    "city_zh": "Yombagau’um",
    "country": "Papua New Guinea",
    "country_zh": "巴布亞紐幾內亞",
    "country_iso_code": "PG",
    "timezone": "Pacific/Port_Moresby",
    "latitude": -6.23333,
    "longitude": 145.05
  },
  {
    "city": "Yologe",
    "city_zh": "Yologe",
    "country": "Papua New Guinea",
    "country_zh": "巴布亞紐幾內亞",
    "country_iso_code": "PG",
    "timezone": "Pacific/Port_Moresby",
    "latitude": -8.72616,
    "longitude": 147.09483
  },
  {
    "city": "Yokua",
    "city_zh": "Yokua",
    "country": "Papua New Guinea",
    "country_zh": "巴布亞紐幾內亞",
    "country_iso_code": "PG",
    "timezone": "Pacific/Port_Moresby",
    "latitude": -7.32673,
    "longitude": 146.52643
  },
  {
    "city": "Yokopi",
    "city_zh": "Yokopi",
    "country": "Papua New Guinea",
    "country_zh": "巴布亞紐幾內亞",
    "country_iso_code": "PG",
    "timezone": "Pacific/Port_Moresby",
    "latitude": -5.67716,
    "longitude": 145.65981
  },
  {
    "city": "Yokoma",
    "city_zh": "Yokoma",
    "country": "Papua New Guinea",
    "country_zh": "巴布亞紐幾內亞",
    "country_iso_code": "PG",
    "timezone": "Pacific/Port_Moresby",
    "latitude": -3.45708,
    "longitude": 141.79095
  },
  {
    "city": "Yoidik",
    "city_zh": "Yoidik",
    "country": "Papua New Guinea",
    "country_zh": "巴布亞紐幾內亞",
    "country_iso_code": "PG",
    "timezone": "Pacific/Port_Moresby",
    "latitude": -4.8996,
    "longitude": 145.74989
  },
  {
    "city": "Yoibu",
    "city_zh": "Yoibu",
    "country": "Papua New Guinea",
    "country_zh": "巴布亞紐幾內亞",
    "country_iso_code": "PG",
    "timezone": "Pacific/Port_Moresby",
    "latitude": -3.68333,
    "longitude": 143.13333
  },
  {
    "city": "Yoguna",
    "city_zh": "Yoguna",
    "country": "Papua New Guinea",
    "country_zh": "巴布亞紐幾內亞",
    "country_iso_code": "PG",
    "timezone": "Pacific/Port_Moresby",
    "latitude": -4.23333,
    "longitude": 143.28333
  },
  {
    "city": "Yogoso",
    "city_zh": "Yogoso",
    "country": "Papua New Guinea",
    "country_zh": "巴布亞紐幾內亞",
    "country_iso_code": "PG",
    "timezone": "Pacific/Port_Moresby",
    "latitude": -6.43333,
    "longitude": 143.33333
  },
  {
    "city": "Yogomulkane",
    "city_zh": "Yogomulkane",
    "country": "Papua New Guinea",
    "country_zh": "巴布亞紐幾內亞",
    "country_iso_code": "PG",
    "timezone": "Pacific/Port_Moresby",
    "latitude": -6.13333,
    "longitude": 145.06667
  },
  {
    "city": "Yogobe",
    "city_zh": "Yogobe",
    "country": "Papua New Guinea",
    "country_zh": "巴布亞紐幾內亞",
    "country_iso_code": "PG",
    "timezone": "Pacific/Port_Moresby",
    "latitude": -6.23771,
    "longitude": 145.68962
  },
  {
    "city": "Yogo",
    "city_zh": "Yogo",
    "country": "Papua New Guinea",
    "country_zh": "巴布亞紐幾內亞",
    "country_iso_code": "PG",
    "timezone": "Pacific/Port_Moresby",
    "latitude": -5.3,
    "longitude": 143.2
  },
  {
    "city": "Yogiyohi",
    "city_zh": "Yogiyohi",
    "country": "Papua New Guinea",
    "country_zh": "巴布亞紐幾內亞",
    "country_iso_code": "PG",
    "timezone": "Pacific/Port_Moresby",
    "latitude": -6.08069,
    "longitude": 145.5317
  },
  {
    "city": "Yogei",
    "city_zh": "Yogei",
    "country": "Papua New Guinea",
    "country_zh": "巴布亞紐幾內亞",
    "country_iso_code": "PG",
    "timezone": "Pacific/Port_Moresby",
    "latitude": -4.13333,
    "longitude": 143.73333
  },
  {
    "city": "Yoga Yoga",
    "city_zh": "Yoga Yoga",
    "country": "Papua New Guinea",
    "country_zh": "巴布亞紐幾內亞",
    "country_iso_code": "PG",
    "timezone": "Pacific/Port_Moresby",
    "latitude": -5.73013,
    "longitude": 146.3964
  },
  {
    "city": "Yodda",
    "city_zh": "Yodda",
    "country": "Papua New Guinea",
    "country_zh": "巴布亞紐幾內亞",
    "country_iso_code": "PG",
    "timezone": "Pacific/Port_Moresby",
    "latitude": -8.81667,
    "longitude": 147.68333
  },
  {
    "city": "Yoburugauan",
    "city_zh": "Yoburugauan",
    "country": "Papua New Guinea",
    "country_zh": "巴布亞紐幾內亞",
    "country_iso_code": "PG",
    "timezone": "Pacific/Port_Moresby",
    "latitude": -6.31414,
    "longitude": 144.78753
  },
  {
    "city": "Yobamonia",
    "city_zh": "Yobamonia",
    "country": "Papua New Guinea",
    "country_zh": "巴布亞紐幾內亞",
    "country_iso_code": "PG",
    "timezone": "Pacific/Port_Moresby",
    "latitude": -6.10914,
    "longitude": 144.8634
  },
  {
    "city": "Yoba",
    "city_zh": "Yoba",
    "country": "Papua New Guinea",
    "country_zh": "巴布亞紐幾內亞",
    "country_iso_code": "PG",
    "timezone": "Pacific/Port_Moresby",
    "latitude": -6.33333,
    "longitude": 145.16667
  },
  {
    "city": "Yoba",
    "city_zh": "Yoba",
    "country": "Papua New Guinea",
    "country_zh": "巴布亞紐幾內亞",
    "country_iso_code": "PG",
    "timezone": "Pacific/Port_Moresby",
    "latitude": -6.28615,
    "longitude": 144.87504
  },
  {
    "city": "Yo",
    "city_zh": "Yo",
    "country": "Papua New Guinea",
    "country_zh": "巴布亞紐幾內亞",
    "country_iso_code": "PG",
    "timezone": "Pacific/Port_Moresby",
    "latitude": -3.1012,
    "longitude": 141.46305
  },
  {
    "city": "Yiru",
    "city_zh": "Yiru",
    "country": "Papua New Guinea",
    "country_zh": "巴布亞紐幾內亞",
    "country_iso_code": "PG",
    "timezone": "Pacific/Port_Moresby",
    "latitude": -2.19496,
    "longitude": 147.19855
  },
  {
    "city": "Yirkin",
    "city_zh": "Yirkin",
    "country": "Papua New Guinea",
    "country_zh": "巴布亞紐幾內亞",
    "country_iso_code": "PG",
    "timezone": "Pacific/Port_Moresby",
    "latitude": -3.51887,
    "longitude": 142.45791
  },
  {
    "city": "Yiriwand",
    "city_zh": "Yiriwand",
    "country": "Papua New Guinea",
    "country_zh": "巴布亞紐幾內亞",
    "country_iso_code": "PG",
    "timezone": "Pacific/Port_Moresby",
    "latitude": -3.67445,
    "longitude": 142.58121
  },
  {
    "city": "Yiringo",
    "city_zh": "Yiringo",
    "country": "Papua New Guinea",
    "country_zh": "巴布亞紐幾內亞",
    "country_iso_code": "PG",
    "timezone": "Pacific/Port_Moresby",
    "latitude": -2.09227,
    "longitude": 147.10999
  },
  {
    "city": "Yinugen",
    "city_zh": "Yinugen",
    "country": "Papua New Guinea",
    "country_zh": "巴布亞紐幾內亞",
    "country_iso_code": "PG",
    "timezone": "Pacific/Port_Moresby",
    "latitude": -3.46667,
    "longitude": 142.53333
  },
  {
    "city": "Yinimba",
    "city_zh": "Yinimba",
    "country": "Papua New Guinea",
    "country_zh": "巴布亞紐幾內亞",
    "country_iso_code": "PG",
    "timezone": "Pacific/Port_Moresby",
    "latitude": -7.18333,
    "longitude": 146.03333
  },
  {
    "city": "Yingumkane",
    "city_zh": "Yingumkane",
    "country": "Papua New Guinea",
    "country_zh": "巴布亞紐幾內亞",
    "country_iso_code": "PG",
    "timezone": "Pacific/Port_Moresby",
    "latitude": -5.81667,
    "longitude": 144.96667
  },
  {
    "city": "Yineiqua",
    "city_zh": "Yineiqua",
    "country": "Papua New Guinea",
    "country_zh": "巴布亞紐幾內亞",
    "country_iso_code": "PG",
    "timezone": "Pacific/Port_Moresby",
    "latitude": -4.03333,
    "longitude": 141.85
  },
  {
    "city": "Yindigum",
    "city_zh": "Yindigum",
    "country": "Papua New Guinea",
    "country_zh": "巴布亞紐幾內亞",
    "country_iso_code": "PG",
    "timezone": "Pacific/Port_Moresby",
    "latitude": -4.11906,
    "longitude": 143.38955
  },
  {
    "city": "Yindigo",
    "city_zh": "Yindigo",
    "country": "Papua New Guinea",
    "country_zh": "巴布亞紐幾內亞",
    "country_iso_code": "PG",
    "timezone": "Pacific/Port_Moresby",
    "latitude": -3.78333,
    "longitude": 143.0
  },
  {
    "city": "Yimut",
    "city_zh": "Yimut",
    "country": "Papua New Guinea",
    "country_zh": "巴布亞紐幾內亞",
    "country_iso_code": "PG",
    "timezone": "Pacific/Port_Moresby",
    "latitude": -3.81653,
    "longitude": 142.45969
  },
  {
    "city": "Yimmone",
    "city_zh": "Yimmone",
    "country": "Papua New Guinea",
    "country_zh": "巴布亞紐幾內亞",
    "country_iso_code": "PG",
    "timezone": "Pacific/Port_Moresby",
    "latitude": -6.11667,
    "longitude": 141.65
  },
  {
    "city": "Yiminum",
    "city_zh": "Yiminum",
    "country": "Papua New Guinea",
    "country_zh": "巴布亞紐幾內亞",
    "country_iso_code": "PG",
    "timezone": "Pacific/Port_Moresby",
    "latitude": -3.66868,
    "longitude": 142.49209
  },
  {
    "city": "Yiminar",
    "city_zh": "Yiminar",
    "country": "Papua New Guinea",
    "country_zh": "巴布亞紐幾內亞",
    "country_iso_code": "PG",
    "timezone": "Pacific/Port_Moresby",
    "latitude": -5.88333,
    "longitude": 144.75
  },
  {
    "city": "Yimin",
    "city_zh": "Yimin",
    "country": "Papua New Guinea",
    "country_zh": "巴布亞紐幾內亞",
    "country_iso_code": "PG",
    "timezone": "Pacific/Port_Moresby",
    "latitude": -3.9418,
    "longitude": 142.26371
  },
  {
    "city": "Yimduwi",
    "city_zh": "Yimduwi",
    "country": "Papua New Guinea",
    "country_zh": "巴布亞紐幾內亞",
    "country_iso_code": "PG",
    "timezone": "Pacific/Port_Moresby",
    "latitude": -3.82767,
    "longitude": 142.36232
  },
  {
    "city": "Yimas",
    "city_zh": "Yimas",
    "country": "Papua New Guinea",
    "country_zh": "巴布亞紐幾內亞",
    "country_iso_code": "PG",
    "timezone": "Pacific/Port_Moresby",
    "latitude": -4.69124,
    "longitude": 143.55259
  },
  {
    "city": "Yim",
    "city_zh": "Yim",
    "country": "Papua New Guinea",
    "country_zh": "巴布亞紐幾內亞",
    "country_iso_code": "PG",
    "timezone": "Pacific/Port_Moresby",
    "latitude": -5.64083,
    "longitude": 144.29307
  },
  {
    "city": "Yilui",
    "city_zh": "Yilui",
    "country": "Papua New Guinea",
    "country_zh": "巴布亞紐幾內亞",
    "country_iso_code": "PG",
    "timezone": "Pacific/Port_Moresby",
    "latitude": -3.93095,
    "longitude": 142.20884
  },
  {
    "city": "Yiliwambil",
    "city_zh": "Yiliwambil",
    "country": "Papua New Guinea",
    "country_zh": "巴布亞紐幾內亞",
    "country_iso_code": "PG",
    "timezone": "Pacific/Port_Moresby",
    "latitude": -3.6199,
    "longitude": 142.4758
  },
  {
    "city": "Yili",
    "city_zh": "Yili",
    "country": "Papua New Guinea",
    "country_zh": "巴布亞紐幾內亞",
    "country_iso_code": "PG",
    "timezone": "Pacific/Port_Moresby",
    "latitude": -3.52327,
    "longitude": 142.15932
  },
  {
    "city": "Yikurangaru",
    "city_zh": "Yikurangaru",
    "country": "Papua New Guinea",
    "country_zh": "巴布亞紐幾內亞",
    "country_iso_code": "PG",
    "timezone": "Pacific/Port_Moresby",
    "latitude": -6.76667,
    "longitude": 145.9
  },
  {
    "city": "Yigei",
    "city_zh": "Yigei",
    "country": "Papua New Guinea",
    "country_zh": "巴布亞紐幾內亞",
    "country_iso_code": "PG",
    "timezone": "Pacific/Port_Moresby",
    "latitude": -4.33358,
    "longitude": 142.8333
  },
  {
    "city": "Yigei",
    "city_zh": "Yigei",
    "country": "Papua New Guinea",
    "country_zh": "巴布亞紐幾內亞",
    "country_iso_code": "PG",
    "timezone": "Pacific/Port_Moresby",
    "latitude": -4.31667,
    "longitude": 142.81667
  },
  {
    "city": "Yiblis",
    "city_zh": "Yiblis",
    "country": "Papua New Guinea",
    "country_zh": "巴布亞紐幾內亞",
    "country_iso_code": "PG",
    "timezone": "Pacific/Port_Moresby",
    "latitude": -4.4,
    "longitude": 143.46667
  },
  {
    "city": "Yibab 1",
    "city_zh": "Yibab 1",
    "country": "Papua New Guinea",
    "country_zh": "巴布亞紐幾內亞",
    "country_iso_code": "PG",
    "timezone": "Pacific/Port_Moresby",
    "latitude": -3.87675,
    "longitude": 143.86518
  },
  {
    "city": "Yewai",
    "city_zh": "Yewai",
    "country": "Papua New Guinea",
    "country_zh": "巴布亞紐幾內亞",
    "country_iso_code": "PG",
    "timezone": "Pacific/Port_Moresby",
    "latitude": -6.91667,
    "longitude": 145.66667
  },
  {
    "city": "Yetnyam",
    "city_zh": "Yetnyam",
    "country": "Papua New Guinea",
    "country_zh": "巴布亞紐幾內亞",
    "country_iso_code": "PG",
    "timezone": "Pacific/Port_Moresby",
    "latitude": -3.53057,
    "longitude": 142.74855
  },
  {
    "city": "Yessan",
    "city_zh": "Yessan",
    "country": "Papua New Guinea",
    "country_zh": "巴布亞紐幾內亞",
    "country_iso_code": "PG",
    "timezone": "Pacific/Port_Moresby",
    "latitude": -4.22163,
    "longitude": 142.66203
  },
  {
    "city": "Yesimbit",
    "city_zh": "Yesimbit",
    "country": "Papua New Guinea",
    "country_zh": "巴布亞紐幾內亞",
    "country_iso_code": "PG",
    "timezone": "Pacific/Port_Moresby",
    "latitude": -4.46239,
    "longitude": 143.29307
  },
  {
    "city": "Yermain",
    "city_zh": "Yermain",
    "country": "Papua New Guinea",
    "country_zh": "巴布亞紐幾內亞",
    "country_iso_code": "PG",
    "timezone": "Pacific/Port_Moresby",
    "latitude": -3.62871,
    "longitude": 142.73727
  },
  {
    "city": "Yerisi",
    "city_zh": "Yerisi",
    "country": "Papua New Guinea",
    "country_zh": "巴布亞紐幾內亞",
    "country_iso_code": "PG",
    "timezone": "Pacific/Port_Moresby",
    "latitude": -3.52692,
    "longitude": 142.31615
  },
  {
    "city": "Yeripa",
    "city_zh": "Yeripa",
    "country": "Papua New Guinea",
    "country_zh": "巴布亞紐幾內亞",
    "country_iso_code": "PG",
    "timezone": "Pacific/Port_Moresby",
    "latitude": -7.28333,
    "longitude": 145.76667
  },
  {
    "city": "Yerikai",
    "city_zh": "Yerikai",
    "country": "Papua New Guinea",
    "country_zh": "巴布亞紐幾內亞",
    "country_iso_code": "PG",
    "timezone": "Pacific/Port_Moresby",
    "latitude": -4.26082,
    "longitude": 142.99104
  },
  {
    "city": "Yentchanmangua",
    "city_zh": "Yentchanmangua",
    "country": "Papua New Guinea",
    "country_zh": "巴布亞紐幾內亞",
    "country_iso_code": "PG",
    "timezone": "Pacific/Port_Moresby",
    "latitude": -4.1,
    "longitude": 143.1
  },
  {
    "city": "Yentchangai",
    "city_zh": "Yentchangai",
    "country": "Papua New Guinea",
    "country_zh": "巴布亞紐幾內亞",
    "country_iso_code": "PG",
    "timezone": "Pacific/Port_Moresby",
    "latitude": -4.13333,
    "longitude": 142.91667
  },
  {
    "city": "Yentchan",
    "city_zh": "Yentchan",
    "country": "Papua New Guinea",
    "country_zh": "巴布亞紐幾內亞",
    "country_iso_code": "PG",
    "timezone": "Pacific/Port_Moresby",
    "latitude": -4.14018,
    "longitude": 143.24487
  },
  {
    "city": "Yensimango",
    "city_zh": "Yensimango",
    "country": "Papua New Guinea",
    "country_zh": "巴布亞紐幾內亞",
    "country_iso_code": "PG",
    "timezone": "Pacific/Port_Moresby",
    "latitude": -4.1,
    "longitude": 143.1
  },
  {
    "city": "Yenkali",
    "city_zh": "Yenkali",
    "country": "Papua New Guinea",
    "country_zh": "巴布亞紐幾內亞",
    "country_iso_code": "PG",
    "timezone": "Pacific/Port_Moresby",
    "latitude": -5.90375,
    "longitude": 143.3663
  },
  {
    "city": "Yenitabak",
    "city_zh": "Yenitabak",
    "country": "Papua New Guinea",
    "country_zh": "巴布亞紐幾內亞",
    "country_iso_code": "PG",
    "timezone": "Pacific/Port_Moresby",
    "latitude": -4.73077,
    "longitude": 143.33684
  },
  {
    "city": "Yenigo",
    "city_zh": "Yenigo",
    "country": "Papua New Guinea",
    "country_zh": "巴布亞紐幾內亞",
    "country_iso_code": "PG",
    "timezone": "Pacific/Port_Moresby",
    "latitude": -3.6902,
    "longitude": 143.11435
  },
  {
    "city": "Yengimup",
    "city_zh": "Yengimup",
    "country": "Papua New Guinea",
    "country_zh": "巴布亞紐幾內亞",
    "country_iso_code": "PG",
    "timezone": "Pacific/Port_Moresby",
    "latitude": -5.18333,
    "longitude": 141.68333
  },
  {
    "city": "Yendanmin",
    "city_zh": "Yendanmin",
    "country": "Papua New Guinea",
    "country_zh": "巴布亞紐幾內亞",
    "country_iso_code": "PG",
    "timezone": "Pacific/Port_Moresby",
    "latitude": -5.35,
    "longitude": 142.2
  },
  {
    "city": "Yenawe",
    "city_zh": "Yenawe",
    "country": "Papua New Guinea",
    "country_zh": "巴布亞紐幾內亞",
    "country_iso_code": "PG",
    "timezone": "Pacific/Port_Moresby",
    "latitude": -7.65313,
    "longitude": 146.56287
  },
  {
    "city": "Yenabi",
    "city_zh": "Yenabi",
    "country": "Papua New Guinea",
    "country_zh": "巴布亞紐幾內亞",
    "country_iso_code": "PG",
    "timezone": "Pacific/Port_Moresby",
    "latitude": -3.48304,
    "longitude": 141.46616
  },
  {
    "city": "Yemnu",
    "city_zh": "Yemnu",
    "country": "Papua New Guinea",
    "country_zh": "巴布亞紐幾內亞",
    "country_iso_code": "PG",
    "timezone": "Pacific/Port_Moresby",
    "latitude": -3.58441,
    "longitude": 142.18769
  },
  {
    "city": "Yemlu",
    "city_zh": "Yemlu",
    "country": "Papua New Guinea",
    "country_zh": "巴布亞紐幾內亞",
    "country_iso_code": "PG",
    "timezone": "Pacific/Port_Moresby",
    "latitude": -3.49284,
    "longitude": 142.23956
  },
  {
    "city": "Yemli",
    "city_zh": "Yemli",
    "country": "Papua New Guinea",
    "country_zh": "巴布亞紐幾內亞",
    "country_iso_code": "PG",
    "timezone": "Pacific/Port_Moresby",
    "latitude": -7.05,
    "longitude": 146.86667
  },
  {
    "city": "Yemereba",
    "city_zh": "Yemereba",
    "country": "Papua New Guinea",
    "country_zh": "巴布亞紐幾內亞",
    "country_iso_code": "PG",
    "timezone": "Pacific/Port_Moresby",
    "latitude": -3.68118,
    "longitude": 142.33506
  },
  {
    "city": "Yelso",
    "city_zh": "Yelso",
    "country": "Papua New Guinea",
    "country_zh": "巴布亞紐幾內亞",
    "country_iso_code": "PG",
    "timezone": "Pacific/Port_Moresby",
    "latitude": -5.25586,
    "longitude": 145.73503
  },
  {
    "city": "Yelogu",
    "city_zh": "Yelogu",
    "country": "Papua New Guinea",
    "country_zh": "巴布亞紐幾內亞",
    "country_iso_code": "PG",
    "timezone": "Pacific/Port_Moresby",
    "latitude": -4.17077,
    "longitude": 142.87043
  },
  {
    "city": "Yelaua",
    "city_zh": "Yelaua",
    "country": "Papua New Guinea",
    "country_zh": "巴布亞紐幾內亞",
    "country_iso_code": "PG",
    "timezone": "Pacific/Port_Moresby",
    "latitude": -7.50215,
    "longitude": 146.44903
  },
  {
    "city": "Yekimbolye 2",
    "city_zh": "Yekimbolye 2",
    "country": "Papua New Guinea",
    "country_zh": "巴布亞紐幾內亞",
    "country_iso_code": "PG",
    "timezone": "Pacific/Port_Moresby",
    "latitude": -3.72083,
    "longitude": 143.35804
  },
  {
    "city": "Yekimbolye 1",
    "city_zh": "Yekimbolye 1",
    "country": "Papua New Guinea",
    "country_zh": "巴布亞紐幾內亞",
    "country_iso_code": "PG",
    "timezone": "Pacific/Port_Moresby",
    "latitude": -3.68974,
    "longitude": 143.35911
  },
  {
    "city": "Yeiweni",
    "city_zh": "Yeiweni",
    "country": "Papua New Guinea",
    "country_zh": "巴布亞紐幾內亞",
    "country_iso_code": "PG",
    "timezone": "Pacific/Port_Moresby",
    "latitude": -7.4,
    "longitude": 146.45
  },
  {
    "city": "Yeimas",
    "city_zh": "Yeimas",
    "country": "Papua New Guinea",
    "country_zh": "巴布亞紐幾內亞",
    "country_iso_code": "PG",
    "timezone": "Pacific/Port_Moresby",
    "latitude": -5.6158,
    "longitude": 146.42111
  },
  {
    "city": "Yeggie",
    "city_zh": "Yeggie",
    "country": "Papua New Guinea",
    "country_zh": "巴布亞紐幾內亞",
    "country_iso_code": "PG",
    "timezone": "Pacific/Port_Moresby",
    "latitude": -7.35,
    "longitude": 146.3
  },
  {
    "city": "Yegarapi",
    "city_zh": "Yegarapi",
    "country": "Papua New Guinea",
    "country_zh": "巴布亞紐幾內亞",
    "country_iso_code": "PG",
    "timezone": "Pacific/Port_Moresby",
    "latitude": -3.86667,
    "longitude": 141.8
  },
  {
    "city": "Yedikum Villages",
    "city_zh": "Yedikum Villages",
    "country": "Papua New Guinea",
    "country_zh": "巴布亞紐幾內亞",
    "country_iso_code": "PG",
    "timezone": "Pacific/Port_Moresby",
    "latitude": -4.71667,
    "longitude": 145.63333
  },
  {
    "city": "Yedikum",
    "city_zh": "Yedikum",
    "country": "Papua New Guinea",
    "country_zh": "巴布亞紐幾內亞",
    "country_iso_code": "PG",
    "timezone": "Pacific/Port_Moresby",
    "latitude": -4.71667,
    "longitude": 145.63333
  },
  {
    "city": "Yeconditch",
    "city_zh": "Yeconditch",
    "country": "Papua New Guinea",
    "country_zh": "巴布亞紐幾內亞",
    "country_iso_code": "PG",
    "timezone": "Pacific/Port_Moresby",
    "latitude": -8.53333,
    "longitude": 142.96667
  },
  {
    "city": "Yebi Number 2",
    "city_zh": "Yebi Number 2",
    "country": "Papua New Guinea",
    "country_zh": "巴布亞紐幾內亞",
    "country_iso_code": "PG",
    "timezone": "Pacific/Port_Moresby",
    "latitude": -6.24583,
    "longitude": 143.73726
  },
  {
    "city": "Yebi Number 1",
    "city_zh": "Yebi Number 1",
    "country": "Papua New Guinea",
    "country_zh": "巴布亞紐幾內亞",
    "country_iso_code": "PG",
    "timezone": "Pacific/Port_Moresby",
    "latitude": -6.21667,
    "longitude": 143.75
  },
  {
    "city": "Yebil",
    "city_zh": "Yebil",
    "country": "Papua New Guinea",
    "country_zh": "巴布亞紐幾內亞",
    "country_iso_code": "PG",
    "timezone": "Pacific/Port_Moresby",
    "latitude": -3.46333,
    "longitude": 141.96018
  },
  {
    "city": "Yebdibi",
    "city_zh": "Yebdibi",
    "country": "Papua New Guinea",
    "country_zh": "巴布亞紐幾內亞",
    "country_iso_code": "PG",
    "timezone": "Pacific/Port_Moresby",
    "latitude": -3.47214,
    "longitude": 141.35388
  },
  {
    "city": "Yawobi",
    "city_zh": "Yawobi",
    "country": "Papua New Guinea",
    "country_zh": "巴布亞紐幾內亞",
    "country_iso_code": "PG",
    "timezone": "Pacific/Port_Moresby",
    "latitude": -6.36667,
    "longitude": 142.33333
  },
  {
    "city": "Yawobi",
    "city_zh": "Yawobi",
    "country": "Papua New Guinea",
    "country_zh": "巴布亞紐幾內亞",
    "country_iso_code": "PG",
    "timezone": "Pacific/Port_Moresby",
    "latitude": -5.93333,
    "longitude": 142.15
  },
  {
    "city": "Yawiangil",
    "city_zh": "Yawiangil",
    "country": "Papua New Guinea",
    "country_zh": "巴布亞紐幾內亞",
    "country_iso_code": "PG",
    "timezone": "Pacific/Port_Moresby",
    "latitude": -6.2,
    "longitude": 143.93333
  },
  {
    "city": "Yawenal",
    "city_zh": "Yawenal",
    "country": "Papua New Guinea",
    "country_zh": "巴布亞紐幾內亞",
    "country_iso_code": "PG",
    "timezone": "Pacific/Port_Moresby",
    "latitude": -7.01667,
    "longitude": 145.65
  },
  {
    "city": "Yawaw-Rapaw",
    "city_zh": "Yawaw-Rapaw",
    "country": "Papua New Guinea",
    "country_zh": "巴布亞紐幾內亞",
    "country_iso_code": "PG",
    "timezone": "Pacific/Port_Moresby",
    "latitude": -3.80205,
    "longitude": 142.29995
  },
  {
    "city": "Yawari",
    "city_zh": "Yawari",
    "country": "Papua New Guinea",
    "country_zh": "巴布亞紐幾內亞",
    "country_iso_code": "PG",
    "timezone": "Pacific/Port_Moresby",
    "latitude": -3.67118,
    "longitude": 141.7232
  },
  {
    "city": "Yawar",
    "city_zh": "Yawar",
    "country": "Papua New Guinea",
    "country_zh": "巴布亞紐幾內亞",
    "country_iso_code": "PG",
    "timezone": "Pacific/Port_Moresby",
    "latitude": -4.23333,
    "longitude": 144.93333
  },
  {
    "city": "Yawan",
    "city_zh": "Yawan",
    "country": "Papua New Guinea",
    "country_zh": "巴布亞紐幾內亞",
    "country_iso_code": "PG",
    "timezone": "Pacific/Port_Moresby",
    "latitude": -6.13609,
    "longitude": 146.87592
  },
  {
    "city": "Yawakupi",
    "city_zh": "Yawakupi",
    "country": "Papua New Guinea",
    "country_zh": "巴布亞紐幾內亞",
    "country_iso_code": "PG",
    "timezone": "Pacific/Port_Moresby",
    "latitude": -7.15,
    "longitude": 145.73333
  },
  {
    "city": "Yawai",
    "city_zh": "Yawai",
    "country": "Papua New Guinea",
    "country_zh": "巴布亞紐幾內亞",
    "country_iso_code": "PG",
    "timezone": "Pacific/Port_Moresby",
    "latitude": -6.33333,
    "longitude": 145.15
  },
  {
    "city": "Yaviyufa",
    "city_zh": "Yaviyufa",
    "country": "Papua New Guinea",
    "country_zh": "巴布亞紐幾內亞",
    "country_iso_code": "PG",
    "timezone": "Pacific/Port_Moresby",
    "latitude": -6.20836,
    "longitude": 145.35512
  },
  {
    "city": "Yavik",
    "city_zh": "Yavik",
    "country": "Papua New Guinea",
    "country_zh": "巴布亞紐幾內亞",
    "country_iso_code": "PG",
    "timezone": "Pacific/Port_Moresby",
    "latitude": -3.36528,
    "longitude": 143.61116
  },
  {
    "city": "Yauye",
    "city_zh": "Yauye",
    "country": "Papua New Guinea",
    "country_zh": "巴布亞紐幾內亞",
    "country_iso_code": "PG",
    "timezone": "Pacific/Port_Moresby",
    "latitude": -6.86667,
    "longitude": 145.63333
  },
  {
    "city": "Yauyau",
    "city_zh": "Yauyau",
    "country": "Papua New Guinea",
    "country_zh": "巴布亞紐幾內亞",
    "country_iso_code": "PG",
    "timezone": "Pacific/Port_Moresby",
    "latitude": -5.63333,
    "longitude": 150.96667
  },
  {
    "city": "Yauwosoru",
    "city_zh": "Yauwosoru",
    "country": "Papua New Guinea",
    "country_zh": "巴布亞紐幾內亞",
    "country_iso_code": "PG",
    "timezone": "Pacific/Port_Moresby",
    "latitude": -3.55,
    "longitude": 143.58333
  },
  {
    "city": "Yauwiyo",
    "city_zh": "Yauwiyo",
    "country": "Papua New Guinea",
    "country_zh": "巴布亞紐幾內亞",
    "country_iso_code": "PG",
    "timezone": "Pacific/Port_Moresby",
    "latitude": -6.51561,
    "longitude": 144.92283
  },
  {
    "city": "Yauwipu",
    "city_zh": "Yauwipu",
    "country": "Papua New Guinea",
    "country_zh": "巴布亞紐幾內亞",
    "country_iso_code": "PG",
    "timezone": "Pacific/Port_Moresby",
    "latitude": -7.23426,
    "longitude": 146.54471
  },
  {
    "city": "Yauwanjungei 2",
    "city_zh": "Yauwanjungei 2",
    "country": "Papua New Guinea",
    "country_zh": "巴布亞紐幾內亞",
    "country_iso_code": "PG",
    "timezone": "Pacific/Port_Moresby",
    "latitude": -3.76593,
    "longitude": 143.15361
  },
  {
    "city": "Yauwanjungei 1",
    "city_zh": "Yauwanjungei 1",
    "country": "Papua New Guinea",
    "country_zh": "巴布亞紐幾內亞",
    "country_iso_code": "PG",
    "timezone": "Pacific/Port_Moresby",
    "latitude": -3.79076,
    "longitude": 143.15628
  },
  {
    "city": "Yau’uri",
    "city_zh": "Yau’uri",
    "country": "Papua New Guinea",
    "country_zh": "巴布亞紐幾內亞",
    "country_iso_code": "PG",
    "timezone": "Pacific/Port_Moresby",
    "latitude": -3.54346,
    "longitude": 141.51386
  },
  {
    "city": "Yau’umbak",
    "city_zh": "Yau’umbak",
    "country": "Papua New Guinea",
    "country_zh": "巴布亞紐幾內亞",
    "country_iso_code": "PG",
    "timezone": "Pacific/Port_Moresby",
    "latitude": -4.20116,
    "longitude": 142.94603
  },
  {
    "city": "Yautu",
    "city_zh": "Yautu",
    "country": "Papua New Guinea",
    "country_zh": "巴布亞紐幾內亞",
    "country_iso_code": "PG",
    "timezone": "Pacific/Port_Moresby",
    "latitude": -3.85,
    "longitude": 143.63333
  },
  {
    "city": "Yaut",
    "city_zh": "Yaut",
    "country": "Papua New Guinea",
    "country_zh": "巴布亞紐幾內亞",
    "country_iso_code": "PG",
    "timezone": "Pacific/Port_Moresby",
    "latitude": -5.83333,
    "longitude": 146.58333
  },
  {
    "city": "Yaurang",
    "city_zh": "Yaurang",
    "country": "Papua New Guinea",
    "country_zh": "巴布亞紐幾內亞",
    "country_iso_code": "PG",
    "timezone": "Pacific/Port_Moresby",
    "latitude": -3.55166,
    "longitude": 142.71348
  },
  {
    "city": "Yaurang",
    "city_zh": "Yaurang",
    "country": "Papua New Guinea",
    "country_zh": "巴布亞紐幾內亞",
    "country_iso_code": "PG",
    "timezone": "Pacific/Port_Moresby",
    "latitude": -3.55,
    "longitude": 142.71667
  },
  {
    "city": "Yaunimbum",
    "city_zh": "Yaunimbum",
    "country": "Papua New Guinea",
    "country_zh": "巴布亞紐幾內亞",
    "country_iso_code": "PG",
    "timezone": "Pacific/Port_Moresby",
    "latitude": -3.49763,
    "longitude": 142.70142
  },
  {
    "city": "Yauniai",
    "city_zh": "Yauniai",
    "country": "Papua New Guinea",
    "country_zh": "巴布亞紐幾內亞",
    "country_iso_code": "PG",
    "timezone": "Pacific/Port_Moresby",
    "latitude": -5.63543,
    "longitude": 146.41515
  },
  {
    "city": "Yaunget",
    "city_zh": "Yaunget",
    "country": "Papua New Guinea",
    "country_zh": "巴布亞紐幾內亞",
    "country_iso_code": "PG",
    "timezone": "Pacific/Port_Moresby",
    "latitude": -4.12394,
    "longitude": 142.55347
  },
  {
    "city": "Yauna",
    "city_zh": "Yauna",
    "country": "Papua New Guinea",
    "country_zh": "巴布亞紐幾內亞",
    "country_iso_code": "PG",
    "timezone": "Pacific/Port_Moresby",
    "latitude": -6.14865,
    "longitude": 145.2974
  },
  {
    "city": "Yaun",
    "city_zh": "Yaun",
    "country": "Papua New Guinea",
    "country_zh": "巴布亞紐幾內亞",
    "country_iso_code": "PG",
    "timezone": "Pacific/Port_Moresby",
    "latitude": -6.1,
    "longitude": 145.06667
  },
  {
    "city": "Yaumunibi",
    "city_zh": "Yaumunibi",
    "country": "Papua New Guinea",
    "country_zh": "巴布亞紐幾內亞",
    "country_iso_code": "PG",
    "timezone": "Pacific/Port_Moresby",
    "latitude": -6.2005,
    "longitude": 144.97453
  },
  {
    "city": "Yaumbi",
    "city_zh": "Yaumbi",
    "country": "Papua New Guinea",
    "country_zh": "巴布亞紐幾內亞",
    "country_iso_code": "PG",
    "timezone": "Pacific/Port_Moresby",
    "latitude": -4.25,
    "longitude": 141.88333
  },
  {
    "city": "Yauma",
    "city_zh": "Yauma",
    "country": "Papua New Guinea",
    "country_zh": "巴布亞紐幾內亞",
    "country_iso_code": "PG",
    "timezone": "Pacific/Port_Moresby",
    "latitude": -6.36667,
    "longitude": 145.21667
  },
  {
    "city": "Yauluwape",
    "city_zh": "Yauluwape",
    "country": "Papua New Guinea",
    "country_zh": "巴布亞紐幾內亞",
    "country_iso_code": "PG",
    "timezone": "Pacific/Port_Moresby",
    "latitude": -3.4,
    "longitude": 142.05
  },
  {
    "city": "Yaulong",
    "city_zh": "Yaulong",
    "country": "Papua New Guinea",
    "country_zh": "巴布亞紐幾內亞",
    "country_iso_code": "PG",
    "timezone": "Pacific/Port_Moresby",
    "latitude": -3.48333,
    "longitude": 143.46667
  },
  {
    "city": "Yaulo",
    "city_zh": "Yaulo",
    "country": "Papua New Guinea",
    "country_zh": "巴布亞紐幾內亞",
    "country_iso_code": "PG",
    "timezone": "Pacific/Port_Moresby",
    "latitude": -6.33333,
    "longitude": 145.33333
  },
  {
    "city": "Yaula",
    "city_zh": "Yaula",
    "country": "Papua New Guinea",
    "country_zh": "巴布亞紐幾內亞",
    "country_iso_code": "PG",
    "timezone": "Pacific/Port_Moresby",
    "latitude": -5.55752,
    "longitude": 145.63795
  },
  {
    "city": "Yaul",
    "city_zh": "Yaul",
    "country": "Papua New Guinea",
    "country_zh": "巴布亞紐幾內亞",
    "country_iso_code": "PG",
    "timezone": "Pacific/Port_Moresby",
    "latitude": -4.36667,
    "longitude": 144.01667
  },
  {
    "city": "Yaugiba",
    "city_zh": "Yaugiba",
    "country": "Papua New Guinea",
    "country_zh": "巴布亞紐幾內亞",
    "country_iso_code": "PG",
    "timezone": "Pacific/Port_Moresby",
    "latitude": -3.73271,
    "longitude": 143.80268
  },
  {
    "city": "Yauenian",
    "city_zh": "Yauenian",
    "country": "Papua New Guinea",
    "country_zh": "巴布亞紐幾內亞",
    "country_iso_code": "PG",
    "timezone": "Pacific/Port_Moresby",
    "latitude": -4.3137,
    "longitude": 142.18711
  },
  {
    "city": "Yauatong",
    "city_zh": "Yauatong",
    "country": "Papua New Guinea",
    "country_zh": "巴布亞紐幾內亞",
    "country_iso_code": "PG",
    "timezone": "Pacific/Port_Moresby",
    "latitude": -3.56904,
    "longitude": 142.68065
  },
  {
    "city": "Yatwia",
    "city_zh": "Yatwia",
    "country": "Papua New Guinea",
    "country_zh": "巴布亞紐幾內亞",
    "country_iso_code": "PG",
    "timezone": "Pacific/Port_Moresby",
    "latitude": -7.16667,
    "longitude": 145.65
  },
  {
    "city": "Yatsing",
    "city_zh": "Yatsing",
    "country": "Papua New Guinea",
    "country_zh": "巴布亞紐幾內亞",
    "country_iso_code": "PG",
    "timezone": "Pacific/Port_Moresby",
    "latitude": -6.42049,
    "longitude": 146.28412
  },
  {
    "city": "Yasumboret",
    "city_zh": "Yasumboret",
    "country": "Papua New Guinea",
    "country_zh": "巴布亞紐幾內亞",
    "country_iso_code": "PG",
    "timezone": "Pacific/Port_Moresby",
    "latitude": -3.49995,
    "longitude": 142.68897
  },
  {
    "city": "Yasum",
    "city_zh": "Yasum",
    "country": "Papua New Guinea",
    "country_zh": "巴布亞紐幾內亞",
    "country_iso_code": "PG",
    "timezone": "Pacific/Port_Moresby",
    "latitude": -3.50058,
    "longitude": 142.76777
  },
  {
    "city": "Yasingli",
    "city_zh": "Yasingli",
    "country": "Papua New Guinea",
    "country_zh": "巴布亞紐幾內亞",
    "country_iso_code": "PG",
    "timezone": "Pacific/Port_Moresby",
    "latitude": -7.05825,
    "longitude": 146.81287
  },
  {
    "city": "Yasile",
    "city_zh": "Yasile",
    "country": "Papua New Guinea",
    "country_zh": "巴布亞紐幾內亞",
    "country_iso_code": "PG",
    "timezone": "Pacific/Port_Moresby",
    "latitude": -3.51767,
    "longitude": 142.69563
  },
  {
    "city": "Yaseiru",
    "city_zh": "Yaseiru",
    "country": "Papua New Guinea",
    "country_zh": "巴布亞紐幾內亞",
    "country_iso_code": "PG",
    "timezone": "Pacific/Port_Moresby",
    "latitude": -4.09567,
    "longitude": 141.19692
  },
  {
    "city": "Yase",
    "city_zh": "Yase",
    "country": "Papua New Guinea",
    "country_zh": "巴布亞紐幾內亞",
    "country_iso_code": "PG",
    "timezone": "Pacific/Port_Moresby",
    "latitude": -3.53212,
    "longitude": 142.68518
  },
  {
    "city": "Yarmu",
    "city_zh": "Yarmu",
    "country": "Papua New Guinea",
    "country_zh": "巴布亞紐幾內亞",
    "country_iso_code": "PG",
    "timezone": "Pacific/Port_Moresby",
    "latitude": -4.3,
    "longitude": 142.28333
  },
  {
    "city": "Yarmin",
    "city_zh": "Yarmin",
    "country": "Papua New Guinea",
    "country_zh": "巴布亞紐幾內亞",
    "country_iso_code": "PG",
    "timezone": "Pacific/Port_Moresby",
    "latitude": -4.0,
    "longitude": 142.98333
  },
  {
    "city": "Yarieka",
    "city_zh": "Yarieka",
    "country": "Papua New Guinea",
    "country_zh": "巴布亞紐幾內亞",
    "country_iso_code": "PG",
    "timezone": "Pacific/Port_Moresby",
    "latitude": -5.86667,
    "longitude": 145.43333
  },
  {
    "city": "Yari",
    "city_zh": "Yari",
    "country": "Papua New Guinea",
    "country_zh": "巴布亞紐幾內亞",
    "country_iso_code": "PG",
    "timezone": "Pacific/Port_Moresby",
    "latitude": -7.65,
    "longitude": 147.45
  },
  {
    "city": "Yari",
    "city_zh": "Yari",
    "country": "Papua New Guinea",
    "country_zh": "巴布亞紐幾內亞",
    "country_iso_code": "PG",
    "timezone": "Pacific/Port_Moresby",
    "latitude": -3.8442,
    "longitude": 143.69714
  },
  {
    "city": "Yarapos",
    "city_zh": "Yarapos",
    "country": "Papua New Guinea",
    "country_zh": "巴布亞紐幾內亞",
    "country_iso_code": "PG",
    "timezone": "Pacific/Port_Moresby",
    "latitude": -3.52914,
    "longitude": 143.56357
  },
  {
    "city": "Yarapi",
    "city_zh": "Yarapi",
    "country": "Papua New Guinea",
    "country_zh": "巴布亞紐幾內亞",
    "country_iso_code": "PG",
    "timezone": "Pacific/Port_Moresby",
    "latitude": -6.25,
    "longitude": 143.93333
  },
  {
    "city": "Yaramanda",
    "city_zh": "Yaramanda",
    "country": "Papua New Guinea",
    "country_zh": "巴布亞紐幾內亞",
    "country_iso_code": "PG",
    "timezone": "Pacific/Port_Moresby",
    "latitude": -5.53333,
    "longitude": 144.1
  },
  {
    "city": "Yaraga",
    "city_zh": "Yaraga",
    "country": "Papua New Guinea",
    "country_zh": "巴布亞紐幾內亞",
    "country_iso_code": "PG",
    "timezone": "Pacific/Port_Moresby",
    "latitude": -6.15,
    "longitude": 145.65
  },
  {
    "city": "Yaraboim",
    "city_zh": "Yaraboim",
    "country": "Papua New Guinea",
    "country_zh": "巴布亞紐幾內亞",
    "country_iso_code": "PG",
    "timezone": "Pacific/Port_Moresby",
    "latitude": -3.68333,
    "longitude": 143.26667
  },
  {
    "city": "Yara",
    "city_zh": "Yara",
    "country": "Papua New Guinea",
    "country_zh": "巴布亞紐幾內亞",
    "country_iso_code": "PG",
    "timezone": "Pacific/Port_Moresby",
    "latitude": -5.76667,
    "longitude": 146.66667
  },
  {
    "city": "Yar",
    "city_zh": "Yar",
    "country": "Papua New Guinea",
    "country_zh": "巴布亞紐幾內亞",
    "country_iso_code": "PG",
    "timezone": "Pacific/Port_Moresby",
    "latitude": -4.47473,
    "longitude": 144.22979
  },
  {
    "city": "Yaputan",
    "city_zh": "Yaputan",
    "country": "Papua New Guinea",
    "country_zh": "巴布亞紐幾內亞",
    "country_iso_code": "PG",
    "timezone": "Pacific/Port_Moresby",
    "latitude": -4.51667,
    "longitude": 142.38333
  },
  {
    "city": "Yapunda",
    "city_zh": "Yapunda",
    "country": "Papua New Guinea",
    "country_zh": "巴布亞紐幾內亞",
    "country_iso_code": "PG",
    "timezone": "Pacific/Port_Moresby",
    "latitude": -3.46182,
    "longitude": 142.45078
  },
  {
    "city": "Yaposa",
    "city_zh": "Yaposa",
    "country": "Papua New Guinea",
    "country_zh": "巴布亞紐幾內亞",
    "country_iso_code": "PG",
    "timezone": "Pacific/Port_Moresby",
    "latitude": -5.63247,
    "longitude": 143.86628
  },
  {
    "city": "Yapang",
    "city_zh": "Yapang",
    "country": "Papua New Guinea",
    "country_zh": "巴布亞紐幾內亞",
    "country_iso_code": "PG",
    "timezone": "Pacific/Port_Moresby",
    "latitude": -6.39663,
    "longitude": 147.46172
  },
  {
    "city": "Yap",
    "city_zh": "Yap",
    "country": "Papua New Guinea",
    "country_zh": "巴布亞紐幾內亞",
    "country_iso_code": "PG",
    "timezone": "Pacific/Port_Moresby",
    "latitude": -4.86667,
    "longitude": 145.7
  },
  {
    "city": "Yanuf",
    "city_zh": "Yanuf",
    "country": "Papua New Guinea",
    "country_zh": "巴布亞紐幾內亞",
    "country_iso_code": "PG",
    "timezone": "Pacific/Port_Moresby",
    "latitude": -6.53325,
    "longitude": 146.28558
  },
  {
    "city": "Yanta",
    "city_zh": "Yanta",
    "country": "Papua New Guinea",
    "country_zh": "巴布亞紐幾內亞",
    "country_iso_code": "PG",
    "timezone": "Pacific/Port_Moresby",
    "latitude": -6.90395,
    "longitude": 146.55303
  },
  {
    "city": "Yanota",
    "city_zh": "Yanota",
    "country": "Papua New Guinea",
    "country_zh": "巴布亞紐幾內亞",
    "country_iso_code": "PG",
    "timezone": "Pacific/Port_Moresby",
    "latitude": -6.1,
    "longitude": 145.56667
  },
  {
    "city": "Yanofi",
    "city_zh": "Yanofi",
    "country": "Papua New Guinea",
    "country_zh": "巴布亞紐幾內亞",
    "country_iso_code": "PG",
    "timezone": "Pacific/Port_Moresby",
    "latitude": -6.18333,
    "longitude": 145.65
  },
  {
    "city": "Yankok",
    "city_zh": "Yankok",
    "country": "Papua New Guinea",
    "country_zh": "巴布亞紐幾內亞",
    "country_iso_code": "PG",
    "timezone": "Pacific/Port_Moresby",
    "latitude": -3.55521,
    "longitude": 142.22229
  },
  {
    "city": "Yanipa",
    "city_zh": "Yanipa",
    "country": "Papua New Guinea",
    "country_zh": "巴布亞紐幾內亞",
    "country_iso_code": "PG",
    "timezone": "Pacific/Port_Moresby",
    "latitude": -5.45279,
    "longitude": 145.45297
  },
  {
    "city": "Yaningam",
    "city_zh": "Yaningam",
    "country": "Papua New Guinea",
    "country_zh": "巴布亞紐幾內亞",
    "country_iso_code": "PG",
    "timezone": "Pacific/Port_Moresby",
    "latitude": -5.08333,
    "longitude": 141.95
  },
  {
    "city": "Yangwana",
    "city_zh": "Yangwana",
    "country": "Papua New Guinea",
    "country_zh": "巴布亞紐幾內亞",
    "country_iso_code": "PG",
    "timezone": "Pacific/Port_Moresby",
    "latitude": -3.68333,
    "longitude": 141.03333
  },
  {
    "city": "Yangulam",
    "city_zh": "Yangulam",
    "country": "Papua New Guinea",
    "country_zh": "巴布亞紐幾內亞",
    "country_iso_code": "PG",
    "timezone": "Pacific/Port_Moresby",
    "latitude": -5.50059,
    "longitude": 145.83557
  },
  {
    "city": "Yangoru",
    "city_zh": "Yangoru",
    "country": "Papua New Guinea",
    "country_zh": "巴布亞紐幾內亞",
    "country_iso_code": "PG",
    "timezone": "Pacific/Port_Moresby",
    "latitude": -3.65009,
    "longitude": 143.29857
  },
  {
    "city": "Yangla",
    "city_zh": "Yangla",
    "country": "Papua New Guinea",
    "country_zh": "巴布亞紐幾內亞",
    "country_iso_code": "PG",
    "timezone": "Pacific/Port_Moresby",
    "latitude": -5.75851,
    "longitude": 148.03446
  },
  {
    "city": "Yangisagu",
    "city_zh": "Yangisagu",
    "country": "Papua New Guinea",
    "country_zh": "巴布亞紐幾內亞",
    "country_iso_code": "PG",
    "timezone": "Pacific/Port_Moresby",
    "latitude": -3.73333,
    "longitude": 143.23333
  },
  {
    "city": "Yangi",
    "city_zh": "Yangi",
    "country": "Papua New Guinea",
    "country_zh": "巴布亞紐幾內亞",
    "country_iso_code": "PG",
    "timezone": "Pacific/Port_Moresby",
    "latitude": -6.83666,
    "longitude": 145.87327
  },
  {
    "city": "Yanget",
    "city_zh": "Yanget",
    "country": "Papua New Guinea",
    "country_zh": "巴布亞紐幾內亞",
    "country_iso_code": "PG",
    "timezone": "Pacific/Port_Moresby",
    "latitude": -4.01569,
    "longitude": 143.09925
  },
  {
    "city": "Yangaura",
    "city_zh": "Yangaura",
    "country": "Papua New Guinea",
    "country_zh": "巴布亞紐幾內亞",
    "country_iso_code": "PG",
    "timezone": "Pacific/Port_Moresby",
    "latitude": -5.68333,
    "longitude": 150.26667
  },
  {
    "city": "Yangasagu",
    "city_zh": "Yangasagu",
    "country": "Papua New Guinea",
    "country_zh": "巴布亞紐幾內亞",
    "country_iso_code": "PG",
    "timezone": "Pacific/Port_Moresby",
    "latitude": -3.71512,
    "longitude": 143.14782
  },
  {
    "city": "Yanga",
    "city_zh": "Yanga",
    "country": "Papua New Guinea",
    "country_zh": "巴布亞紐幾內亞",
    "country_iso_code": "PG",
    "timezone": "Pacific/Port_Moresby",
    "latitude": -6.71503,
    "longitude": 147.04368
  },
  {
    "city": "Yanemegori",
    "city_zh": "Yanemegori",
    "country": "Papua New Guinea",
    "country_zh": "巴布亞紐幾內亞",
    "country_iso_code": "PG",
    "timezone": "Pacific/Port_Moresby",
    "latitude": -6.28333,
    "longitude": 145.2
  },
  {
    "city": "Yandu",
    "city_zh": "Yandu",
    "country": "Papua New Guinea",
    "country_zh": "巴布亞紐幾內亞",
    "country_iso_code": "PG",
    "timezone": "Pacific/Port_Moresby",
    "latitude": -6.15285,
    "longitude": 147.13245
  },
  {
    "city": "Yandera",
    "city_zh": "Yandera",
    "country": "Papua New Guinea",
    "country_zh": "巴布亞紐幾內亞",
    "country_iso_code": "PG",
    "timezone": "Pacific/Port_Moresby",
    "latitude": -5.72944,
    "longitude": 145.14534
  },
  {
    "city": "Yandati",
    "city_zh": "Yandati",
    "country": "Papua New Guinea",
    "country_zh": "巴布亞紐幾內亞",
    "country_iso_code": "PG",
    "timezone": "Pacific/Port_Moresby",
    "latitude": -7.57951,
    "longitude": 145.86815
  },
  {
    "city": "Yandali",
    "city_zh": "Yandali",
    "country": "Papua New Guinea",
    "country_zh": "巴布亞紐幾內亞",
    "country_iso_code": "PG",
    "timezone": "Pacific/Port_Moresby",
    "latitude": -6.08333,
    "longitude": 142.81667
  },
  {
    "city": "Yandabome",
    "city_zh": "Yandabome",
    "country": "Papua New Guinea",
    "country_zh": "巴布亞紐幾內亞",
    "country_iso_code": "PG",
    "timezone": "Pacific/Port_Moresby",
    "latitude": -7.16667,
    "longitude": 145.78333
  },
  {
    "city": "Yanabisa",
    "city_zh": "Yanabisa",
    "country": "Papua New Guinea",
    "country_zh": "巴布亞紐幾內亞",
    "country_iso_code": "PG",
    "timezone": "Pacific/Port_Moresby",
    "latitude": -6.49783,
    "longitude": 145.16778
  },
  {
    "city": "Yamuru",
    "city_zh": "Yamuru",
    "country": "Papua New Guinea",
    "country_zh": "巴布亞紐幾內亞",
    "country_iso_code": "PG",
    "timezone": "Pacific/Port_Moresby",
    "latitude": -7.01667,
    "longitude": 145.83333
  },
  {
    "city": "Yamu",
    "city_zh": "Yamu",
    "country": "Papua New Guinea",
    "country_zh": "巴布亞紐幾內亞",
    "country_iso_code": "PG",
    "timezone": "Pacific/Port_Moresby",
    "latitude": -4.56667,
    "longitude": 144.61667
  },
  {
    "city": "Yampua",
    "city_zh": "Yampua",
    "country": "Papua New Guinea",
    "country_zh": "巴布亞紐幾內亞",
    "country_iso_code": "PG",
    "timezone": "Pacific/Port_Moresby",
    "latitude": -6.21778,
    "longitude": 146.33008
  },
  {
    "city": "Yamoum",
    "city_zh": "Yamoum",
    "country": "Papua New Guinea",
    "country_zh": "巴布亞紐幾內亞",
    "country_iso_code": "PG",
    "timezone": "Pacific/Port_Moresby",
    "latitude": -3.47235,
    "longitude": 142.16945
  },
  {
    "city": "Yamondindei",
    "city_zh": "Yamondindei",
    "country": "Papua New Guinea",
    "country_zh": "巴布亞紐幾內亞",
    "country_iso_code": "PG",
    "timezone": "Pacific/Port_Moresby",
    "latitude": -4.54324,
    "longitude": 143.36865
  },
  {
    "city": "Yamok",
    "city_zh": "Yamok",
    "country": "Papua New Guinea",
    "country_zh": "巴布亞紐幾內亞",
    "country_iso_code": "PG",
    "timezone": "Pacific/Port_Moresby",
    "latitude": -4.08333,
    "longitude": 143.21667
  },
  {
    "city": "Yamini",
    "city_zh": "Yamini",
    "country": "Papua New Guinea",
    "country_zh": "巴布亞紐幾內亞",
    "country_iso_code": "PG",
    "timezone": "Pacific/Port_Moresby",
    "latitude": -3.95967,
    "longitude": 142.98908
  },
  {
    "city": "Yaminbot",
    "city_zh": "Yaminbot",
    "country": "Papua New Guinea",
    "country_zh": "巴布亞紐幾內亞",
    "country_iso_code": "PG",
    "timezone": "Pacific/Port_Moresby",
    "latitude": -4.51788,
    "longitude": 143.75259
  },
  {
    "city": "Yamil 3",
    "city_zh": "Yamil 3",
    "country": "Papua New Guinea",
    "country_zh": "巴布亞紐幾內亞",
    "country_iso_code": "PG",
    "timezone": "Pacific/Port_Moresby",
    "latitude": -3.63634,
    "longitude": 143.1332
  },
  {
    "city": "Yamil 2",
    "city_zh": "Yamil 2",
    "country": "Papua New Guinea",
    "country_zh": "巴布亞紐幾內亞",
    "country_iso_code": "PG",
    "timezone": "Pacific/Port_Moresby",
    "latitude": -3.62771,
    "longitude": 143.13969
  },
  {
    "city": "Yamil 1",
    "city_zh": "Yamil 1",
    "country": "Papua New Guinea",
    "country_zh": "巴布亞紐幾內亞",
    "country_iso_code": "PG",
    "timezone": "Pacific/Port_Moresby",
    "latitude": -3.62363,
    "longitude": 143.14544
  },
  {
    "city": "Yamikum",
    "city_zh": "Yamikum",
    "country": "Papua New Guinea",
    "country_zh": "巴布亞紐幾內亞",
    "country_iso_code": "PG",
    "timezone": "Pacific/Port_Moresby",
    "latitude": -3.61526,
    "longitude": 143.07851
  },
  {
    "city": "Yamen",
    "city_zh": "Yamen",
    "country": "Papua New Guinea",
    "country_zh": "巴布亞紐幾內亞",
    "country_iso_code": "PG",
    "timezone": "Pacific/Port_Moresby",
    "latitude": -4.47629,
    "longitude": 144.05484
  },
  {
    "city": "Yamelikum",
    "city_zh": "Yamelikum",
    "country": "Papua New Guinea",
    "country_zh": "巴布亞紐幾內亞",
    "country_iso_code": "PG",
    "timezone": "Pacific/Port_Moresby",
    "latitude": -3.59695,
    "longitude": 142.984
  },
  {
    "city": "Yamegil",
    "city_zh": "Yamegil",
    "country": "Papua New Guinea",
    "country_zh": "巴布亞紐幾內亞",
    "country_iso_code": "PG",
    "timezone": "Pacific/Port_Moresby",
    "latitude": -3.50258,
    "longitude": 142.5938
  },
  {
    "city": "Yamegau’um",
    "city_zh": "Yamegau’um",
    "country": "Papua New Guinea",
    "country_zh": "巴布亞紐幾內亞",
    "country_iso_code": "PG",
    "timezone": "Pacific/Port_Moresby",
    "latitude": -6.26667,
    "longitude": 145.01667
  },
  {
    "city": "Yame",
    "city_zh": "Yame",
    "country": "Papua New Guinea",
    "country_zh": "巴布亞紐幾內亞",
    "country_iso_code": "PG",
    "timezone": "Pacific/Port_Moresby",
    "latitude": -6.13333,
    "longitude": 141.71667
  },
  {
    "city": "Yame",
    "city_zh": "Yame",
    "country": "Papua New Guinea",
    "country_zh": "巴布亞紐幾內亞",
    "country_iso_code": "PG",
    "timezone": "Pacific/Port_Moresby",
    "latitude": -6.08333,
    "longitude": 145.23333
  },
  {
    "city": "Yambumumba",
    "city_zh": "Yambumumba",
    "country": "Papua New Guinea",
    "country_zh": "巴布亞紐幾內亞",
    "country_iso_code": "PG",
    "timezone": "Pacific/Port_Moresby",
    "latitude": -4.27194,
    "longitude": 142.40964
  },
  {
    "city": "Yambong",
    "city_zh": "Yambong",
    "country": "Papua New Guinea",
    "country_zh": "巴布亞紐幾內亞",
    "country_iso_code": "PG",
    "timezone": "Pacific/Port_Moresby",
    "latitude": -6.67766,
    "longitude": 147.62062
  },
  {
    "city": "Yambon",
    "city_zh": "Yambon",
    "country": "Papua New Guinea",
    "country_zh": "巴布亞紐幾內亞",
    "country_iso_code": "PG",
    "timezone": "Pacific/Port_Moresby",
    "latitude": -4.29344,
    "longitude": 142.7608
  },
  {
    "city": "Yambo",
    "city_zh": "Yambo",
    "country": "Papua New Guinea",
    "country_zh": "巴布亞紐幾內亞",
    "country_iso_code": "PG",
    "timezone": "Pacific/Port_Moresby",
    "latitude": -6.71335,
    "longitude": 147.39947
  },
  {
    "city": "Yambi Yambi",
    "city_zh": "Yambi Yambi",
    "country": "Papua New Guinea",
    "country_zh": "巴布亞紐幾內亞",
    "country_iso_code": "PG",
    "timezone": "Pacific/Port_Moresby",
    "latitude": -4.46667,
    "longitude": 143.15
  },
  {
    "city": "Yambimbo",
    "city_zh": "Yambimbo",
    "country": "Papua New Guinea",
    "country_zh": "巴布亞紐幾內亞",
    "country_iso_code": "PG",
    "timezone": "Pacific/Port_Moresby",
    "latitude": -6.81667,
    "longitude": 145.68333
  },
  {
    "city": "Yambil",
    "city_zh": "Yambil",
    "country": "Papua New Guinea",
    "country_zh": "巴布亞紐幾內亞",
    "country_iso_code": "PG",
    "timezone": "Pacific/Port_Moresby",
    "latitude": -3.57644,
    "longitude": 142.47303
  },
  {
    "city": "Yambigo Villages",
    "city_zh": "Yambigo Villages",
    "country": "Papua New Guinea",
    "country_zh": "巴布亞紐幾內亞",
    "country_iso_code": "PG",
    "timezone": "Pacific/Port_Moresby",
    "latitude": -3.81377,
    "longitude": 142.98141
  },
  {
    "city": "Yambi",
    "city_zh": "Yambi",
    "country": "Papua New Guinea",
    "country_zh": "巴布亞紐幾內亞",
    "country_iso_code": "PG",
    "timezone": "Pacific/Port_Moresby",
    "latitude": -3.88333,
    "longitude": 143.01667
  },
  {
    "city": "Yambes",
    "city_zh": "Yambes",
    "country": "Papua New Guinea",
    "country_zh": "巴布亞紐幾內亞",
    "country_iso_code": "PG",
    "timezone": "Pacific/Port_Moresby",
    "latitude": -3.53107,
    "longitude": 142.76956
  },
  {
    "city": "Yamben",
    "city_zh": "Yamben",
    "country": "Papua New Guinea",
    "country_zh": "巴布亞紐幾內亞",
    "country_iso_code": "PG",
    "timezone": "Pacific/Port_Moresby",
    "latitude": -3.73487,
    "longitude": 143.69317
  },
  {
    "city": "Yambainbai",
    "city_zh": "Yambainbai",
    "country": "Papua New Guinea",
    "country_zh": "巴布亞紐幾內亞",
    "country_iso_code": "PG",
    "timezone": "Pacific/Port_Moresby",
    "latitude": -4.35495,
    "longitude": 145.03825
  },
  {
    "city": "Yamanzako",
    "city_zh": "Yamanzako",
    "country": "Papua New Guinea",
    "country_zh": "巴布亞紐幾內亞",
    "country_iso_code": "PG",
    "timezone": "Pacific/Port_Moresby",
    "latitude": -6.30334,
    "longitude": 147.64195
  },
  {
    "city": "Yamanumbu",
    "city_zh": "Yamanumbu",
    "country": "Papua New Guinea",
    "country_zh": "巴布亞紐幾內亞",
    "country_iso_code": "PG",
    "timezone": "Pacific/Port_Moresby",
    "latitude": -4.13675,
    "longitude": 142.91519
  },
  {
    "city": "Yamanumbu",
    "city_zh": "Yamanumbu",
    "country": "Papua New Guinea",
    "country_zh": "巴布亞紐幾內亞",
    "country_iso_code": "PG",
    "timezone": "Pacific/Port_Moresby",
    "latitude": -4.06667,
    "longitude": 143.01667
  },
  {
    "city": "Yamandim",
    "city_zh": "Yamandim",
    "country": "Papua New Guinea",
    "country_zh": "巴布亞紐幾內亞",
    "country_iso_code": "PG",
    "timezone": "Pacific/Port_Moresby",
    "latitude": -4.75389,
    "longitude": 143.64506
  },
  {
    "city": "Yamamainda",
    "city_zh": "Yamamainda",
    "country": "Papua New Guinea",
    "country_zh": "巴布亞紐幾內亞",
    "country_iso_code": "PG",
    "timezone": "Pacific/Port_Moresby",
    "latitude": -3.67962,
    "longitude": 141.04186
  },
  {
    "city": "Yamalong",
    "city_zh": "Yamalong",
    "country": "Papua New Guinea",
    "country_zh": "巴布亞紐幾內亞",
    "country_iso_code": "PG",
    "timezone": "Pacific/Port_Moresby",
    "latitude": -5.9,
    "longitude": 150.81667
  },
  {
    "city": "Yamai",
    "city_zh": "Yamai",
    "country": "Papua New Guinea",
    "country_zh": "巴布亞紐幾內亞",
    "country_iso_code": "PG",
    "timezone": "Pacific/Port_Moresby",
    "latitude": -5.58333,
    "longitude": 146.36667
  },
  {
    "city": "Yamagilgauma Number 2",
    "city_zh": "Yamagilgauma Number 2",
    "country": "Papua New Guinea",
    "country_zh": "巴布亞紐幾內亞",
    "country_iso_code": "PG",
    "timezone": "Pacific/Port_Moresby",
    "latitude": -5.86667,
    "longitude": 145.11667
  },
  {
    "city": "Yamagilgauma Number 1",
    "city_zh": "Yamagilgauma Number 1",
    "country": "Papua New Guinea",
    "country_zh": "巴布亞紐幾內亞",
    "country_iso_code": "PG",
    "timezone": "Pacific/Port_Moresby",
    "latitude": -5.86667,
    "longitude": 145.1
  },
  {
    "city": "Yalu",
    "city_zh": "Yalu",
    "country": "Papua New Guinea",
    "country_zh": "巴布亞紐幾內亞",
    "country_iso_code": "PG",
    "timezone": "Pacific/Port_Moresby",
    "latitude": -6.59444,
    "longitude": 146.87644
  },
  {
    "city": "Yalom",
    "city_zh": "Yalom",
    "country": "Papua New Guinea",
    "country_zh": "巴布亞紐幾內亞",
    "country_iso_code": "PG",
    "timezone": "Pacific/Port_Moresby",
    "latitude": -4.41667,
    "longitude": 151.75
  },
  {
    "city": "Yalo",
    "city_zh": "Yalo",
    "country": "Papua New Guinea",
    "country_zh": "巴布亞紐幾內亞",
    "country_iso_code": "PG",
    "timezone": "Pacific/Port_Moresby",
    "latitude": -4.9,
    "longitude": 145.66667
  },
  {
    "city": "Yalis",
    "city_zh": "Yalis",
    "country": "Papua New Guinea",
    "country_zh": "巴布亞紐幾內亞",
    "country_iso_code": "PG",
    "timezone": "Pacific/Port_Moresby",
    "latitude": -5.59163,
    "longitude": 143.98546
  },
  {
    "city": "Yalingi",
    "city_zh": "Yalingi",
    "country": "Papua New Guinea",
    "country_zh": "巴布亞紐幾內亞",
    "country_iso_code": "PG",
    "timezone": "Pacific/Port_Moresby",
    "latitude": -3.10139,
    "longitude": 142.23425
  },
  {
    "city": "Yale",
    "city_zh": "Yale",
    "country": "Papua New Guinea",
    "country_zh": "巴布亞紐幾內亞",
    "country_iso_code": "PG",
    "timezone": "Pacific/Port_Moresby",
    "latitude": -6.75132,
    "longitude": 145.16566
  },
  {
    "city": "Yalangel",
    "city_zh": "Yalangel",
    "country": "Papua New Guinea",
    "country_zh": "巴布亞紐幾內亞",
    "country_iso_code": "PG",
    "timezone": "Pacific/Port_Moresby",
    "latitude": -3.55805,
    "longitude": 142.7226
  },
  {
    "city": "Yalangel",
    "city_zh": "Yalangel",
    "country": "Papua New Guinea",
    "country_zh": "巴布亞紐幾內亞",
    "country_iso_code": "PG",
    "timezone": "Pacific/Port_Moresby",
    "latitude": -3.56667,
    "longitude": 142.71667
  },
  {
    "city": "Yalaka",
    "city_zh": "Yalaka",
    "country": "Papua New Guinea",
    "country_zh": "巴布亞紐幾內亞",
    "country_iso_code": "PG",
    "timezone": "Pacific/Port_Moresby",
    "latitude": -8.54733,
    "longitude": 151.0621
  },
  {
    "city": "Yalahin",
    "city_zh": "Yalahin",
    "country": "Papua New Guinea",
    "country_zh": "巴布亞紐幾內亞",
    "country_iso_code": "PG",
    "timezone": "Pacific/Port_Moresby",
    "latitude": -3.65095,
    "longitude": 143.15772
  },
  {
    "city": "Yakwia",
    "city_zh": "Yakwia",
    "country": "Papua New Guinea",
    "country_zh": "巴布亞紐幾內亞",
    "country_iso_code": "PG",
    "timezone": "Pacific/Port_Moresby",
    "latitude": -9.7,
    "longitude": 149.6
  },
  {
    "city": "Yakuran",
    "city_zh": "Yakuran",
    "country": "Papua New Guinea",
    "country_zh": "巴布亞紐幾內亞",
    "country_iso_code": "PG",
    "timezone": "Pacific/Port_Moresby",
    "latitude": -5.03333,
    "longitude": 145.46667
  },
  {
    "city": "Yakumbum",
    "city_zh": "Yakumbum",
    "country": "Papua New Guinea",
    "country_zh": "巴布亞紐幾內亞",
    "country_iso_code": "PG",
    "timezone": "Pacific/Port_Moresby",
    "latitude": -3.4888,
    "longitude": 142.64585
  },
  {
    "city": "Yaku",
    "city_zh": "Yaku",
    "country": "Papua New Guinea",
    "country_zh": "巴布亞紐幾內亞",
    "country_iso_code": "PG",
    "timezone": "Pacific/Port_Moresby",
    "latitude": -6.3,
    "longitude": 145.1
  },
  {
    "city": "Yakot",
    "city_zh": "Yakot",
    "country": "Papua New Guinea",
    "country_zh": "巴布亞紐幾內亞",
    "country_iso_code": "PG",
    "timezone": "Pacific/Port_Moresby",
    "latitude": -6.14212,
    "longitude": 147.10219
  },
  {
    "city": "Yakomune",
    "city_zh": "Yakomune",
    "country": "Papua New Guinea",
    "country_zh": "巴布亞紐幾內亞",
    "country_iso_code": "PG",
    "timezone": "Pacific/Port_Moresby",
    "latitude": -6.16667,
    "longitude": 145.05
  },
  {
    "city": "Yako",
    "city_zh": "Yako",
    "country": "Papua New Guinea",
    "country_zh": "巴布亞紐幾內亞",
    "country_iso_code": "PG",
    "timezone": "Pacific/Port_Moresby",
    "latitude": -2.6472,
    "longitude": 141.21305
  },
  {
    "city": "Yakitanwa",
    "city_zh": "Yakitanwa",
    "country": "Papua New Guinea",
    "country_zh": "巴布亞紐幾內亞",
    "country_iso_code": "PG",
    "timezone": "Pacific/Port_Moresby",
    "latitude": -7.48906,
    "longitude": 146.03058
  },
  {
    "city": "Yakio",
    "city_zh": "Yakio",
    "country": "Papua New Guinea",
    "country_zh": "巴布亞紐幾內亞",
    "country_iso_code": "PG",
    "timezone": "Pacific/Port_Moresby",
    "latitude": -3.50998,
    "longitude": 142.71324
  },
  {
    "city": "Yakiba",
    "city_zh": "Yakiba",
    "country": "Papua New Guinea",
    "country_zh": "巴布亞紐幾內亞",
    "country_iso_code": "PG",
    "timezone": "Pacific/Port_Moresby",
    "latitude": -4.59006,
    "longitude": 145.1436
  },
  {
    "city": "Yakiap",
    "city_zh": "Yakiap",
    "country": "Papua New Guinea",
    "country_zh": "巴布亞紐幾內亞",
    "country_iso_code": "PG",
    "timezone": "Pacific/Port_Moresby",
    "latitude": -4.01867,
    "longitude": 143.24183
  },
  {
    "city": "Yakeltim",
    "city_zh": "Yakeltim",
    "country": "Papua New Guinea",
    "country_zh": "巴布亞紐幾內亞",
    "country_iso_code": "PG",
    "timezone": "Pacific/Port_Moresby",
    "latitude": -3.81363,
    "longitude": 142.04453
  },
  {
    "city": "Yakana",
    "city_zh": "Yakana",
    "country": "Papua New Guinea",
    "country_zh": "巴布亞紐幾內亞",
    "country_iso_code": "PG",
    "timezone": "Pacific/Port_Moresby",
    "latitude": -7.17555,
    "longitude": 145.82743
  },
  {
    "city": "Yakamuno",
    "city_zh": "Yakamuno",
    "country": "Papua New Guinea",
    "country_zh": "巴布亞紐幾內亞",
    "country_iso_code": "PG",
    "timezone": "Pacific/Port_Moresby",
    "latitude": -6.05,
    "longitude": 145.05
  },
  {
    "city": "Yakamul 2",
    "city_zh": "Yakamul 2",
    "country": "Papua New Guinea",
    "country_zh": "巴布亞紐幾內亞",
    "country_iso_code": "PG",
    "timezone": "Pacific/Port_Moresby",
    "latitude": -3.28233,
    "longitude": 142.71388
  },
  {
    "city": "Yakamul 1",
    "city_zh": "Yakamul 1",
    "country": "Papua New Guinea",
    "country_zh": "巴布亞紐幾內亞",
    "country_iso_code": "PG",
    "timezone": "Pacific/Port_Moresby",
    "latitude": -3.27408,
    "longitude": 142.68766
  },
  {
    "city": "Yakabum",
    "city_zh": "Yakabum",
    "country": "Papua New Guinea",
    "country_zh": "巴布亞紐幾內亞",
    "country_iso_code": "PG",
    "timezone": "Pacific/Port_Moresby",
    "latitude": -3.48894,
    "longitude": 142.64597
  },
  {
    "city": "Yaini",
    "city_zh": "Yaini",
    "country": "Papua New Guinea",
    "country_zh": "巴布亞紐幾內亞",
    "country_iso_code": "PG",
    "timezone": "Pacific/Port_Moresby",
    "latitude": -3.23333,
    "longitude": 142.33333
  },
  {
    "city": "Yahil",
    "city_zh": "Yahil",
    "country": "Papua New Guinea",
    "country_zh": "巴布亞紐幾內亞",
    "country_iso_code": "PG",
    "timezone": "Pacific/Port_Moresby",
    "latitude": -5.25259,
    "longitude": 145.75826
  },
  {
    "city": "Yagwoingwe",
    "city_zh": "Yagwoingwe",
    "country": "Papua New Guinea",
    "country_zh": "巴布亞紐幾內亞",
    "country_iso_code": "PG",
    "timezone": "Pacific/Port_Moresby",
    "latitude": -7.2,
    "longitude": 145.9
  },
  {
    "city": "Yagusa",
    "city_zh": "Yagusa",
    "country": "Papua New Guinea",
    "country_zh": "巴布亞紐幾內亞",
    "country_iso_code": "PG",
    "timezone": "Pacific/Port_Moresby",
    "latitude": -6.56845,
    "longitude": 145.62186
  },
  {
    "city": "Yagusa",
    "city_zh": "Yagusa",
    "country": "Papua New Guinea",
    "country_zh": "巴布亞紐幾內亞",
    "country_iso_code": "PG",
    "timezone": "Pacific/Port_Moresby",
    "latitude": -6.33333,
    "longitude": 145.46667
  },
  {
    "city": "Yagusa",
    "city_zh": "Yagusa",
    "country": "Papua New Guinea",
    "country_zh": "巴布亞紐幾內亞",
    "country_iso_code": "PG",
    "timezone": "Pacific/Port_Moresby",
    "latitude": -6.29357,
    "longitude": 145.71185
  },
  {
    "city": "Yagumbu",
    "city_zh": "Yagumbu",
    "country": "Papua New Guinea",
    "country_zh": "巴布亞紐幾內亞",
    "country_iso_code": "PG",
    "timezone": "Pacific/Port_Moresby",
    "latitude": -5.62125,
    "longitude": 145.476
  },
  {
    "city": "Yagrumbok 2",
    "city_zh": "Yagrumbok 2",
    "country": "Papua New Guinea",
    "country_zh": "巴布亞紐幾內亞",
    "country_iso_code": "PG",
    "timezone": "Pacific/Port_Moresby",
    "latitude": -3.61883,
    "longitude": 142.62749
  },
  {
    "city": "Yagrumbok 1",
    "city_zh": "Yagrumbok 1",
    "country": "Papua New Guinea",
    "country_zh": "巴布亞紐幾內亞",
    "country_iso_code": "PG",
    "timezone": "Pacific/Port_Moresby",
    "latitude": -3.60258,
    "longitude": 142.63096
  },
  {
    "city": "Yagomi",
    "city_zh": "Yagomi",
    "country": "Papua New Guinea",
    "country_zh": "巴布亞紐幾內亞",
    "country_iso_code": "PG",
    "timezone": "Pacific/Port_Moresby",
    "latitude": -5.73333,
    "longitude": 146.61667
  },
  {
    "city": "Yagoine",
    "city_zh": "Yagoine",
    "country": "Papua New Guinea",
    "country_zh": "巴布亞紐幾內亞",
    "country_iso_code": "PG",
    "timezone": "Pacific/Port_Moresby",
    "latitude": -7.53034,
    "longitude": 146.40311
  },
  {
    "city": "Yago",
    "city_zh": "Yago",
    "country": "Papua New Guinea",
    "country_zh": "巴布亞紐幾內亞",
    "country_iso_code": "PG",
    "timezone": "Pacific/Port_Moresby",
    "latitude": -6.38629,
    "longitude": 145.55183
  },
  {
    "city": "Yaglkomun",
    "city_zh": "Yaglkomun",
    "country": "Papua New Guinea",
    "country_zh": "巴布亞紐幾內亞",
    "country_iso_code": "PG",
    "timezone": "Pacific/Port_Moresby",
    "latitude": -5.9,
    "longitude": 144.95
  },
  {
    "city": "Yagi Yagioma",
    "city_zh": "Yagi Yagioma",
    "country": "Papua New Guinea",
    "country_zh": "巴布亞紐幾內亞",
    "country_iso_code": "PG",
    "timezone": "Pacific/Port_Moresby",
    "latitude": -9.75,
    "longitude": 149.78333
  },
  {
    "city": "Yagepa",
    "city_zh": "Yagepa",
    "country": "Papua New Guinea",
    "country_zh": "巴布亞紐幾內亞",
    "country_iso_code": "PG",
    "timezone": "Pacific/Port_Moresby",
    "latitude": -7.11667,
    "longitude": 146.15
  },
  {
    "city": "Yagayua",
    "city_zh": "Yagayua",
    "country": "Papua New Guinea",
    "country_zh": "巴布亞紐幾內亞",
    "country_iso_code": "PG",
    "timezone": "Pacific/Port_Moresby",
    "latitude": -7.31667,
    "longitude": 145.86667
  },
  {
    "city": "Yagasa",
    "city_zh": "Yagasa",
    "country": "Papua New Guinea",
    "country_zh": "巴布亞紐幾內亞",
    "country_iso_code": "PG",
    "timezone": "Pacific/Port_Moresby",
    "latitude": -6.56667,
    "longitude": 145.41667
  },
  {
    "city": "Yagasa",
    "city_zh": "Yagasa",
    "country": "Papua New Guinea",
    "country_zh": "巴布亞紐幾內亞",
    "country_iso_code": "PG",
    "timezone": "Pacific/Port_Moresby",
    "latitude": -6.39693,
    "longitude": 145.23079
  },
  {
    "city": "Yagariagagusa",
    "city_zh": "Yagariagagusa",
    "country": "Papua New Guinea",
    "country_zh": "巴布亞紐幾內亞",
    "country_iso_code": "PG",
    "timezone": "Pacific/Port_Moresby",
    "latitude": -6.51954,
    "longitude": 145.53407
  },
  {
    "city": "Yagareba",
    "city_zh": "Yagareba",
    "country": "Papua New Guinea",
    "country_zh": "巴布亞紐幾內亞",
    "country_iso_code": "PG",
    "timezone": "Pacific/Port_Moresby",
    "latitude": -6.58548,
    "longitude": 145.581
  },
  {
    "city": "Yagana",
    "city_zh": "Yagana",
    "country": "Papua New Guinea",
    "country_zh": "巴布亞紐幾內亞",
    "country_iso_code": "PG",
    "timezone": "Pacific/Port_Moresby",
    "latitude": -6.46667,
    "longitude": 145.5
  },
  {
    "city": "Yagadun",
    "city_zh": "Yagadun",
    "country": "Papua New Guinea",
    "country_zh": "巴布亞紐幾內亞",
    "country_iso_code": "PG",
    "timezone": "Pacific/Port_Moresby",
    "latitude": -4.67243,
    "longitude": 146.04295
  },
  {
    "city": "Yafanagomo",
    "city_zh": "Yafanagomo",
    "country": "Papua New Guinea",
    "country_zh": "巴布亞紐幾內亞",
    "country_iso_code": "PG",
    "timezone": "Pacific/Port_Moresby",
    "latitude": -6.41622,
    "longitude": 145.60459
  },
  {
    "city": "Yadagaro",
    "city_zh": "Yadagaro",
    "country": "Papua New Guinea",
    "country_zh": "巴布亞紐幾內亞",
    "country_iso_code": "PG",
    "timezone": "Pacific/Port_Moresby",
    "latitude": -3.51367,
    "longitude": 142.54798
  },
  {
    "city": "Yabuk",
    "city_zh": "Yabuk",
    "country": "Papua New Guinea",
    "country_zh": "巴布亞紐幾內亞",
    "country_iso_code": "PG",
    "timezone": "Pacific/Port_Moresby",
    "latitude": -4.88333,
    "longitude": 145.65
  },
  {
    "city": "Yabuguam 2",
    "city_zh": "Yabuguam 2",
    "country": "Papua New Guinea",
    "country_zh": "巴布亞紐幾內亞",
    "country_iso_code": "PG",
    "timezone": "Pacific/Port_Moresby",
    "latitude": -4.05,
    "longitude": 141.21667
  },
  {
    "city": "Yabuguam 1",
    "city_zh": "Yabuguam 1",
    "country": "Papua New Guinea",
    "country_zh": "巴布亞紐幾內亞",
    "country_iso_code": "PG",
    "timezone": "Pacific/Port_Moresby",
    "latitude": -4.05,
    "longitude": 141.21667
  },
  {
    "city": "Yabona",
    "city_zh": "Yabona",
    "country": "Papua New Guinea",
    "country_zh": "巴布亞紐幾內亞",
    "country_iso_code": "PG",
    "timezone": "Pacific/Port_Moresby",
    "latitude": -7.46458,
    "longitude": 146.05928
  },
  {
    "city": "Yabominu",
    "city_zh": "Yabominu",
    "country": "Papua New Guinea",
    "country_zh": "巴布亞紐幾內亞",
    "country_iso_code": "PG",
    "timezone": "Pacific/Port_Moresby",
    "latitude": -3.65,
    "longitude": 143.2
  },
  {
    "city": "Yabob",
    "city_zh": "Yabob",
    "country": "Papua New Guinea",
    "country_zh": "巴布亞紐幾內亞",
    "country_iso_code": "PG",
    "timezone": "Pacific/Port_Moresby",
    "latitude": -5.26282,
    "longitude": 145.76509
  },
  {
    "city": "Yabob",
    "city_zh": "Yabob",
    "country": "Papua New Guinea",
    "country_zh": "巴布亞紐幾內亞",
    "country_iso_code": "PG",
    "timezone": "Pacific/Port_Moresby",
    "latitude": -5.22635,
    "longitude": 145.77712
  },
  {
    "city": "Yabie",
    "city_zh": "Yabie",
    "country": "Papua New Guinea",
    "country_zh": "巴布亞紐幾內亞",
    "country_iso_code": "PG",
    "timezone": "Pacific/Port_Moresby",
    "latitude": -5.48333,
    "longitude": 145.56667
  },
  {
    "city": "Yabet",
    "city_zh": "Yabet",
    "country": "Papua New Guinea",
    "country_zh": "巴布亞紐幾內亞",
    "country_iso_code": "PG",
    "timezone": "Pacific/Port_Moresby",
    "latitude": -4.62997,
    "longitude": 144.52911
  },
  {
    "city": "Yaben",
    "city_zh": "Yaben",
    "country": "Papua New Guinea",
    "country_zh": "巴布亞紐幾內亞",
    "country_iso_code": "PG",
    "timezone": "Pacific/Port_Moresby",
    "latitude": -4.88333,
    "longitude": 145.6
  },
  {
    "city": "Yabanakor 2",
    "city_zh": "Yabanakor 2",
    "country": "Papua New Guinea",
    "country_zh": "巴布亞紐幾內亞",
    "country_iso_code": "PG",
    "timezone": "Pacific/Port_Moresby",
    "latitude": -3.73547,
    "longitude": 142.87357
  },
  {
    "city": "Yabanakor 1",
    "city_zh": "Yabanakor 1",
    "country": "Papua New Guinea",
    "country_zh": "巴布亞紐幾內亞",
    "country_iso_code": "PG",
    "timezone": "Pacific/Port_Moresby",
    "latitude": -3.72738,
    "longitude": 142.87391
  },
  {
    "city": "Yababi",
    "city_zh": "Yababi",
    "country": "Papua New Guinea",
    "country_zh": "巴布亞紐幾內亞",
    "country_iso_code": "PG",
    "timezone": "Pacific/Port_Moresby",
    "latitude": -6.36667,
    "longitude": 145.68333
  },
  {
    "city": "Yaba",
    "city_zh": "Yaba",
    "country": "Papua New Guinea",
    "country_zh": "巴布亞紐幾內亞",
    "country_iso_code": "PG",
    "timezone": "Pacific/Port_Moresby",
    "latitude": -7.53333,
    "longitude": 146.01667
  },
  {
    "city": "Ya’arai",
    "city_zh": "Ya’arai",
    "country": "Papua New Guinea",
    "country_zh": "巴布亞紐幾內亞",
    "country_iso_code": "PG",
    "timezone": "Pacific/Port_Moresby",
    "latitude": -6.5498,
    "longitude": 145.434
  },
  {
    "city": "Yaa-Didimanga",
    "city_zh": "Yaa-Didimanga",
    "country": "Papua New Guinea",
    "country_zh": "巴布亞紐幾內亞",
    "country_iso_code": "PG",
    "timezone": "Pacific/Port_Moresby",
    "latitude": -7.36667,
    "longitude": 146.05
  },
  {
    "city": "Wuwungo",
    "city_zh": "Wuwungo",
    "country": "Papua New Guinea",
    "country_zh": "巴布亞紐幾內亞",
    "country_iso_code": "PG",
    "timezone": "Pacific/Port_Moresby",
    "latitude": -5.56211,
    "longitude": 141.10716
  },
  {
    "city": "Wuwu",
    "city_zh": "Wuwu",
    "country": "Papua New Guinea",
    "country_zh": "巴布亞紐幾內亞",
    "country_iso_code": "PG",
    "timezone": "Pacific/Port_Moresby",
    "latitude": -7.94731,
    "longitude": 147.74726
  },
  {
    "city": "Wutung",
    "city_zh": "Wutung",
    "country": "Papua New Guinea",
    "country_zh": "巴布亞紐幾內亞",
    "country_iso_code": "PG",
    "timezone": "Pacific/Port_Moresby",
    "latitude": -2.61192,
    "longitude": 141.0088
  },
  {
    "city": "Wusoli",
    "city_zh": "Wusoli",
    "country": "Papua New Guinea",
    "country_zh": "巴布亞紐幾內亞",
    "country_iso_code": "PG",
    "timezone": "Pacific/Port_Moresby",
    "latitude": -3.35,
    "longitude": 141.86667
  },
  {
    "city": "Wusme",
    "city_zh": "Wusme",
    "country": "Papua New Guinea",
    "country_zh": "巴布亞紐幾內亞",
    "country_iso_code": "PG",
    "timezone": "Pacific/Port_Moresby",
    "latitude": -3.95,
    "longitude": 141.03333
  },
  {
    "city": "Wusing",
    "city_zh": "Wusing",
    "country": "Papua New Guinea",
    "country_zh": "巴布亞紐幾內亞",
    "country_iso_code": "PG",
    "timezone": "Pacific/Port_Moresby",
    "latitude": -4.65,
    "longitude": 152.18333
  },
  {
    "city": "Wusianam",
    "city_zh": "Wusianam",
    "country": "Papua New Guinea",
    "country_zh": "巴布亞紐幾內亞",
    "country_iso_code": "PG",
    "timezone": "Pacific/Port_Moresby",
    "latitude": -4.16667,
    "longitude": 141.11667
  },
  {
    "city": "Wuruf",
    "city_zh": "Wuruf",
    "country": "Papua New Guinea",
    "country_zh": "巴布亞紐幾內亞",
    "country_iso_code": "PG",
    "timezone": "Pacific/Port_Moresby",
    "latitude": -6.77737,
    "longitude": 146.37833
  },
  {
    "city": "Wuru",
    "city_zh": "Wuru",
    "country": "Papua New Guinea",
    "country_zh": "巴布亞紐幾內亞",
    "country_iso_code": "PG",
    "timezone": "Pacific/Port_Moresby",
    "latitude": -6.78333,
    "longitude": 146.38333
  },
  {
    "city": "Wurtol",
    "city_zh": "Wurtol",
    "country": "Papua New Guinea",
    "country_zh": "巴布亞紐幾內亞",
    "country_iso_code": "PG",
    "timezone": "Pacific/Port_Moresby",
    "latitude": -3.18333,
    "longitude": 152.58333
  },
  {
    "city": "Wuro",
    "city_zh": "Wuro",
    "country": "Papua New Guinea",
    "country_zh": "巴布亞紐幾內亞",
    "country_iso_code": "PG",
    "timezone": "Pacific/Port_Moresby",
    "latitude": -3.47432,
    "longitude": 142.40313
  },
  {
    "city": "Wurio",
    "city_zh": "Wurio",
    "country": "Papua New Guinea",
    "country_zh": "巴布亞紐幾內亞",
    "country_iso_code": "PG",
    "timezone": "Pacific/Port_Moresby",
    "latitude": -8.23333,
    "longitude": 143.4
  },
  {
    "city": "Wurimkanatgo",
    "city_zh": "Wurimkanatgo",
    "country": "Papua New Guinea",
    "country_zh": "巴布亞紐幾內亞",
    "country_iso_code": "PG",
    "timezone": "Pacific/Port_Moresby",
    "latitude": -5.50384,
    "longitude": 141.25231
  },
  {
    "city": "Wurerb",
    "city_zh": "Wurerb",
    "country": "Papua New Guinea",
    "country_zh": "巴布亞紐幾內亞",
    "country_iso_code": "PG",
    "timezone": "Pacific/Port_Moresby",
    "latitude": -5.88333,
    "longitude": 144.31667
  },
  {
    "city": "Wuran",
    "city_zh": "Wuran",
    "country": "Papua New Guinea",
    "country_zh": "巴布亞紐幾內亞",
    "country_iso_code": "PG",
    "timezone": "Pacific/Port_Moresby",
    "latitude": -3.6,
    "longitude": 142.58333
  },
  {
    "city": "Wuramagakane",
    "city_zh": "Wuramagakane",
    "country": "Papua New Guinea",
    "country_zh": "巴布亞紐幾內亞",
    "country_iso_code": "PG",
    "timezone": "Pacific/Port_Moresby",
    "latitude": -5.95,
    "longitude": 144.95
  },
  {
    "city": "Wurabai",
    "city_zh": "Wurabai",
    "country": "Papua New Guinea",
    "country_zh": "巴布亞紐幾內亞",
    "country_iso_code": "PG",
    "timezone": "Pacific/Port_Moresby",
    "latitude": -3.41482,
    "longitude": 141.68744
  },
  {
    "city": "Wununga",
    "city_zh": "Wununga",
    "country": "Papua New Guinea",
    "country_zh": "巴布亞紐幾內亞",
    "country_iso_code": "PG",
    "timezone": "Pacific/Port_Moresby",
    "latitude": -6.35,
    "longitude": 146.6
  },
  {
    "city": "Wundubagu",
    "city_zh": "Wundubagu",
    "country": "Papua New Guinea",
    "country_zh": "巴布亞紐幾內亞",
    "country_iso_code": "PG",
    "timezone": "Pacific/Port_Moresby",
    "latitude": -5.01667,
    "longitude": 144.63333
  },
  {
    "city": "Wunangapan",
    "city_zh": "Wunangapan",
    "country": "Papua New Guinea",
    "country_zh": "巴布亞紐幾內亞",
    "country_iso_code": "PG",
    "timezone": "Pacific/Port_Moresby",
    "latitude": -7.14865,
    "longitude": 145.91913
  },
  {
    "city": "Wumerau",
    "city_zh": "Wumerau",
    "country": "Papua New Guinea",
    "country_zh": "巴布亞紐幾內亞",
    "country_iso_code": "PG",
    "timezone": "Pacific/Port_Moresby",
    "latitude": -3.55026,
    "longitude": 142.57103
  },
  {
    "city": "Wum",
    "city_zh": "Wum",
    "country": "Papua New Guinea",
    "country_zh": "巴布亞紐幾內亞",
    "country_iso_code": "PG",
    "timezone": "Pacific/Port_Moresby",
    "latitude": -5.58457,
    "longitude": 144.55114
  },
  {
    "city": "Wum",
    "city_zh": "Wum",
    "country": "Papua New Guinea",
    "country_zh": "巴布亞紐幾內亞",
    "country_iso_code": "PG",
    "timezone": "Pacific/Port_Moresby",
    "latitude": -3.51261,
    "longitude": 142.74908
  },
  {
    "city": "Wulukum",
    "city_zh": "Wulukum",
    "country": "Papua New Guinea",
    "country_zh": "巴布亞紐幾內亞",
    "country_iso_code": "PG",
    "timezone": "Pacific/Port_Moresby",
    "latitude": -3.5397,
    "longitude": 142.20405
  },
  {
    "city": "Wulmop",
    "city_zh": "Wulmop",
    "country": "Papua New Guinea",
    "country_zh": "巴布亞紐幾內亞",
    "country_iso_code": "PG",
    "timezone": "Pacific/Port_Moresby",
    "latitude": -8.66667,
    "longitude": 142.88333
  },
  {
    "city": "Wugubli",
    "city_zh": "Wugubli",
    "country": "Papua New Guinea",
    "country_zh": "巴布亞紐幾內亞",
    "country_iso_code": "PG",
    "timezone": "Pacific/Port_Moresby",
    "latitude": -3.35869,
    "longitude": 141.98443
  },
  {
    "city": "Wudzi",
    "city_zh": "Wudzi",
    "country": "Papua New Guinea",
    "country_zh": "巴布亞紐幾內亞",
    "country_iso_code": "PG",
    "timezone": "Pacific/Port_Moresby",
    "latitude": -7.8,
    "longitude": 146.85
  },
  {
    "city": "Wudjini",
    "city_zh": "Wudjini",
    "country": "Papua New Guinea",
    "country_zh": "巴布亞紐幾內亞",
    "country_iso_code": "PG",
    "timezone": "Pacific/Port_Moresby",
    "latitude": -7.67213,
    "longitude": 146.83545
  },
  {
    "city": "Wublagil",
    "city_zh": "Wublagil",
    "country": "Papua New Guinea",
    "country_zh": "巴布亞紐幾內亞",
    "country_iso_code": "PG",
    "timezone": "Pacific/Port_Moresby",
    "latitude": -3.5116,
    "longitude": 142.21143
  },
  {
    "city": "Wrau Yommi",
    "city_zh": "Wrau Yommi",
    "country": "Papua New Guinea",
    "country_zh": "巴布亞紐幾內亞",
    "country_iso_code": "PG",
    "timezone": "Pacific/Port_Moresby",
    "latitude": -4.03333,
    "longitude": 141.8
  },
  {
    "city": "Wowonga",
    "city_zh": "Wowonga",
    "country": "Papua New Guinea",
    "country_zh": "巴布亞紐幾內亞",
    "country_iso_code": "PG",
    "timezone": "Pacific/Port_Moresby",
    "latitude": -6.01667,
    "longitude": 150.81667
  },
  {
    "city": "Wowobo",
    "city_zh": "Wowobo",
    "country": "Papua New Guinea",
    "country_zh": "巴布亞紐幾內亞",
    "country_iso_code": "PG",
    "timezone": "Pacific/Port_Moresby",
    "latitude": -7.36149,
    "longitude": 144.52246
  },
  {
    "city": "Wowo",
    "city_zh": "Wowo",
    "country": "Papua New Guinea",
    "country_zh": "巴布亞紐幾內亞",
    "country_iso_code": "PG",
    "timezone": "Pacific/Port_Moresby",
    "latitude": -7.41136,
    "longitude": 144.31404
  },
  {
    "city": "Wowil",
    "city_zh": "Wowil",
    "country": "Papua New Guinea",
    "country_zh": "巴布亞紐幾內亞",
    "country_iso_code": "PG",
    "timezone": "Pacific/Port_Moresby",
    "latitude": -3.46479,
    "longitude": 142.37138
  },
  {
    "city": "Wowas",
    "city_zh": "Wowas",
    "country": "Papua New Guinea",
    "country_zh": "巴布亞紐幾內亞",
    "country_iso_code": "PG",
    "timezone": "Pacific/Port_Moresby",
    "latitude": -6.96314,
    "longitude": 146.37301
  },
  {
    "city": "Wowabi",
    "city_zh": "Wowabi",
    "country": "Papua New Guinea",
    "country_zh": "巴布亞紐幾內亞",
    "country_iso_code": "PG",
    "timezone": "Pacific/Port_Moresby",
    "latitude": -6.5,
    "longitude": 142.91667
  },
  {
    "city": "Wouobo",
    "city_zh": "Wouobo",
    "country": "Papua New Guinea",
    "country_zh": "巴布亞紐幾內亞",
    "country_iso_code": "PG",
    "timezone": "Pacific/Port_Moresby",
    "latitude": -7.45,
    "longitude": 144.53333
  },
  {
    "city": "Wosera",
    "city_zh": "Wosera",
    "country": "Papua New Guinea",
    "country_zh": "巴布亞紐幾內亞",
    "country_iso_code": "PG",
    "timezone": "Pacific/Port_Moresby",
    "latitude": -3.83441,
    "longitude": 143.02903
  },