[
  {
    "city": "Victoria",
    "city_zh": "维多利亚",
    "country": "Seychelles",
    "country_zh": "塞席爾",
    "country_iso_code": "SC",
    "timezone": "Indian/Mahe",
    "latitude": -4.62001,
    "longitude": 55.45501
  },
  {
    "city": "Takamaka",
    "city_zh": "Takamaka",
    "country": "Seychelles",
    "country_zh": "塞席爾",
    "country_iso_code": "SC",
    "timezone": "Indian/Mahe",
    "latitude": -4.76667,
    "longitude": 55.5
  },
  {
    "city": "Port Glaud",
    "city_zh": "Port Glaud",
    "country": "Seychelles",
    "country_zh": "塞席爾",
    "country_iso_code": "SC",
    "timezone": "Indian/Mahe",
    "latitude": -4.66256,
    "longitude": 55.41841
  },
  {
    "city": "Misere",
    "city_zh": "Misere",
    "country": "Seychelles",
    "country_zh": "塞席爾",
    "country_iso_code": "SC",
    "timezone": "Indian/Mahe",
    "latitude": -4.66667,
    "longitude": 55.46667
  },
  {
    "city": "Machabee",
    "city_zh": "Machabee",
    "country": "Seychelles",
    "country_zh": "塞席爾",
    "country_iso_code": "SC",
    "timezone": "Indian/Mahe",
    "latitude": -4.56523,
    "longitude": 55.4457
  },
  {
    "city": "L’Espérance",
    "city_zh": "L’Espérance",
    "country": "Seychelles",
    "country_zh": "塞席爾",
    "country_iso_code": "SC",
    "timezone": "Indian/Mahe",
    "latitude": -4.71667,
    "longitude": 55.48333
  },
  {
    "city": "La Réunion",
    "city_zh": "La Réunion",
    "country": "Seychelles",
    "country_zh": "塞席爾",
    "country_iso_code": "SC",
    "timezone": "Indian/Mahe",
    "latitude": -4.35544,
    "longitude": 55.83527
  },
  {
    "city": "De Quincey Village",
    "city_zh": "De Quincey Village",
    "country": "Seychelles",
    "country_zh": "塞席爾",
    "country_iso_code": "SC",
    "timezone": "Indian/Mahe",
    "latitude": -4.6026,
    "longitude": 55.45692
  },
  {
    "city": "Cascade",
    "city_zh": "Cascade",
    "country": "Seychelles",
    "country_zh": "塞席爾",
    "country_iso_code": "SC",
    "timezone": "Indian/Mahe",
    "latitude": -4.66915,
    "longitude": 55.49952
  },
  {
    "city": "Bel Ombre",
    "city_zh": "Bel Ombre",
    "country": "Seychelles",
    "country_zh": "塞席爾",
    "country_iso_code": "SC",
    "timezone": "Indian/Mahe",
    "latitude": -4.61667,
    "longitude": 55.41667
  },
  {
    "city": "Beau Vallon",
    "city_zh": "Beau Vallon",
    "country": "Seychelles",
    "country_zh": "塞席爾",
    "country_iso_code": "SC",
    "timezone": "Indian/Mahe",
    "latitude": -4.62091,
    "longitude": 55.43015
  },
  {
    "city": "Anse Volbert Village",
    "city_zh": "Anse Volbert Village",
    "country": "Seychelles",
    "country_zh": "塞席爾",
    "country_iso_code": "SC",
    "timezone": "Indian/Mahe",
    "latitude": -4.31667,
    "longitude": 55.73333
  },
  {
    "city": "Anse Royale",
    "city_zh": "Anse Royale",
    "country": "Seychelles",
    "country_zh": "塞席爾",
    "country_iso_code": "SC",
    "timezone": "Indian/Mahe",
    "latitude": -4.73333,
    "longitude": 55.51667
  },
  {
    "city": "Anse Boileau",
    "city_zh": "Anse Boileau",
    "country": "Seychelles",
    "country_zh": "塞席爾",
    "country_iso_code": "SC",
    "timezone": "Indian/Mahe",
    "latitude": -4.71667,
    "longitude": 55.48333
  },
  {
    "city": "Cote d'Or",
    "city_zh": "Cote d'Or",
    "country": "Seychelles",
    "country_zh": "塞席爾",
    "country_iso_code": "SC",
    "timezone": "Indian/Mahe",
    "latitude": -4.31997,
    "longitude": 55.75338
  },
  {
    "city": "Anse Kerlan",
    "city_zh": "Anse Kerlan",
    "country": "Seychelles",
    "country_zh": "塞席爾",
    "country_iso_code": "SC",
    "timezone": "Indian/Mahe",
    "latitude": -4.30524,
    "longitude": 55.6845
  },
  {
    "city": "Grand Anse",
    "city_zh": "Grand Anse",
    "country": "Seychelles",
    "country_zh": "塞席爾",
    "country_iso_code": "SC",
    "timezone": "Indian/Mahe",
    "latitude": -4.33109,
    "longitude": 55.72206
  },
  {
    "city": "Eden Island",
    "city_zh": "Eden Island",
    "country": "Seychelles",
    "country_zh": "塞席爾",
    "country_iso_code": "SC",
    "timezone": "Indian/Mahe",
    "latitude": -4.63875,
    "longitude": 55.47679
  },
  {
    "city": "Silhouette Island",
    "city_zh": "Silhouette Island",
    "country": "Seychelles",
    "country_zh": "塞席爾",
    "country_iso_code": "SC",
    "timezone": "Indian/Mahe",
    "latitude": -4.48599,
    "longitude": 55.25262
  },
  {
    "city": "Anse aux Pins",
    "city_zh": "Anse aux Pins",
    "country": "Seychelles",
    "country_zh": "塞席爾",
    "country_iso_code": "SC",
    "timezone": "Indian/Mahe",
    "latitude": -4.686,
    "longitude": 55.522
  },
  {
    "city": "Anse des Genets",
    "city_zh": "Anse des Genets",
    "country": "Seychelles",
    "country_zh": "塞席爾",
    "country_iso_code": "SC",
    "timezone": "Indian/Mahe",
    "latitude": -4.67323,
    "longitude": 55.5131
  },
  {
    "city": "Baie Lazare",
    "city_zh": "Baie Lazare",
    "country": "Seychelles",
    "country_zh": "塞席爾",
    "country_iso_code": "SC",
    "timezone": "Indian/Mahe",
    "latitude": -4.74971,
    "longitude": 55.4754
  },
  {
    "city": "Quatre Bornes",
    "city_zh": "Quatre Bornes",
    "country": "Seychelles",
    "country_zh": "塞席爾",
    "country_iso_code": "SC",
    "timezone": "Indian/Mahe",
    "latitude": -4.77873,
    "longitude": 55.51012
  },
  {
    "city": "Pointe Au Sel",
    "city_zh": "Pointe Au Sel",
    "country": "Seychelles",
    "country_zh": "塞席爾",
    "country_iso_code": "SC",
    "timezone": "Indian/Mahe",
    "latitude": -4.72834,
    "longitude": 55.52416
  },
  {
    "city": "La Passe",
    "city_zh": "La Passe",
    "country": "Seychelles",
    "country_zh": "塞席爾",
    "country_iso_code": "SC",
    "timezone": "Indian/Mahe",
    "latitude": -4.34808,
    "longitude": 55.83269
  },
  {
    "city": "Ile au Cerf",
    "city_zh": "Ile au Cerf",
    "country": "Seychelles",
    "country_zh": "塞席爾",
    "country_iso_code": "SC",
    "timezone": "Indian/Mahe",
    "latitude": -4.63108,
    "longitude": 55.49278
  },
  {
    "city": "Pointe La Rue",
    "city_zh": "Pointe La Rue",
    "country": "Seychelles",
    "country_zh": "塞席爾",
    "country_iso_code": "SC",
    "timezone": "Indian/Mahe",
    "latitude": -4.6808,
    "longitude": 55.52108
  },
  {
    "city": "Vista do Mar",
    "city_zh": "Vista do Mar",
    "country": "Seychelles",
    "country_zh": "塞席爾",
    "country_iso_code": "SC",
    "timezone": "Indian/Mahe",
    "latitude": -4.57578,
    "longitude": 55.4368
  },
  {
    "city": "La Gouge",
    "city_zh": "La Gouge",
    "country": "Seychelles",
    "country_zh": "塞席爾",
    "country_iso_code": "SC",
    "timezone": "Indian/Mahe",
    "latitude": -4.59093,
    "longitude": 55.4462
  },
  {
    "city": "Maldive Village",
    "city_zh": "Maldive Village",
    "country": "Seychelles",
    "country_zh": "塞席爾",
    "country_iso_code": "SC",
    "timezone": "Indian/Mahe",
    "latitude": -4.59093,
    "longitude": 55.45225
  },
  {
    "city": "Anse Lazio",
    "city_zh": "Anse Lazio",
    "country": "Seychelles",
    "country_zh": "塞席爾",
    "country_iso_code": "SC",
    "timezone": "Indian/Mahe",
    "latitude": -4.29583,
    "longitude": 55.70249
  },
  {
    "city": "Cap Samy",
    "city_zh": "Cap Samy",
    "country": "Seychelles",
    "country_zh": "塞席爾",
    "country_iso_code": "SC",
    "timezone": "Indian/Mahe",
    "latitude": -4.33036,
    "longitude": 55.76008
  },
  {
    "city": "Bel Air",
    "city_zh": "Bel Air",
    "country": "Seychelles",
    "country_zh": "塞席爾",
    "country_iso_code": "SC",
    "timezone": "Indian/Mahe",
    "latitude": -4.62947,
    "longitude": 55.44547
  },
  {
    "city": "Mont Buxton",
    "city_zh": "Mont Buxton",
    "country": "Seychelles",
    "country_zh": "塞席爾",
    "country_iso_code": "SC",
    "timezone": "Indian/Mahe",
    "latitude": -4.61638,
    "longitude": 55.44821
  },
  {
    "city": "Saint Anne",
    "city_zh": "Saint Anne",
    "country": "Seychelles",
    "country_zh": "塞席爾",
    "country_iso_code": "SC",
    "timezone": "Indian/Mahe",
    "latitude": -4.61362,
    "longitude": 55.49666
  },
  {
    "city": "South Point",
    "city_zh": "South Point",
    "country": "Seychelles",
    "country_zh": "塞席爾",
    "country_iso_code": "SC",
    "timezone": "Indian/Mahe",
    "latitude": -4.63937,
    "longitude": 55.50344
  },
  {
    "city": "Fairview",
    "city_zh": "Fairview",
    "country": "Seychelles",
    "country_zh": "塞席爾",
    "country_iso_code": "SC",
    "timezone": "Indian/Mahe",
    "latitude": -4.65877,
    "longitude": 55.46431
  },
  {
    "city": "Saint Louis",
    "city_zh": "Saint Louis",
    "country": "Seychelles",
    "country_zh": "塞席爾",
    "country_iso_code": "SC",
    "timezone": "Indian/Mahe",
    "latitude": -4.62457,
    "longitude": 55.44441
  },
  {
    "city": "Roche Caïman",
    "city_zh": "Roche Caïman",
    "country": "Seychelles",
    "country_zh": "塞席爾",
    "country_iso_code": "SC",
    "timezone": "Indian/Mahe",
    "latitude": -4.6401,
    "longitude": 55.46879
  },
  {
    "city": "North Island",
    "city_zh": "North Island",
    "country": "Seychelles",
    "country_zh": "塞席爾",
    "country_iso_code": "SC",
    "timezone": "Indian/Mahe",
    "latitude": -4.39342,
    "longitude": 55.24407
  },
  {
    "city": "Perseverance",
    "city_zh": "Perseverance",
    "country": "Seychelles",
    "country_zh": "塞席爾",
    "country_iso_code": "SC",
    "timezone": "Indian/Mahe",
    "latitude": -4.60445,
    "longitude": 55.46428
  }
]