[
  {
    "city": "Miritini",
    "city_zh": "Miritini",
    "country": "Kenya",
    "country_zh": "肯亞",
    "country_iso_code": "KE",
    "timezone": "Africa/Nairobi",
    "latitude": -4.00961,
    "longitude": 39.58457
  },
  {
    "city": "Sombe",
    "city_zh": "Sombe",
    "country": "Kenya",
    "country_zh": "肯亞",
    "country_iso_code": "KE",
    "timezone": "Africa/Nairobi",
    "latitude": -1.45071,
    "longitude": 38.23494
  },
  {
    "city": "Ziwani",
    "city_zh": "Ziwani",
    "country": "Kenya",
    "country_zh": "肯亞",
    "country_iso_code": "KE",
    "timezone": "Africa/Nairobi",
    "latitude": -3.38267,
    "longitude": 37.79346
  },
  {
    "city": "Zare",
    "city_zh": "Zare",
    "country": "Kenya",
    "country_zh": "肯亞",
    "country_iso_code": "KE",
    "timezone": "Africa/Nairobi",
    "latitude": -3.49261,
    "longitude": 38.32502
  },
  {
    "city": "Zaikone",
    "city_zh": "Zaikone",
    "country": "Kenya",
    "country_zh": "肯亞",
    "country_iso_code": "KE",
    "timezone": "Africa/Nairobi",
    "latitude": -1.46667,
    "longitude": 37.31667
  },
  {
    "city": "Zacharia",
    "city_zh": "Zacharia",
    "country": "Kenya",
    "country_zh": "肯亞",
    "country_iso_code": "KE",
    "timezone": "Africa/Nairobi",
    "latitude": -0.63333,
    "longitude": 34.83333
  },
  {
    "city": "Yururu",
    "city_zh": "Yururu",
    "country": "Kenya",
    "country_zh": "肯亞",
    "country_iso_code": "KE",
    "timezone": "Africa/Nairobi",
    "latitude": -0.14529,
    "longitude": 37.66389
  },
  {
    "city": "Yumbisye",
    "city_zh": "Yumbisye",
    "country": "Kenya",
    "country_zh": "肯亞",
    "country_iso_code": "KE",
    "timezone": "Africa/Nairobi",
    "latitude": -1.39993,
    "longitude": 38.0099
  },
  {
    "city": "Yimbo",
    "city_zh": "Yimbo",
    "country": "Kenya",
    "country_zh": "肯亞",
    "country_iso_code": "KE",
    "timezone": "Africa/Nairobi",
    "latitude": -0.04751,
    "longitude": 34.08947
  },
  {
    "city": "Yedi",
    "city_zh": "Yedi",
    "country": "Kenya",
    "country_zh": "肯亞",
    "country_iso_code": "KE",
    "timezone": "Africa/Nairobi",
    "latitude": -1.03333,
    "longitude": 39.88333
  },
  {
    "city": "Yatya",
    "city_zh": "Yatya",
    "country": "Kenya",
    "country_zh": "肯亞",
    "country_iso_code": "KE",
    "timezone": "Africa/Nairobi",
    "latitude": 0.78735,
    "longitude": 35.92206
  },
  {
    "city": "Yatta",
    "city_zh": "Yatta",
    "country": "Kenya",
    "country_zh": "肯亞",
    "country_iso_code": "KE",
    "timezone": "Africa/Nairobi",
    "latitude": -1.47339,
    "longitude": 37.83602
  },
  {
    "city": "Yathui",
    "city_zh": "Yathui",
    "country": "Kenya",
    "country_zh": "肯亞",
    "country_iso_code": "KE",
    "timezone": "Africa/Nairobi",
    "latitude": -1.45502,
    "longitude": 37.5765
  },
  {
    "city": "Yandue",
    "city_zh": "Yandue",
    "country": "Kenya",
    "country_zh": "肯亞",
    "country_iso_code": "KE",
    "timezone": "Africa/Nairobi",
    "latitude": -1.61112,
    "longitude": 37.46082
  },
  {
    "city": "Yamugwe",
    "city_zh": "Yamugwe",
    "country": "Kenya",
    "country_zh": "肯亞",
    "country_iso_code": "KE",
    "timezone": "Africa/Nairobi",
    "latitude": -0.76461,
    "longitude": 37.04295
  },
  {
    "city": "Yamogo",
    "city_zh": "Yamogo",
    "country": "Kenya",
    "country_zh": "肯亞",
    "country_iso_code": "KE",
    "timezone": "Africa/Nairobi",
    "latitude": -1.2,
    "longitude": 36.76667
  },
  {
    "city": "Yamalwa",
    "city_zh": "Yamalwa",
    "country": "Kenya",
    "country_zh": "肯亞",
    "country_iso_code": "KE",
    "timezone": "Africa/Nairobi",
    "latitude": -1.50825,
    "longitude": 37.63226
  },
  {
    "city": "Yale",
    "city_zh": "Yale",
    "country": "Kenya",
    "country_zh": "肯亞",
    "country_iso_code": "KE",
    "timezone": "Africa/Nairobi",
    "latitude": -3.40591,
    "longitude": 38.32399
  },
  {
    "city": "Yala",
    "city_zh": "Yala",
    "country": "Kenya",
    "country_zh": "肯亞",
    "country_iso_code": "KE",
    "timezone": "Africa/Nairobi",
    "latitude": 0.09438,
    "longitude": 34.53602
  },
  {
    "city": "Yaka",
    "city_zh": "Yaka",
    "country": "Kenya",
    "country_zh": "肯亞",
    "country_iso_code": "KE",
    "timezone": "Africa/Nairobi",
    "latitude": -1.55,
    "longitude": 39.38333
  },
  {
    "city": "Yaganek",
    "city_zh": "Yaganek",
    "country": "Kenya",
    "country_zh": "肯亞",
    "country_iso_code": "KE",
    "timezone": "Africa/Nairobi",
    "latitude": -0.70966,
    "longitude": 35.15228
  },
  {
    "city": "Wusi",
    "city_zh": "Wusi",
    "country": "Kenya",
    "country_zh": "肯亞",
    "country_iso_code": "KE",
    "timezone": "Africa/Nairobi",
    "latitude": -3.45577,
    "longitude": 38.34888
  },
  {
    "city": "Wundanyi",
    "city_zh": "Wundanyi",
    "country": "Kenya",
    "country_zh": "肯亞",
    "country_iso_code": "KE",
    "timezone": "Africa/Nairobi",
    "latitude": -3.39642,
    "longitude": 38.35729
  },
  {
    "city": "Wumari",
    "city_zh": "Wumari",
    "country": "Kenya",
    "country_zh": "肯亞",
    "country_iso_code": "KE",
    "timezone": "Africa/Nairobi",
    "latitude": -3.47774,
    "longitude": 38.32538
  },
  {
    "city": "Wote",
    "city_zh": "Wote",
    "country": "Kenya",
    "country_zh": "肯亞",
    "country_iso_code": "KE",
    "timezone": "Africa/Nairobi",
    "latitude": -1.78079,
    "longitude": 37.62882
  },
  {
    "city": "Woodley Estate",
    "city_zh": "Woodley Estate",
    "country": "Kenya",
    "country_zh": "肯亞",
    "country_iso_code": "KE",
    "timezone": "Africa/Nairobi",
    "latitude": -1.30356,
    "longitude": 36.78374
  },
  {
    "city": "Wongonyi",
    "city_zh": "Wongonyi",
    "country": "Kenya",
    "country_zh": "肯亞",
    "country_iso_code": "KE",
    "timezone": "Africa/Nairobi",
    "latitude": -3.31637,
    "longitude": 38.43355
  },
  {
    "city": "Wmingo",
    "city_zh": "Wmingo",
    "country": "Kenya",
    "country_zh": "肯亞",
    "country_iso_code": "KE",
    "timezone": "Africa/Nairobi",
    "latitude": -3.36667,
    "longitude": 38.33333
  },
  {
    "city": "Witu",
    "city_zh": "Witu",
    "country": "Kenya",
    "country_zh": "肯亞",
    "country_iso_code": "KE",
    "timezone": "Africa/Nairobi",
    "latitude": -2.38892,
    "longitude": 40.43827
  },
  {
    "city": "Wi-Obiero",
    "city_zh": "Wi-Obiero",
    "country": "Kenya",
    "country_zh": "肯亞",
    "country_iso_code": "KE",
    "timezone": "Africa/Nairobi",
    "latitude": -0.63715,
    "longitude": 34.48992
  },
  {
    "city": "Wikondiek",
    "city_zh": "Wikondiek",
    "country": "Kenya",
    "country_zh": "肯亞",
    "country_iso_code": "KE",
    "timezone": "Africa/Nairobi",
    "latitude": -0.47345,
    "longitude": 34.62277
  },
  {
    "city": "Wikililye",
    "city_zh": "Wikililye",
    "country": "Kenya",
    "country_zh": "肯亞",
    "country_iso_code": "KE",
    "timezone": "Africa/Nairobi",
    "latitude": -1.39957,
    "longitude": 38.01277
  },
  {
    "city": "Wiga",
    "city_zh": "Wiga",
    "country": "Kenya",
    "country_zh": "肯亞",
    "country_iso_code": "KE",
    "timezone": "Africa/Nairobi",
    "latitude": -0.66261,
    "longitude": 34.19653
  },
  {
    "city": "Wetima Two",
    "city_zh": "Wetima Two",
    "country": "Kenya",
    "country_zh": "肯亞",
    "country_iso_code": "KE",
    "timezone": "Africa/Nairobi",
    "latitude": -0.55,
    "longitude": 36.96667
  },
  {
    "city": "Wetima One",
    "city_zh": "Wetima One",
    "country": "Kenya",
    "country_zh": "肯亞",
    "country_iso_code": "KE",
    "timezone": "Africa/Nairobi",
    "latitude": -0.55,
    "longitude": 36.98333
  },
  {
    "city": "Wetaa",
    "city_zh": "Wetaa",
    "country": "Kenya",
    "country_zh": "肯亞",
    "country_iso_code": "KE",
    "timezone": "Africa/Nairobi",
    "latitude": -1.41004,
    "longitude": 37.433
  },
  {
    "city": "Wesu",
    "city_zh": "Wesu",
    "country": "Kenya",
    "country_zh": "肯亞",
    "country_iso_code": "KE",
    "timezone": "Africa/Nairobi",
    "latitude": -3.40831,
    "longitude": 38.34044
  },
  {
    "city": "Westlands",
    "city_zh": "Westlands",
    "country": "Kenya",
    "country_zh": "肯亞",
    "country_iso_code": "KE",
    "timezone": "Africa/Nairobi",
    "latitude": -1.26683,
    "longitude": 36.80806
  },
  {
    "city": "Weruga",
    "city_zh": "Weruga",
    "country": "Kenya",
    "country_zh": "肯亞",
    "country_iso_code": "KE",
    "timezone": "Africa/Nairobi",
    "latitude": -3.38537,
    "longitude": 38.33671
  },
  {
    "city": "Weru",
    "city_zh": "Weru",
    "country": "Kenya",
    "country_zh": "肯亞",
    "country_iso_code": "KE",
    "timezone": "Africa/Nairobi",
    "latitude": -0.36656,
    "longitude": 37.71578
  },
  {
    "city": "Wera",
    "city_zh": "Wera",
    "country": "Kenya",
    "country_zh": "肯亞",
    "country_iso_code": "KE",
    "timezone": "Africa/Nairobi",
    "latitude": -0.15279,
    "longitude": 34.40839
  },
  {
    "city": "Weno",
    "city_zh": "Weno",
    "country": "Kenya",
    "country_zh": "肯亞",
    "country_iso_code": "KE",
    "timezone": "Africa/Nairobi",
    "latitude": -0.55617,
    "longitude": 34.44796
  },
  {
    "city": "Wenje",
    "city_zh": "Wenje",
    "country": "Kenya",
    "country_zh": "肯亞",
    "country_iso_code": "KE",
    "timezone": "Africa/Nairobi",
    "latitude": -1.79264,
    "longitude": 40.11102
  },
  {
    "city": "Wengondo",
    "city_zh": "Wengondo",
    "country": "Kenya",
    "country_zh": "肯亞",
    "country_iso_code": "KE",
    "timezone": "Africa/Nairobi",
    "latitude": 0.08658,
    "longitude": 34.80563
  },
  {
    "city": "Wema",
    "city_zh": "Wema",
    "country": "Kenya",
    "country_zh": "肯亞",
    "country_iso_code": "KE",
    "timezone": "Africa/Nairobi",
    "latitude": -2.21062,
    "longitude": 40.17903
  },
  {
    "city": "Welaluit Dardesa",
    "city_zh": "Welaluit Dardesa",
    "country": "Kenya",
    "country_zh": "肯亞",
    "country_iso_code": "KE",
    "timezone": "Africa/Nairobi",
    "latitude": -0.93333,
    "longitude": 40.9
  },
  {
    "city": "Weithaga",
    "city_zh": "Weithaga",
    "country": "Kenya",
    "country_zh": "肯亞",
    "country_iso_code": "KE",
    "timezone": "Africa/Nairobi",
    "latitude": -0.71649,
    "longitude": 36.97893
  },
  {
    "city": "Webuye",
    "city_zh": "Webuye",
    "country": "Kenya",
    "country_zh": "肯亞",
    "country_iso_code": "KE",
    "timezone": "Africa/Nairobi",
    "latitude": 0.6004,
    "longitude": 34.77119
  },
  {
    "city": "Wayu",
    "city_zh": "Wayu",
    "country": "Kenya",
    "country_zh": "肯亞",
    "country_iso_code": "KE",
    "timezone": "Africa/Nairobi",
    "latitude": -1.52995,
    "longitude": 39.58529
  },
  {
    "city": "God Keyo",
    "city_zh": "God Keyo",
    "country": "Kenya",
    "country_zh": "肯亞",
    "country_iso_code": "KE",
    "timezone": "Africa/Nairobi",
    "latitude": -0.81394,
    "longitude": 34.28729
  },
  {
    "city": "Wayaga",
    "city_zh": "Wayaga",
    "country": "Kenya",
    "country_zh": "肯亞",
    "country_iso_code": "KE",
    "timezone": "Africa/Nairobi",
    "latitude": -0.73755,
    "longitude": 34.46699
  },
  {
    "city": "Wayaga",
    "city_zh": "Wayaga",
    "country": "Kenya",
    "country_zh": "肯亞",
    "country_iso_code": "KE",
    "timezone": "Africa/Nairobi",
    "latitude": -0.29735,
    "longitude": 34.37204
  },
  {
    "city": "Wautu",
    "city_zh": "Wautu",
    "country": "Kenya",
    "country_zh": "肯亞",
    "country_iso_code": "KE",
    "timezone": "Africa/Nairobi",
    "latitude": -1.86224,
    "longitude": 37.40543
  },
  {
    "city": "Wath Ong’er",
    "city_zh": "Wath Ong’er",
    "country": "Kenya",
    "country_zh": "肯亞",
    "country_iso_code": "KE",
    "timezone": "Africa/Nairobi",
    "latitude": -0.95227,
    "longitude": 34.20732
  },
  {
    "city": "Wathini",
    "city_zh": "Wathini",
    "country": "Kenya",
    "country_zh": "肯亞",
    "country_iso_code": "KE",
    "timezone": "Africa/Nairobi",
    "latitude": -1.8829,
    "longitude": 37.35417
  },
  {
    "city": "Wathini",
    "city_zh": "Wathini",
    "country": "Kenya",
    "country_zh": "肯亞",
    "country_iso_code": "KE",
    "timezone": "Africa/Nairobi",
    "latitude": -1.90236,
    "longitude": 37.36105
  },
  {
    "city": "Waterer",
    "city_zh": "Waterer",
    "country": "Kenya",
    "country_zh": "肯亞",
    "country_iso_code": "KE",
    "timezone": "Africa/Nairobi",
    "latitude": -0.39185,
    "longitude": 35.6479
  },
  {
    "city": "Watamu",
    "city_zh": "瓦塔穆",
    "country": "Kenya",
    "country_zh": "肯亞",
    "country_iso_code": "KE",
    "timezone": "Africa/Nairobi",
    "latitude": -3.35335,
    "longitude": 40.02095
  },
  {
    "city": "Wasis",
    "city_zh": "Wasis",
    "country": "Kenya",
    "country_zh": "肯亞",
    "country_iso_code": "KE",
    "timezone": "Africa/Nairobi",
    "latitude": -0.55,
    "longitude": 34.73333
  },
  {
    "city": "Wasini",
    "city_zh": "Wasini",
    "country": "Kenya",
    "country_zh": "肯亞",
    "country_iso_code": "KE",
    "timezone": "Africa/Nairobi",
    "latitude": -4.65855,
    "longitude": 39.36621
  },
  {
    "city": "Wariva",
    "city_zh": "Wariva",
    "country": "Kenya",
    "country_zh": "肯亞",
    "country_iso_code": "KE",
    "timezone": "Africa/Nairobi",
    "latitude": 1.03333,
    "longitude": 34.56667
  },
  {
    "city": "Waresa",
    "city_zh": "Waresa",
    "country": "Kenya",
    "country_zh": "肯亞",
    "country_iso_code": "KE",
    "timezone": "Africa/Nairobi",
    "latitude": -2.76977,
    "longitude": 39.99463
  },
  {
    "city": "Waratho",
    "city_zh": "Waratho",
    "country": "Kenya",
    "country_zh": "肯亞",
    "country_iso_code": "KE",
    "timezone": "Africa/Nairobi",
    "latitude": -1.11667,
    "longitude": 36.78333
  },
  {
    "city": "Waondo",
    "city_zh": "Waondo",
    "country": "Kenya",
    "country_zh": "肯亞",
    "country_iso_code": "KE",
    "timezone": "Africa/Nairobi",
    "latitude": -0.4996,
    "longitude": 34.31061
  },
  {
    "city": "Wanzauni",
    "city_zh": "Wanzauni",
    "country": "Kenya",
    "country_zh": "肯亞",
    "country_iso_code": "KE",
    "timezone": "Africa/Nairobi",
    "latitude": -1.55533,
    "longitude": 37.3978
  },
  {
    "city": "Wanyaga",
    "city_zh": "Wanyaga",
    "country": "Kenya",
    "country_zh": "肯亞",
    "country_iso_code": "KE",
    "timezone": "Africa/Nairobi",
    "latitude": -1.23333,
    "longitude": 36.55
  },
  {
    "city": "Wanyaga",
    "city_zh": "Wanyaga",
    "country": "Kenya",
    "country_zh": "肯亞",
    "country_iso_code": "KE",
    "timezone": "Africa/Nairobi",
    "latitude": -0.8,
    "longitude": 36.8
  },
  {
    "city": "Wanjohi",
    "city_zh": "Wanjohi",
    "country": "Kenya",
    "country_zh": "肯亞",
    "country_iso_code": "KE",
    "timezone": "Africa/Nairobi",
    "latitude": -0.33668,
    "longitude": 36.51375
  },
  {
    "city": "Wanjohi Settlement",
    "city_zh": "Wanjohi Settlement",
    "country": "Kenya",
    "country_zh": "肯亞",
    "country_iso_code": "KE",
    "timezone": "Africa/Nairobi",
    "latitude": -0.35603,
    "longitude": 36.53634
  },
  {
    "city": "Wanjii",
    "city_zh": "Wanjii",
    "country": "Kenya",
    "country_zh": "肯亞",
    "country_iso_code": "KE",
    "timezone": "Africa/Nairobi",
    "latitude": -0.75,
    "longitude": 37.16667
  },
  {
    "city": "Wanjereri",
    "city_zh": "Wanjereri",
    "country": "Kenya",
    "country_zh": "肯亞",
    "country_iso_code": "KE",
    "timezone": "Africa/Nairobi",
    "latitude": -0.65,
    "longitude": 36.85
  },
  {
    "city": "Wanjengi",
    "city_zh": "Wanjengi",
    "country": "Kenya",
    "country_zh": "肯亞",
    "country_iso_code": "KE",
    "timezone": "Africa/Nairobi",
    "latitude": -0.71933,
    "longitude": 36.9824
  },
  {
    "city": "Wanguru",
    "city_zh": "Wanguru",
    "country": "Kenya",
    "country_zh": "肯亞",
    "country_iso_code": "KE",
    "timezone": "Africa/Nairobi",
    "latitude": -0.68393,
    "longitude": 37.35701
  },
  {
    "city": "Wangulu",
    "city_zh": "Wangulu",
    "country": "Kenya",
    "country_zh": "肯亞",
    "country_iso_code": "KE",
    "timezone": "Africa/Nairobi",
    "latitude": 0.12503,
    "longitude": 34.76898
  },
  {
    "city": "Wangoya",
    "city_zh": "Wangoya",
    "country": "Kenya",
    "country_zh": "肯亞",
    "country_iso_code": "KE",
    "timezone": "Africa/Nairobi",
    "latitude": -0.01574,
    "longitude": 34.6728
  },
  {
    "city": "Wangoma",
    "city_zh": "Wangoma",
    "country": "Kenya",
    "country_zh": "肯亞",
    "country_iso_code": "KE",
    "timezone": "Africa/Nairobi",
    "latitude": 0.76667,
    "longitude": 34.45
  },
  {
    "city": "Kokwanyo",
    "city_zh": "Kokwanyo",
    "country": "Kenya",
    "country_zh": "肯亞",
    "country_iso_code": "KE",
    "timezone": "Africa/Nairobi",
    "latitude": -0.40385,
    "longitude": 34.75541
  },
  {
    "city": "Wange",
    "city_zh": "Wange",
    "country": "Kenya",
    "country_zh": "肯亞",
    "country_iso_code": "KE",
    "timezone": "Africa/Nairobi",
    "latitude": -1.99824,
    "longitude": 40.92191
  },
  {
    "city": "Wangarot",
    "city_zh": "Wangarot",
    "country": "Kenya",
    "country_zh": "肯亞",
    "country_iso_code": "KE",
    "timezone": "Africa/Nairobi",
    "latitude": -0.12405,
    "longitude": 34.31271
  },
  {
    "city": "Wangapala",
    "city_zh": "Wangapala",
    "country": "Kenya",
    "country_zh": "肯亞",
    "country_iso_code": "KE",
    "timezone": "Africa/Nairobi",
    "latitude": -0.64779,
    "longitude": 34.37412
  },
  {
    "city": "Wang’apala",
    "city_zh": "Wang’apala",
    "country": "Kenya",
    "country_zh": "肯亞",
    "country_iso_code": "KE",
    "timezone": "Africa/Nairobi",
    "latitude": -0.43015,
    "longitude": 34.90173
  },
  {
    "city": "Wangai",
    "city_zh": "Wangai",
    "country": "Kenya",
    "country_zh": "肯亞",
    "country_iso_code": "KE",
    "timezone": "Africa/Nairobi",
    "latitude": -0.89687,
    "longitude": 37.07121
  },
  {
    "city": "Wandumbi",
    "city_zh": "Wandumbi",
    "country": "Kenya",
    "country_zh": "肯亞",
    "country_iso_code": "KE",
    "timezone": "Africa/Nairobi",
    "latitude": -0.47006,
    "longitude": 36.88248
  },
  {
    "city": "Wandore",
    "city_zh": "Wandore",
    "country": "Kenya",
    "country_zh": "肯亞",
    "country_iso_code": "KE",
    "timezone": "Africa/Nairobi",
    "latitude": -0.21749,
    "longitude": 35.52424
  },
  {
    "city": "Wandimi",
    "city_zh": "Wandimi",
    "country": "Kenya",
    "country_zh": "肯亞",
    "country_iso_code": "KE",
    "timezone": "Africa/Nairobi",
    "latitude": -1.0,
    "longitude": 36.75
  },
  {
    "city": "Wamwangi",
    "city_zh": "Wamwangi",
    "country": "Kenya",
    "country_zh": "肯亞",
    "country_iso_code": "KE",
    "timezone": "Africa/Nairobi",
    "latitude": -1.00391,
    "longitude": 36.91971
  },
  {
    "city": "Wamutitu",
    "city_zh": "Wamutitu",
    "country": "Kenya",
    "country_zh": "肯亞",
    "country_iso_code": "KE",
    "timezone": "Africa/Nairobi",
    "latitude": -0.55,
    "longitude": 37.03333
  },
  {
    "city": "Wamunyu",
    "city_zh": "Wamunyu",
    "country": "Kenya",
    "country_zh": "肯亞",
    "country_iso_code": "KE",
    "timezone": "Africa/Nairobi",
    "latitude": -1.40983,
    "longitude": 37.56358
  },
  {
    "city": "Wamumu",
    "city_zh": "Wamumu",
    "country": "Kenya",
    "country_zh": "肯亞",
    "country_iso_code": "KE",
    "timezone": "Africa/Nairobi",
    "latitude": -0.75161,
    "longitude": 37.31723
  },
  {
    "city": "Wamono",
    "city_zh": "Wamono",
    "country": "Kenya",
    "country_zh": "肯亞",
    "country_iso_code": "KE",
    "timezone": "Africa/Nairobi",
    "latitude": 0.79062,
    "longitude": 34.43408
  },
  {
    "city": "Wamitaa",
    "city_zh": "Wamitaa",
    "country": "Kenya",
    "country_zh": "肯亞",
    "country_iso_code": "KE",
    "timezone": "Africa/Nairobi",
    "latitude": -1.05,
    "longitude": 36.91667
  },
  {
    "city": "Wamgong",
    "city_zh": "Wamgong",
    "country": "Kenya",
    "country_zh": "肯亞",
    "country_iso_code": "KE",
    "timezone": "Africa/Nairobi",
    "latitude": -0.60945,
    "longitude": 35.59652
  },
  {
    "city": "Wambiti",
    "city_zh": "Wambiti",
    "country": "Kenya",
    "country_zh": "肯亞",
    "country_iso_code": "KE",
    "timezone": "Africa/Nairobi",
    "latitude": -1.64383,
    "longitude": 37.63575
  },
  {
    "city": "Wamba",
    "city_zh": "Wamba",
    "country": "Kenya",
    "country_zh": "肯亞",
    "country_iso_code": "KE",
    "timezone": "Africa/Nairobi",
    "latitude": 0.98016,
    "longitude": 37.32349
  },
  {
    "city": "Wamagana",
    "city_zh": "Wamagana",
    "country": "Kenya",
    "country_zh": "肯亞",
    "country_iso_code": "KE",
    "timezone": "Africa/Nairobi",
    "latitude": -0.47612,
    "longitude": 36.93057
  },
  {
    "city": "Wamachatha",
    "city_zh": "Wamachatha",
    "country": "Kenya",
    "country_zh": "肯亞",
    "country_iso_code": "KE",
    "timezone": "Africa/Nairobi",
    "latitude": -0.56667,
    "longitude": 37.01667
  },
  {
    "city": "Walu",
    "city_zh": "Walu",
    "country": "Kenya",
    "country_zh": "肯亞",
    "country_iso_code": "KE",
    "timezone": "Africa/Nairobi",
    "latitude": -1.7,
    "longitude": 40.13333
  },
  {
    "city": "Walanga",
    "city_zh": "Walanga",
    "country": "Kenya",
    "country_zh": "肯亞",
    "country_iso_code": "KE",
    "timezone": "Africa/Nairobi",
    "latitude": 0.84855,
    "longitude": 34.42892
  },
  {
    "city": "Wakaela",
    "city_zh": "Wakaela",
    "country": "Kenya",
    "country_zh": "肯亞",
    "country_iso_code": "KE",
    "timezone": "Africa/Nairobi",
    "latitude": -1.38555,
    "longitude": 37.60264
  },
  {
    "city": "Wajir",
    "city_zh": "瓦吉爾",
    "country": "Kenya",
    "country_zh": "肯亞",
    "country_iso_code": "KE",
    "timezone": "Africa/Nairobi",
    "latitude": 1.7471,
    "longitude": 40.05732
  },
  {
    "city": "Waithaka",
    "city_zh": "Waithaka",
    "country": "Kenya",
    "country_zh": "肯亞",
    "country_iso_code": "KE",
    "timezone": "Africa/Nairobi",
    "latitude": -1.28333,
    "longitude": 36.71667
  },
  {
    "city": "Waita",
    "city_zh": "Waita",
    "country": "Kenya",
    "country_zh": "肯亞",
    "country_iso_code": "KE",
    "timezone": "Africa/Nairobi",
    "latitude": -0.77905,
    "longitude": 38.09347
  },
  {
    "city": "Waiga",
    "city_zh": "Waiga",
    "country": "Kenya",
    "country_zh": "肯亞",
    "country_iso_code": "KE",
    "timezone": "Africa/Nairobi",
    "latitude": -0.51068,
    "longitude": 34.39043
  },
  {
    "city": "Wahenya",
    "city_zh": "Wahenya",
    "country": "Kenya",
    "country_zh": "肯亞",
    "country_iso_code": "KE",
    "timezone": "Africa/Nairobi",
    "latitude": -0.37373,
    "longitude": 36.91299
  },
  {
    "city": "Wagwer",
    "city_zh": "Wagwer",
    "country": "Kenya",
    "country_zh": "肯亞",
    "country_iso_code": "KE",
    "timezone": "Africa/Nairobi",
    "latitude": 0.05359,
    "longitude": 34.38777
  },
  {
    "city": "Wagwe",
    "city_zh": "Wagwe",
    "country": "Kenya",
    "country_zh": "肯亞",
    "country_iso_code": "KE",
    "timezone": "Africa/Nairobi",
    "latitude": -0.35398,
    "longitude": 34.5658
  },
  {
    "city": "Waguthu",
    "city_zh": "Waguthu",
    "country": "Kenya",
    "country_zh": "肯亞",
    "country_iso_code": "KE",
    "timezone": "Africa/Nairobi",
    "latitude": -1.1891,
    "longitude": 36.79329
  },
  {
    "city": "Wagusu",
    "city_zh": "Wagusu",
    "country": "Kenya",
    "country_zh": "肯亞",
    "country_iso_code": "KE",
    "timezone": "Africa/Nairobi",
    "latitude": -0.19127,
    "longitude": 34.17661
  },
  {
    "city": "Wangajo",
    "city_zh": "Wangajo",
    "country": "Kenya",
    "country_zh": "肯亞",
    "country_iso_code": "KE",
    "timezone": "Africa/Nairobi",
    "latitude": -0.72977,
    "longitude": 34.46898
  },
  {
    "city": "Wagai",
    "city_zh": "Wagai",
    "country": "Kenya",
    "country_zh": "肯亞",
    "country_iso_code": "KE",
    "timezone": "Africa/Nairobi",
    "latitude": -0.45725,
    "longitude": 36.86502
  },
  {
    "city": "Watheka",
    "city_zh": "Watheka",
    "country": "Kenya",
    "country_zh": "肯亞",
    "country_iso_code": "KE",
    "timezone": "Africa/Nairobi",
    "latitude": 0.46626,
    "longitude": 34.6055
  },
  {
    "city": "Wachara",
    "city_zh": "Wachara",
    "country": "Kenya",
    "country_zh": "肯亞",
    "country_iso_code": "KE",
    "timezone": "Africa/Nairobi",
    "latitude": -0.8112,
    "longitude": 34.31065
  },
  {
    "city": "Wachakone",
    "city_zh": "Wachakone",
    "country": "Kenya",
    "country_zh": "肯亞",
    "country_iso_code": "KE",
    "timezone": "Africa/Nairobi",
    "latitude": -1.44705,
    "longitude": 40.02574
  },
  {
    "city": "Wabuga",
    "city_zh": "Wabuga",
    "country": "Kenya",
    "country_zh": "肯亞",
    "country_iso_code": "KE",
    "timezone": "Africa/Nairobi",
    "latitude": -1.23333,
    "longitude": 36.71667
  },
  {
    "city": "Waa",
    "city_zh": "Waa",
    "country": "Kenya",
    "country_zh": "肯亞",
    "country_iso_code": "KE",
    "timezone": "Africa/Nairobi",
    "latitude": -4.16994,
    "longitude": 39.60279
  },
  {
    "city": "Vyulia",
    "city_zh": "Vyulia",
    "country": "Kenya",
    "country_zh": "肯亞",
    "country_iso_code": "KE",
    "timezone": "Africa/Nairobi",
    "latitude": -1.44627,
    "longitude": 37.38354
  },
  {
    "city": "Vulueni",
    "city_zh": "Vulueni",
    "country": "Kenya",
    "country_zh": "肯亞",
    "country_iso_code": "KE",
    "timezone": "Africa/Nairobi",
    "latitude": -1.98144,
    "longitude": 37.40989
  },
  {
    "city": "Vuga",
    "city_zh": "Vuga",
    "country": "Kenya",
    "country_zh": "肯亞",
    "country_iso_code": "KE",
    "timezone": "Africa/Nairobi",
    "latitude": -4.18884,
    "longitude": 39.49816
  },
  {
    "city": "Voo",
    "city_zh": "Voo",
    "country": "Kenya",
    "country_zh": "肯亞",
    "country_iso_code": "KE",
    "timezone": "Africa/Nairobi",
    "latitude": -1.66736,
    "longitude": 38.32429
  },
  {
    "city": "Voi",
    "city_zh": "Voi",
    "country": "Kenya",
    "country_zh": "肯亞",
    "country_iso_code": "KE",
    "timezone": "Africa/Nairobi",
    "latitude": -3.39605,
    "longitude": 38.55609
  },
  {
    "city": "Viyalo",
    "city_zh": "Viyalo",
    "country": "Kenya",
    "country_zh": "肯亞",
    "country_iso_code": "KE",
    "timezone": "Africa/Nairobi",
    "latitude": 0.11152,
    "longitude": 34.6954
  },
  {
    "city": "Vivini",
    "city_zh": "Vivini",
    "country": "Kenya",
    "country_zh": "肯亞",
    "country_iso_code": "KE",
    "timezone": "Africa/Nairobi",
    "latitude": -4.46387,
    "longitude": 39.34996
  },
  {
    "city": "Vitsangalaweni",
    "city_zh": "Vitsangalaweni",
    "country": "Kenya",
    "country_zh": "肯亞",
    "country_iso_code": "KE",
    "timezone": "Africa/Nairobi",
    "latitude": -4.44117,
    "longitude": 39.19108
  },
  {
    "city": "Vitengeni",
    "city_zh": "Vitengeni",
    "country": "Kenya",
    "country_zh": "肯亞",
    "country_iso_code": "KE",
    "timezone": "Africa/Nairobi",
    "latitude": -3.3638,
    "longitude": 39.71026
  },
  {
    "city": "Vinagoni",
    "city_zh": "Vinagoni",
    "country": "Kenya",
    "country_zh": "肯亞",
    "country_iso_code": "KE",
    "timezone": "Africa/Nairobi",
    "latitude": -3.70763,
    "longitude": 39.53382
  },
  {
    "city": "Vipingo",
    "city_zh": "Vipingo",
    "country": "Kenya",
    "country_zh": "肯亞",
    "country_iso_code": "KE",
    "timezone": "Africa/Nairobi",
    "latitude": -3.81466,
    "longitude": 39.81282
  },
  {
    "city": "Vinuni",
    "city_zh": "Vinuni",
    "country": "Kenya",
    "country_zh": "肯亞",
    "country_iso_code": "KE",
    "timezone": "Africa/Nairobi",
    "latitude": -4.19506,
    "longitude": 39.53946
  },
  {
    "city": "Vingujini",
    "city_zh": "Vingujini",
    "country": "Kenya",
    "country_zh": "肯亞",
    "country_iso_code": "KE",
    "timezone": "Africa/Nairobi",
    "latitude": -4.4648,
    "longitude": 39.48306
  },
  {
    "city": "Vikinduni",
    "city_zh": "Vikinduni",
    "country": "Kenya",
    "country_zh": "肯亞",
    "country_iso_code": "KE",
    "timezone": "Africa/Nairobi",
    "latitude": -4.25746,
    "longitude": 39.14288
  },
  {
    "city": "Vihiga",
    "city_zh": "Vihiga",
    "country": "Kenya",
    "country_zh": "肯亞",
    "country_iso_code": "KE",
    "timezone": "Africa/Nairobi",
    "latitude": 0.53599,
    "longitude": 34.79258
  },
  {
    "city": "Vihiga",
    "city_zh": "Vihiga",
    "country": "Kenya",
    "country_zh": "肯亞",
    "country_iso_code": "KE",
    "timezone": "Africa/Nairobi",
    "latitude": 0.03692,
    "longitude": 34.7101
  },
  {
    "city": "Vihiga",
    "city_zh": "Vihiga",
    "country": "Kenya",
    "country_zh": "肯亞",
    "country_iso_code": "KE",
    "timezone": "Africa/Nairobi",
    "latitude": 0.2915,
    "longitude": 34.94347
  },
  {
    "city": "Vigina",
    "city_zh": "Vigina",
    "country": "Kenya",
    "country_zh": "肯亞",
    "country_iso_code": "KE",
    "timezone": "Africa/Nairobi",
    "latitude": 0.02986,
    "longitude": 34.69128
  },
  {
    "city": "Vifanjoni",
    "city_zh": "Vifanjoni",
    "country": "Kenya",
    "country_zh": "肯亞",
    "country_iso_code": "KE",
    "timezone": "Africa/Nairobi",
    "latitude": -3.94639,
    "longitude": 39.64355
  },
  {
    "city": "Vidungeni",
    "city_zh": "Vidungeni",
    "country": "Kenya",
    "country_zh": "肯亞",
    "country_iso_code": "KE",
    "timezone": "Africa/Nairobi",
    "latitude": -4.45743,
    "longitude": 39.45287
  },
  {
    "city": "Vanga",
    "city_zh": "Vanga",
    "country": "Kenya",
    "country_zh": "肯亞",
    "country_iso_code": "KE",
    "timezone": "Africa/Nairobi",
    "latitude": -4.65948,
    "longitude": 39.21847
  },
  {
    "city": "Uyombo",
    "city_zh": "Uyombo",
    "country": "Kenya",
    "country_zh": "肯亞",
    "country_iso_code": "KE",
    "timezone": "Africa/Nairobi",
    "latitude": -3.39547,
    "longitude": 39.95905
  },
  {
    "city": "Uyoma",
    "city_zh": "Uyoma",
    "country": "Kenya",
    "country_zh": "肯亞",
    "country_iso_code": "KE",
    "timezone": "Africa/Nairobi",
    "latitude": 0.12191,
    "longitude": 34.29966
  },
  {
    "city": "Uyawi",
    "city_zh": "Uyawi",
    "country": "Kenya",
    "country_zh": "肯亞",
    "country_iso_code": "KE",
    "timezone": "Africa/Nairobi",
    "latitude": -0.18804,
    "longitude": 34.15465
  },
  {
    "city": "Uwai",
    "city_zh": "Uwai",
    "country": "Kenya",
    "country_zh": "肯亞",
    "country_iso_code": "KE",
    "timezone": "Africa/Nairobi",
    "latitude": 0.23502,
    "longitude": 34.17411
  },
  {
    "city": "Uvete",
    "city_zh": "Uvete",
    "country": "Kenya",
    "country_zh": "肯亞",
    "country_iso_code": "KE",
    "timezone": "Africa/Nairobi",
    "latitude": -1.95,
    "longitude": 37.35
  },
  {
    "city": "Utuneni",
    "city_zh": "Utuneni",
    "country": "Kenya",
    "country_zh": "肯亞",
    "country_iso_code": "KE",
    "timezone": "Africa/Nairobi",
    "latitude": -1.59545,
    "longitude": 37.50465
  },
  {
    "city": "Utithini",
    "city_zh": "Utithini",
    "country": "Kenya",
    "country_zh": "肯亞",
    "country_iso_code": "KE",
    "timezone": "Africa/Nairobi",
    "latitude": -1.51632,
    "longitude": 37.54294
  },
  {
    "city": "Utithi",
    "city_zh": "Utithi",
    "country": "Kenya",
    "country_zh": "肯亞",
    "country_iso_code": "KE",
    "timezone": "Africa/Nairobi",
    "latitude": -2.53893,
    "longitude": 37.99697
  },
  {
    "city": "Uthiru",
    "city_zh": "Uthiru",
    "country": "Kenya",
    "country_zh": "肯亞",
    "country_iso_code": "KE",
    "timezone": "Africa/Nairobi",
    "latitude": -1.25392,
    "longitude": 36.71233
  },
  {
    "city": "Utangwa",
    "city_zh": "Utangwa",
    "country": "Kenya",
    "country_zh": "肯亞",
    "country_iso_code": "KE",
    "timezone": "Africa/Nairobi",
    "latitude": -1.70775,
    "longitude": 37.44702
  },
  {
    "city": "Utange",
    "city_zh": "Utange",
    "country": "Kenya",
    "country_zh": "肯亞",
    "country_iso_code": "KE",
    "timezone": "Africa/Nairobi",
    "latitude": -3.97398,
    "longitude": 39.72763
  },
  {
    "city": "Utajo",
    "city_zh": "Utajo",
    "country": "Kenya",
    "country_zh": "肯亞",
    "country_iso_code": "KE",
    "timezone": "Africa/Nairobi",
    "latitude": -0.38017,
    "longitude": 34.21368
  },
  {
    "city": "Utaati",
    "city_zh": "Utaati",
    "country": "Kenya",
    "country_zh": "肯亞",
    "country_iso_code": "KE",
    "timezone": "Africa/Nairobi",
    "latitude": -1.78279,
    "longitude": 37.49787
  },
  {
    "city": "Usueni",
    "city_zh": "Usueni",
    "country": "Kenya",
    "country_zh": "肯亞",
    "country_iso_code": "KE",
    "timezone": "Africa/Nairobi",
    "latitude": -0.15261,
    "longitude": 38.20105
  },
  {
    "city": "Usingo",
    "city_zh": "Usingo",
    "country": "Kenya",
    "country_zh": "肯亞",
    "country_iso_code": "KE",
    "timezone": "Africa/Nairobi",
    "latitude": 0.03095,
    "longitude": 34.29554
  },
  {
    "city": "Usigu",
    "city_zh": "Usigu",
    "country": "Kenya",
    "country_zh": "肯亞",
    "country_iso_code": "KE",
    "timezone": "Africa/Nairobi",
    "latitude": -0.05918,
    "longitude": 34.09285
  },
  {
    "city": "Ushingo",
    "city_zh": "Ushingo",
    "country": "Kenya",
    "country_zh": "肯亞",
    "country_iso_code": "KE",
    "timezone": "Africa/Nairobi",
    "latitude": -2.76667,
    "longitude": 39.66667
  },
  {
    "city": "Usao",
    "city_zh": "Usao",
    "country": "Kenya",
    "country_zh": "肯亞",
    "country_iso_code": "KE",
    "timezone": "Africa/Nairobi",
    "latitude": -0.46305,
    "longitude": 34.37492
  },
  {
    "city": "Urumathi",
    "city_zh": "Urumathi",
    "country": "Kenya",
    "country_zh": "肯亞",
    "country_iso_code": "KE",
    "timezone": "Africa/Nairobi",
    "latitude": -1.05,
    "longitude": 36.83333
  },
  {
    "city": "Uriri",
    "city_zh": "Uriri",
    "country": "Kenya",
    "country_zh": "肯亞",
    "country_iso_code": "KE",
    "timezone": "Africa/Nairobi",
    "latitude": 0.03056,
    "longitude": 34.44474
  },
  {
    "city": "Uriri",
    "city_zh": "Uriri",
    "country": "Kenya",
    "country_zh": "肯亞",
    "country_iso_code": "KE",
    "timezone": "Africa/Nairobi",
    "latitude": -0.95543,
    "longitude": 34.5119
  },
  {
    "city": "Uranga",
    "city_zh": "Uranga",
    "country": "Kenya",
    "country_zh": "肯亞",
    "country_iso_code": "KE",
    "timezone": "Africa/Nairobi",
    "latitude": 0.03068,
    "longitude": 34.5477
  },
  {
    "city": "Uranga",
    "city_zh": "Uranga",
    "country": "Kenya",
    "country_zh": "肯亞",
    "country_iso_code": "KE",
    "timezone": "Africa/Nairobi",
    "latitude": 0.11667,
    "longitude": 34.15
  },
  {
    "city": "Upper Hill Estate",
    "city_zh": "Upper Hill Estate",
    "country": "Kenya",
    "country_zh": "肯亞",
    "country_iso_code": "KE",
    "timezone": "Africa/Nairobi",
    "latitude": -1.29528,
    "longitude": 36.78693
  },
  {
    "city": "Gatara",
    "city_zh": "Gatara",
    "country": "Kenya",
    "country_zh": "肯亞",
    "country_iso_code": "KE",
    "timezone": "Africa/Nairobi",
    "latitude": -0.73535,
    "longitude": 36.88254
  },
  {
    "city": "Uvete",
    "city_zh": "Uvete",
    "country": "Kenya",
    "country_zh": "肯亞",
    "country_iso_code": "KE",
    "timezone": "Africa/Nairobi",
    "latitude": -1.85422,
    "longitude": 37.35095
  },
  {
    "city": "Unjiru",
    "city_zh": "Unjiru",
    "country": "Kenya",
    "country_zh": "肯亞",
    "country_iso_code": "KE",
    "timezone": "Africa/Nairobi",
    "latitude": -0.45193,
    "longitude": 37.11212
  },
  {
    "city": "Unga",
    "city_zh": "Unga",
    "country": "Kenya",
    "country_zh": "肯亞",
    "country_iso_code": "KE",
    "timezone": "Africa/Nairobi",
    "latitude": -0.77396,
    "longitude": 34.40964
  },
  {
    "city": "Wumingu",
    "city_zh": "Wumingu",
    "country": "Kenya",
    "country_zh": "肯亞",
    "country_iso_code": "KE",
    "timezone": "Africa/Nairobi",
    "latitude": -3.35604,
    "longitude": 38.32517
  },
  {
    "city": "Umbui",
    "city_zh": "Umbui",
    "country": "Kenya",
    "country_zh": "肯亞",
    "country_iso_code": "KE",
    "timezone": "Africa/Nairobi",
    "latitude": -0.61991,
    "longitude": 36.94138
  },
  {
    "city": "Umande",
    "city_zh": "Umande",
    "country": "Kenya",
    "country_zh": "肯亞",
    "country_iso_code": "KE",
    "timezone": "Africa/Nairobi",
    "latitude": 0.09647,
    "longitude": 37.15087
  },
  {
    "city": "Umala",
    "city_zh": "Umala",
    "country": "Kenya",
    "country_zh": "肯亞",
    "country_iso_code": "KE",
    "timezone": "Africa/Nairobi",
    "latitude": 0.06523,
    "longitude": 34.34468
  },
  {
    "city": "Ulu Settlement",
    "city_zh": "Ulu Settlement",
    "country": "Kenya",
    "country_zh": "肯亞",
    "country_iso_code": "KE",
    "timezone": "Africa/Nairobi",
    "latitude": -1.79832,
    "longitude": 37.27203
  },
  {
    "city": "Ulumbi",
    "city_zh": "Ulumbi",
    "country": "Kenya",
    "country_zh": "肯亞",
    "country_iso_code": "KE",
    "timezone": "Africa/Nairobi",
    "latitude": 0.09878,
    "longitude": 34.55331
  },
  {
    "city": "Uludu",
    "city_zh": "Uludu",
    "country": "Kenya",
    "country_zh": "肯亞",
    "country_iso_code": "KE",
    "timezone": "Africa/Nairobi",
    "latitude": 0.20305,
    "longitude": 34.22292
  },
  {
    "city": "Ulu",
    "city_zh": "Ulu",
    "country": "Kenya",
    "country_zh": "肯亞",
    "country_iso_code": "KE",
    "timezone": "Africa/Nairobi",
    "latitude": -1.81222,
    "longitude": 37.15048
  },
  {
    "city": "Ulro",
    "city_zh": "Ulro",
    "country": "Kenya",
    "country_zh": "肯亞",
    "country_iso_code": "KE",
    "timezone": "Africa/Nairobi",
    "latitude": -0.84378,
    "longitude": 34.28265
  },
  {
    "city": "Ukwala",
    "city_zh": "Ukwala",
    "country": "Kenya",
    "country_zh": "肯亞",
    "country_iso_code": "KE",
    "timezone": "Africa/Nairobi",
    "latitude": 0.1926,
    "longitude": 34.18723
  },
  {
    "city": "Ukunda",
    "city_zh": "Ukunda",
    "country": "Kenya",
    "country_zh": "肯亞",
    "country_iso_code": "KE",
    "timezone": "Africa/Nairobi",
    "latitude": -4.2929,
    "longitude": 39.56404
  },
  {
    "city": "Wakula",
    "city_zh": "Wakula",
    "country": "Kenya",
    "country_zh": "肯亞",
    "country_iso_code": "KE",
    "timezone": "Africa/Nairobi",
    "latitude": -0.47995,
    "longitude": 33.99025
  },
  {
    "city": "Ukula",
    "city_zh": "Ukula",
    "country": "Kenya",
    "country_zh": "肯亞",
    "country_iso_code": "KE",
    "timezone": "Africa/Nairobi",
    "latitude": -0.45041,
    "longitude": 33.98673
  },
  {
    "city": "Ukinga",
    "city_zh": "Ukinga",
    "country": "Kenya",
    "country_zh": "肯亞",
    "country_iso_code": "KE",
    "timezone": "Africa/Nairobi",
    "latitude": -0.49137,
    "longitude": 34.03388
  },
  {
    "city": "Uhuru Estate",
    "city_zh": "Uhuru Estate",
    "country": "Kenya",
    "country_zh": "肯亞",
    "country_iso_code": "KE",
    "timezone": "Africa/Nairobi",
    "latitude": -1.28494,
    "longitude": 36.86683
  },
  {
    "city": "Uholo",
    "city_zh": "Uholo",
    "country": "Kenya",
    "country_zh": "肯亞",
    "country_iso_code": "KE",
    "timezone": "Africa/Nairobi",
    "latitude": 0.18889,
    "longitude": 34.33417
  },
  {
    "city": "Ogunja",
    "city_zh": "Ogunja",
    "country": "Kenya",
    "country_zh": "肯亞",
    "country_iso_code": "KE",
    "timezone": "Africa/Nairobi",
    "latitude": 0.19019,
    "longitude": 34.29916
  },
  {
    "city": "Ugari",
    "city_zh": "Ugari",
    "country": "Kenya",
    "country_zh": "肯亞",
    "country_iso_code": "KE",
    "timezone": "Africa/Nairobi",
    "latitude": -1.02289,
    "longitude": 34.49782
  },
  {
    "city": "Uaso Nyiro Settlement",
    "city_zh": "Uaso Nyiro Settlement",
    "country": "Kenya",
    "country_zh": "肯亞",
    "country_iso_code": "KE",
    "timezone": "Africa/Nairobi",
    "latitude": -0.27301,
    "longitude": 36.826
  },
  {
    "city": "Uamaini",
    "city_zh": "Uamaini",
    "country": "Kenya",
    "country_zh": "肯亞",
    "country_iso_code": "KE",
    "timezone": "Africa/Nairobi",
    "latitude": -1.54157,
    "longitude": 37.31336
  },
  {
    "city": "Uaani",
    "city_zh": "Uaani",
    "country": "Kenya",
    "country_zh": "肯亞",
    "country_iso_code": "KE",
    "timezone": "Africa/Nairobi",
    "latitude": -1.56678,
    "longitude": 37.53882
  },
  {
    "city": "Twin Rivers Estate",
    "city_zh": "Twin Rivers Estate",
    "country": "Kenya",
    "country_zh": "肯亞",
    "country_iso_code": "KE",
    "timezone": "Africa/Nairobi",
    "latitude": -1.0991,
    "longitude": 37.33386
  },
  {
    "city": "Twaandu",
    "city_zh": "Twaandu",
    "country": "Kenya",
    "country_zh": "肯亞",
    "country_iso_code": "KE",
    "timezone": "Africa/Nairobi",
    "latitude": -2.14329,
    "longitude": 37.76767
  },
  {
    "city": "Tututha",
    "city_zh": "Tututha",
    "country": "Kenya",
    "country_zh": "肯亞",
    "country_iso_code": "KE",
    "timezone": "Africa/Nairobi",
    "latitude": -1.58506,
    "longitude": 37.41405
  },
  {
    "city": "Tuthu",
    "city_zh": "Tuthu",
    "country": "Kenya",
    "country_zh": "肯亞",
    "country_iso_code": "KE",
    "timezone": "Africa/Nairobi",
    "latitude": -0.66814,
    "longitude": 36.83819
  },
  {
    "city": "Tusha",
    "city_zh": "Tusha",
    "country": "Kenya",
    "country_zh": "肯亞",
    "country_iso_code": "KE",
    "timezone": "Africa/Nairobi",
    "latitude": -0.47177,
    "longitude": 36.82437
  },
  {
    "city": "Turi",
    "city_zh": "Turi",
    "country": "Kenya",
    "country_zh": "肯亞",
    "country_iso_code": "KE",
    "timezone": "Africa/Nairobi",
    "latitude": -0.28244,
    "longitude": 35.75861
  },
  {
    "city": "Turbo",
    "city_zh": "Turbo",
    "country": "Kenya",
    "country_zh": "肯亞",
    "country_iso_code": "KE",
    "timezone": "Africa/Nairobi",
    "latitude": 0.63367,
    "longitude": 35.04815
  },
  {
    "city": "Turasha Ridge Settlement",
    "city_zh": "Turasha Ridge Settlement",
    "country": "Kenya",
    "country_zh": "肯亞",
    "country_iso_code": "KE",
    "timezone": "Africa/Nairobi",
    "latitude": -0.48332,
    "longitude": 36.41855
  },
  {
    "city": "Turasha",
    "city_zh": "Turasha",
    "country": "Kenya",
    "country_zh": "肯亞",
    "country_iso_code": "KE",
    "timezone": "Africa/Nairobi",
    "latitude": -0.47174,
    "longitude": 36.44452
  },
  {
    "city": "Tura",
    "city_zh": "Tura",
    "country": "Kenya",
    "country_zh": "肯亞",
    "country_iso_code": "KE",
    "timezone": "Africa/Nairobi",
    "latitude": 0.53017,
    "longitude": 37.03626
  },
  {
    "city": "Tunyai",
    "city_zh": "Tunyai",
    "country": "Kenya",
    "country_zh": "肯亞",
    "country_iso_code": "KE",
    "timezone": "Africa/Nairobi",
    "latitude": -0.17606,
    "longitude": 37.83691
  },
  {
    "city": "Tuni",
    "city_zh": "Tuni",
    "country": "Kenya",
    "country_zh": "肯亞",
    "country_iso_code": "KE",
    "timezone": "Africa/Nairobi",
    "latitude": -1.00645,
    "longitude": 39.89318
  },
  {
    "city": "Tungu",
    "city_zh": "Tungu",
    "country": "Kenya",
    "country_zh": "肯亞",
    "country_iso_code": "KE",
    "timezone": "Africa/Nairobi",
    "latitude": -0.31174,
    "longitude": 37.62824
  },
  {
    "city": "Tumoi",
    "city_zh": "Tumoi",
    "country": "Kenya",
    "country_zh": "肯亞",
    "country_iso_code": "KE",
    "timezone": "Africa/Nairobi",
    "latitude": -0.88014,
    "longitude": 35.2756
  },
  {
    "city": "Tumeiyo",
    "city_zh": "Tumeiyo",
    "country": "Kenya",
    "country_zh": "肯亞",
    "country_iso_code": "KE",
    "timezone": "Africa/Nairobi",
    "latitude": 0.22814,
    "longitude": 35.53101
  },
  {
    "city": "Tulwet",
    "city_zh": "Tulwet",
    "country": "Kenya",
    "country_zh": "肯亞",
    "country_iso_code": "KE",
    "timezone": "Africa/Nairobi",
    "latitude": -0.4884,
    "longitude": 35.12968
  },
  {
    "city": "Tuluongoi",
    "city_zh": "Tuluongoi",
    "country": "Kenya",
    "country_zh": "肯亞",
    "country_iso_code": "KE",
    "timezone": "Africa/Nairobi",
    "latitude": 0.27742,
    "longitude": 35.80884
  },
  {
    "city": "Tulu",
    "city_zh": "Tulu",
    "country": "Kenya",
    "country_zh": "肯亞",
    "country_iso_code": "KE",
    "timezone": "Africa/Nairobi",
    "latitude": -2.2747,
    "longitude": 40.09454
  },
  {
    "city": "Tulon",
    "city_zh": "Tulon",
    "country": "Kenya",
    "country_zh": "肯亞",
    "country_iso_code": "KE",
    "timezone": "Africa/Nairobi",
    "latitude": 0.26893,
    "longitude": 35.20264
  },
  {
    "city": "Tulia",
    "city_zh": "Tulia",
    "country": "Kenya",
    "country_zh": "肯亞",
    "country_iso_code": "KE",
    "timezone": "Africa/Nairobi",
    "latitude": -1.1858,
    "longitude": 37.97774
  },
  {
    "city": "Tulaga",
    "city_zh": "Tulaga",
    "country": "Kenya",
    "country_zh": "肯亞",
    "country_iso_code": "KE",
    "timezone": "Africa/Nairobi",
    "latitude": -0.64151,
    "longitude": 36.61647
  },
  {
    "city": "Tula",
    "city_zh": "Tula",
    "country": "Kenya",
    "country_zh": "肯亞",
    "country_iso_code": "KE",
    "timezone": "Africa/Nairobi",
    "latitude": -0.8478,
    "longitude": 39.69976
  },
  {
    "city": "Tukeli",
    "city_zh": "Tukeli",
    "country": "Kenya",
    "country_zh": "肯亞",
    "country_iso_code": "KE",
    "timezone": "Africa/Nairobi",
    "latitude": -1.06667,
    "longitude": 40.86667
  },
  {
    "city": "Tsunguni",
    "city_zh": "Tsunguni",
    "country": "Kenya",
    "country_zh": "肯亞",
    "country_iso_code": "KE",
    "timezone": "Africa/Nairobi",
    "latitude": -3.8148,
    "longitude": 39.66991
  },
  {
    "city": "Tseikuru",
    "city_zh": "Tseikuru",
    "country": "Kenya",
    "country_zh": "肯亞",
    "country_iso_code": "KE",
    "timezone": "Africa/Nairobi",
    "latitude": -0.30752,
    "longitude": 38.217
  },
  {
    "city": "Tsavo",
    "city_zh": "Tsavo",
    "country": "Kenya",
    "country_zh": "肯亞",
    "country_iso_code": "KE",
    "timezone": "Africa/Nairobi",
    "latitude": -2.99783,
    "longitude": 38.45846
  },
  {
    "city": "Tsangatsini",
    "city_zh": "Tsangatsini",
    "country": "Kenya",
    "country_zh": "肯亞",
    "country_iso_code": "KE",
    "timezone": "Africa/Nairobi",
    "latitude": -3.71311,
    "longitude": 39.44938
  },
  {
    "city": "Tsangalaweni",
    "city_zh": "Tsangalaweni",
    "country": "Kenya",
    "country_zh": "肯亞",
    "country_iso_code": "KE",
    "timezone": "Africa/Nairobi",
    "latitude": -3.52503,
    "longitude": 39.69971
  },
  {
    "city": "Tot",
    "city_zh": "Tot",
    "country": "Kenya",
    "country_zh": "肯亞",
    "country_iso_code": "KE",
    "timezone": "Africa/Nairobi",
    "latitude": 1.20342,
    "longitude": 35.65737
  },
  {
    "city": "Torongo",
    "city_zh": "Torongo",
    "country": "Kenya",
    "country_zh": "肯亞",
    "country_iso_code": "KE",
    "timezone": "Africa/Nairobi",
    "latitude": 0.12486,
    "longitude": 35.59871
  },
  {
    "city": "Tuuru",
    "city_zh": "Tuuru",
    "country": "Kenya",
    "country_zh": "肯亞",
    "country_iso_code": "KE",
    "timezone": "Africa/Nairobi",
    "latitude": 0.31955,
    "longitude": 37.93076
  },
  {
    "city": "Toritu",
    "city_zh": "Toritu",
    "country": "Kenya",
    "country_zh": "肯亞",
    "country_iso_code": "KE",
    "timezone": "Africa/Nairobi",
    "latitude": -1.16667,
    "longitude": 36.8
  },
  {
    "city": "Torikoi",
    "city_zh": "Torikoi",
    "country": "Kenya",
    "country_zh": "肯亞",
    "country_iso_code": "KE",
    "timezone": "Africa/Nairobi",
    "latitude": 2.40821,
    "longitude": 34.96283
  },
  {
    "city": "Tonye",
    "city_zh": "Tonye",
    "country": "Kenya",
    "country_zh": "肯亞",
    "country_iso_code": "KE",
    "timezone": "Africa/Nairobi",
    "latitude": -0.70959,
    "longitude": 34.62787
  },
  {
    "city": "Tonga",
    "city_zh": "Tonga",
    "country": "Kenya",
    "country_zh": "肯亞",
    "country_iso_code": "KE",
    "timezone": "Africa/Nairobi",
    "latitude": -0.69296,
    "longitude": 34.12086
  },
  {
    "city": "Tombe",
    "city_zh": "Tombe",
    "country": "Kenya",
    "country_zh": "肯亞",
    "country_iso_code": "KE",
    "timezone": "Africa/Nairobi",
    "latitude": -0.65369,
    "longitude": 34.87447
  },
  {
    "city": "Toloso",
    "city_zh": "Toloso",
    "country": "Kenya",
    "country_zh": "肯亞",
    "country_iso_code": "KE",
    "timezone": "Africa/Nairobi",
    "latitude": 0.81821,
    "longitude": 34.48393
  },
  {
    "city": "Tokitok",
    "city_zh": "Tokitok",
    "country": "Kenya",
    "country_zh": "肯亞",
    "country_iso_code": "KE",
    "timezone": "Africa/Nairobi",
    "latitude": -0.55829,
    "longitude": 35.71872
  },
  {
    "city": "Toibetia",
    "city_zh": "Toibetia",
    "country": "Kenya",
    "country_zh": "肯亞",
    "country_iso_code": "KE",
    "timezone": "Africa/Nairobi",
    "latitude": -0.39742,
    "longitude": 37.75338
  },
  {
    "city": "Tiwi",
    "city_zh": "Tiwi",
    "country": "Kenya",
    "country_zh": "肯亞",
    "country_iso_code": "KE",
    "timezone": "Africa/Nairobi",
    "latitude": -4.23934,
    "longitude": 39.57638
  },
  {
    "city": "Tiva",
    "city_zh": "Tiva",
    "country": "Kenya",
    "country_zh": "肯亞",
    "country_iso_code": "KE",
    "timezone": "Africa/Nairobi",
    "latitude": -1.42583,
    "longitude": 37.88113
  },
  {
    "city": "Titila",
    "city_zh": "Titila",
    "country": "Kenya",
    "country_zh": "肯亞",
    "country_iso_code": "KE",
    "timezone": "Africa/Nairobi",
    "latitude": -1.53333,
    "longitude": 39.21667
  },
  {
    "city": "Tiriondonin",
    "city_zh": "Tiriondonin",
    "country": "Kenya",
    "country_zh": "肯亞",
    "country_iso_code": "KE",
    "timezone": "Africa/Nairobi",
    "latitude": 0.64724,
    "longitude": 35.76623
  },
  {
    "city": "Tirimionin",
    "city_zh": "Tirimionin",
    "country": "Kenya",
    "country_zh": "肯亞",
    "country_iso_code": "KE",
    "timezone": "Africa/Nairobi",
    "latitude": 0.65841,
    "longitude": 35.81926
  },
  {
    "city": "Tiribe",
    "city_zh": "Tiribe",
    "country": "Kenya",
    "country_zh": "肯亞",
    "country_iso_code": "KE",
    "timezone": "Africa/Nairobi",
    "latitude": -4.31949,
    "longitude": 39.25494
  },
  {
    "city": "Tingolo",
    "city_zh": "Tingolo",
    "country": "Kenya",
    "country_zh": "肯亞",
    "country_iso_code": "KE",
    "timezone": "Africa/Nairobi",
    "latitude": 0.31741,
    "longitude": 34.37235
  },
  {
    "city": "Tinganga",
    "city_zh": "Tinganga",
    "country": "Kenya",
    "country_zh": "肯亞",
    "country_iso_code": "KE",
    "timezone": "Africa/Nairobi",
    "latitude": -1.13033,
    "longitude": 36.81358
  },
  {
    "city": "Tinga",
    "city_zh": "Tinga",
    "country": "Kenya",
    "country_zh": "肯亞",
    "country_iso_code": "KE",
    "timezone": "Africa/Nairobi",
    "latitude": -0.61072,
    "longitude": 34.88947
  },
  {
    "city": "Tindini",
    "city_zh": "Tindini",
    "country": "Kenya",
    "country_zh": "肯亞",
    "country_iso_code": "KE",
    "timezone": "Africa/Nairobi",
    "latitude": -3.64597,
    "longitude": 39.45934
  },
  {
    "city": "Timsales Timboroa",
    "city_zh": "Timsales Timboroa",
    "country": "Kenya",
    "country_zh": "肯亞",
    "country_iso_code": "KE",
    "timezone": "Africa/Nairobi",
    "latitude": 0.06746,
    "longitude": 35.48488
  },
  {
    "city": "Timboiwo",
    "city_zh": "Timboiwo",
    "country": "Kenya",
    "country_zh": "肯亞",
    "country_iso_code": "KE",
    "timezone": "Africa/Nairobi",
    "latitude": 0.42314,
    "longitude": 35.79771
  },
  {
    "city": "Timbila",
    "city_zh": "Timbila",
    "country": "Kenya",
    "country_zh": "肯亞",
    "country_iso_code": "KE",
    "timezone": "Africa/Nairobi",
    "latitude": -3.37061,
    "longitude": 37.71116
  },
  {
    "city": "Timau",
    "city_zh": "Timau",
    "country": "Kenya",
    "country_zh": "肯亞",
    "country_iso_code": "KE",
    "timezone": "Africa/Nairobi",
    "latitude": 0.0835,
    "longitude": 37.23925
  },
  {
    "city": "Tilolwa",
    "city_zh": "Tilolwa",
    "country": "Kenya",
    "country_zh": "肯亞",
    "country_iso_code": "KE",
    "timezone": "Africa/Nairobi",
    "latitude": 0.22914,
    "longitude": 35.10573
  },
  {
    "city": "Tiira",
    "city_zh": "Tiira",
    "country": "Kenya",
    "country_zh": "肯亞",
    "country_iso_code": "KE",
    "timezone": "Africa/Nairobi",
    "latitude": 0.14632,
    "longitude": 37.94789
  },
  {
    "city": "Tigoni",
    "city_zh": "Tigoni",
    "country": "Kenya",
    "country_zh": "肯亞",
    "country_iso_code": "KE",
    "timezone": "Africa/Nairobi",
    "latitude": -1.12803,
    "longitude": 36.67119
  },
  {
    "city": "Tigania",
    "city_zh": "Tigania",
    "country": "Kenya",
    "country_zh": "肯亞",
    "country_iso_code": "KE",
    "timezone": "Africa/Nairobi",
    "latitude": 0.19765,
    "longitude": 37.79039
  },
  {
    "city": "Tieng’re",
    "city_zh": "Tieng’re",
    "country": "Kenya",
    "country_zh": "肯亞",
    "country_iso_code": "KE",
    "timezone": "Africa/Nairobi",
    "latitude": -0.07717,
    "longitude": 34.6777
  },
  {
    "city": "Tiekunu",
    "city_zh": "Tiekunu",
    "country": "Kenya",
    "country_zh": "肯亞",
    "country_iso_code": "KE",
    "timezone": "Africa/Nairobi",
    "latitude": -1.11949,
    "longitude": 36.59602
  },
  {
    "city": "Thwake",
    "city_zh": "Thwake",
    "country": "Kenya",
    "country_zh": "肯亞",
    "country_iso_code": "KE",
    "timezone": "Africa/Nairobi",
    "latitude": -1.71492,
    "longitude": 37.69738
  },
  {
    "city": "Thuva",
    "city_zh": "Thuva",
    "country": "Kenya",
    "country_zh": "肯亞",
    "country_iso_code": "KE",
    "timezone": "Africa/Nairobi",
    "latitude": -3.58013,
    "longitude": 39.70009
  },
  {
    "city": "Thuura",
    "city_zh": "Thuura",
    "country": "Kenya",
    "country_zh": "肯亞",
    "country_iso_code": "KE",
    "timezone": "Africa/Nairobi",
    "latitude": 0.04797,
    "longitude": 37.70819
  },
  {
    "city": "Thuthuriki",
    "city_zh": "Thuthuriki",
    "country": "Kenya",
    "country_zh": "肯亞",
    "country_iso_code": "KE",
    "timezone": "Africa/Nairobi",
    "latitude": -0.06667,
    "longitude": 36.76667
  },
  {
    "city": "Thur Gem",
    "city_zh": "Thur Gem",
    "country": "Kenya",
    "country_zh": "肯亞",
    "country_iso_code": "KE",
    "timezone": "Africa/Nairobi",
    "latitude": -0.29062,
    "longitude": 35.00399
  },
  {
    "city": "Thurdibuoro",
    "city_zh": "Thurdibuoro",
    "country": "Kenya",
    "country_zh": "肯亞",
    "country_iso_code": "KE",
    "timezone": "Africa/Nairobi",
    "latitude": -0.34739,
    "longitude": 34.83635
  },
  {
    "city": "Thunguri",
    "city_zh": "Thunguri",
    "country": "Kenya",
    "country_zh": "肯亞",
    "country_iso_code": "KE",
    "timezone": "Africa/Nairobi",
    "latitude": -0.8878,
    "longitude": 36.81473
  },
  {
    "city": "Thunguri",
    "city_zh": "Thunguri",
    "country": "Kenya",
    "country_zh": "肯亞",
    "country_iso_code": "KE",
    "timezone": "Africa/Nairobi",
    "latitude": -0.56667,
    "longitude": 37.05
  },
  {
    "city": "Thunguri",
    "city_zh": "Thunguri",
    "country": "Kenya",
    "country_zh": "肯亞",
    "country_iso_code": "KE",
    "timezone": "Africa/Nairobi",
    "latitude": -0.55361,
    "longitude": 36.91003
  },
  {
    "city": "Thunguma",
    "city_zh": "Thunguma",
    "country": "Kenya",
    "country_zh": "肯亞",
    "country_iso_code": "KE",
    "timezone": "Africa/Nairobi",
    "latitude": -0.43747,
    "longitude": 36.98906
  },
  {
    "city": "Thumbereria",
    "city_zh": "Thumbereria",
    "country": "Kenya",
    "country_zh": "肯亞",
    "country_iso_code": "KE",
    "timezone": "Africa/Nairobi",
    "latitude": 0.30901,
    "longitude": 37.88688
  },
  {
    "city": "Thumaita",
    "city_zh": "Thumaita",
    "country": "Kenya",
    "country_zh": "肯亞",
    "country_iso_code": "KE",
    "timezone": "Africa/Nairobi",
    "latitude": -0.44657,
    "longitude": 37.36603
  },
  {
    "city": "Thuita",
    "city_zh": "Thuita",
    "country": "Kenya",
    "country_zh": "肯亞",
    "country_iso_code": "KE",
    "timezone": "Africa/Nairobi",
    "latitude": -1.06935,
    "longitude": 36.87296
  },
  {
    "city": "Thuita",
    "city_zh": "Thuita",
    "country": "Kenya",
    "country_zh": "肯亞",
    "country_iso_code": "KE",
    "timezone": "Africa/Nairobi",
    "latitude": -0.91268,
    "longitude": 36.97301
  },
  {
    "city": "Thuita",
    "city_zh": "Thuita",
    "country": "Kenya",
    "country_zh": "肯亞",
    "country_iso_code": "KE",
    "timezone": "Africa/Nairobi",
    "latitude": -0.83333,
    "longitude": 37.03333
  },
  {
    "city": "Thuita",
    "city_zh": "Thuita",
    "country": "Kenya",
    "country_zh": "肯亞",
    "country_iso_code": "KE",
    "timezone": "Africa/Nairobi",
    "latitude": -0.61475,
    "longitude": 37.04862
  },
  {
    "city": "Thompson Estate",
    "city_zh": "Thompson Estate",
    "country": "Kenya",
    "country_zh": "肯亞",
    "country_iso_code": "KE",
    "timezone": "Africa/Nairobi",
    "latitude": -1.29407,
    "longitude": 36.7678
  },
  {
    "city": "Thomeandu",
    "city_zh": "Thomeandu",
    "country": "Kenya",
    "country_zh": "肯亞",
    "country_iso_code": "KE",
    "timezone": "Africa/Nairobi",
    "latitude": -1.79827,
    "longitude": 37.39826
  },
  {
    "city": "Thuita",
    "city_zh": "Thuita",
    "country": "Kenya",
    "country_zh": "肯亞",
    "country_iso_code": "KE",
    "timezone": "Africa/Nairobi",
    "latitude": -0.36383,
    "longitude": 37.60928
  },
  {
    "city": "Thogoto",
    "city_zh": "Thogoto",
    "country": "Kenya",
    "country_zh": "肯亞",
    "country_iso_code": "KE",
    "timezone": "Africa/Nairobi",
    "latitude": -1.2743,
    "longitude": 36.67474
  },
  {
    "city": "Thitani",
    "city_zh": "Thitani",
    "country": "Kenya",
    "country_zh": "肯亞",
    "country_iso_code": "KE",
    "timezone": "Africa/Nairobi",
    "latitude": -1.03828,
    "longitude": 37.91528
  },
  {
    "city": "Nthirani",
    "city_zh": "Nthirani",
    "country": "Kenya",
    "country_zh": "肯亞",
    "country_iso_code": "KE",
    "timezone": "Africa/Nairobi",
    "latitude": -0.33581,
    "longitude": 37.62903
  },
  {
    "city": "Thinu",
    "city_zh": "Thinu",
    "country": "Kenya",
    "country_zh": "肯亞",
    "country_iso_code": "KE",
    "timezone": "Africa/Nairobi",
    "latitude": -1.42312,
    "longitude": 37.27404
  },
  {
    "city": "Thimlich",
    "city_zh": "Thimlich",
    "country": "Kenya",
    "country_zh": "肯亞",
    "country_iso_code": "KE",
    "timezone": "Africa/Nairobi",
    "latitude": -0.87657,
    "longitude": 34.32808
  },
  {
    "city": "Thimjope",
    "city_zh": "Thimjope",
    "country": "Kenya",
    "country_zh": "肯亞",
    "country_iso_code": "KE",
    "timezone": "Africa/Nairobi",
    "latitude": -1.00476,
    "longitude": 34.5513
  },
  {
    "city": "Thimbigua",
    "city_zh": "Thimbigua",
    "country": "Kenya",
    "country_zh": "肯亞",
    "country_iso_code": "KE",
    "timezone": "Africa/Nairobi",
    "latitude": -1.18333,
    "longitude": 36.76667
  },
  {
    "city": "Thika Valley",
    "city_zh": "Thika Valley",
    "country": "Kenya",
    "country_zh": "肯亞",
    "country_iso_code": "KE",
    "timezone": "Africa/Nairobi",
    "latitude": -0.8,
    "longitude": 36.81667
  },
  {
    "city": "Thika",
    "city_zh": "Thika",
    "country": "Kenya",
    "country_zh": "肯亞",
    "country_iso_code": "KE",
    "timezone": "Africa/Nairobi",
    "latitude": -1.03326,
    "longitude": 37.06933
  },
  {
    "city": "Thiguku",
    "city_zh": "Thiguku",
    "country": "Kenya",
    "country_zh": "肯亞",
    "country_iso_code": "KE",
    "timezone": "Africa/Nairobi",
    "latitude": -0.55,
    "longitude": 37.23333
  },
  {
    "city": "Thigio",
    "city_zh": "Thigio",
    "country": "Kenya",
    "country_zh": "肯亞",
    "country_iso_code": "KE",
    "timezone": "Africa/Nairobi",
    "latitude": -1.20264,
    "longitude": 36.59673
  },
  {
    "city": "Thiba",
    "city_zh": "Thiba",
    "country": "Kenya",
    "country_zh": "肯亞",
    "country_iso_code": "KE",
    "timezone": "Africa/Nairobi",
    "latitude": -0.69215,
    "longitude": 37.34024
  },
  {
    "city": "Theri",
    "city_zh": "Theri",
    "country": "Kenya",
    "country_zh": "肯亞",
    "country_iso_code": "KE",
    "timezone": "Africa/Nairobi",
    "latitude": -0.71667,
    "longitude": 36.93333
  },
  {
    "city": "Thengeini",
    "city_zh": "Thengeini",
    "country": "Kenya",
    "country_zh": "肯亞",
    "country_iso_code": "KE",
    "timezone": "Africa/Nairobi",
    "latitude": -0.51667,
    "longitude": 37.15
  },
  {
    "city": "Theera",
    "city_zh": "Theera",
    "country": "Kenya",
    "country_zh": "肯亞",
    "country_iso_code": "KE",
    "timezone": "Africa/Nairobi",
    "latitude": 0.33729,
    "longitude": 37.98694
  },
  {
    "city": "Thavu",
    "city_zh": "Thavu",
    "country": "Kenya",
    "country_zh": "肯亞",
    "country_iso_code": "KE",
    "timezone": "Africa/Nairobi",
    "latitude": -1.95204,
    "longitude": 37.7821
  },
  {
    "city": "Thathi",
    "city_zh": "Thathi",
    "country": "Kenya",
    "country_zh": "肯亞",
    "country_iso_code": "KE",
    "timezone": "Africa/Nairobi",
    "latitude": 0.08099,
    "longitude": 37.92892
  },
  {
    "city": "Thatha",
    "city_zh": "Thatha",
    "country": "Kenya",
    "country_zh": "肯亞",
    "country_iso_code": "KE",
    "timezone": "Africa/Nairobi",
    "latitude": -1.01861,
    "longitude": 37.78593
  },
  {
    "city": "Tharaka",
    "city_zh": "Tharaka",
    "country": "Kenya",
    "country_zh": "肯亞",
    "country_iso_code": "KE",
    "timezone": "Africa/Nairobi",
    "latitude": -0.30861,
    "longitude": 38.02691
  },
  {
    "city": "Thanu",
    "city_zh": "Thanu",
    "country": "Kenya",
    "country_zh": "肯亞",
    "country_iso_code": "KE",
    "timezone": "Africa/Nairobi",
    "latitude": -0.63333,
    "longitude": 37.11667
  },
  {
    "city": "Thanju",
    "city_zh": "Thanju",
    "country": "Kenya",
    "country_zh": "肯亞",
    "country_iso_code": "KE",
    "timezone": "Africa/Nairobi",
    "latitude": -0.68333,
    "longitude": 37.23333
  },
  {
    "city": "Thangi",
    "city_zh": "Thangi",
    "country": "Kenya",
    "country_zh": "肯亞",
    "country_iso_code": "KE",
    "timezone": "Africa/Nairobi",
    "latitude": -2.47324,
    "longitude": 38.04561
  },
  {
    "city": "Thange",
    "city_zh": "Thange",
    "country": "Kenya",
    "country_zh": "肯亞",
    "country_iso_code": "KE",
    "timezone": "Africa/Nairobi",
    "latitude": -2.47248,
    "longitude": 38.04281
  },
  {
    "city": "Thange",
    "city_zh": "Thange",
    "country": "Kenya",
    "country_zh": "肯亞",
    "country_iso_code": "KE",
    "timezone": "Africa/Nairobi",
    "latitude": -2.49302,
    "longitude": 38.01508
  },
  {
    "city": "Thangathe",
    "city_zh": "Thangathe",
    "country": "Kenya",
    "country_zh": "肯亞",
    "country_iso_code": "KE",
    "timezone": "Africa/Nairobi",
    "latitude": -0.5665,
    "longitude": 37.1298
  },
  {
    "city": "Thangata",
    "city_zh": "Thangata",
    "country": "Kenya",
    "country_zh": "肯亞",
    "country_iso_code": "KE",
    "timezone": "Africa/Nairobi",
    "latitude": -0.19183,
    "longitude": 38.29537
  },
  {
    "city": "Thamara",
    "city_zh": "Thamara",
    "country": "Kenya",
    "country_zh": "肯亞",
    "country_iso_code": "KE",
    "timezone": "Africa/Nairobi",
    "latitude": -0.83333,
    "longitude": 37.06667
  },
  {
    "city": "Thakwa",
    "city_zh": "Thakwa",
    "country": "Kenya",
    "country_zh": "肯亞",
    "country_iso_code": "KE",
    "timezone": "Africa/Nairobi",
    "latitude": -1.06667,
    "longitude": 36.76667
  },
  {
    "city": "Thaita",
    "city_zh": "Thaita",
    "country": "Kenya",
    "country_zh": "肯亞",
    "country_iso_code": "KE",
    "timezone": "Africa/Nairobi",
    "latitude": -0.45439,
    "longitude": 37.26868
  },
  {
    "city": "Zaina",
    "city_zh": "Zaina",
    "country": "Kenya",
    "country_zh": "肯亞",
    "country_iso_code": "KE",
    "timezone": "Africa/Nairobi",
    "latitude": -0.42704,
    "longitude": 36.82717
  },
  {
    "city": "Thaie",
    "city_zh": "Thaie",
    "country": "Kenya",
    "country_zh": "肯亞",
    "country_iso_code": "KE",
    "timezone": "Africa/Nairobi",
    "latitude": 0.027,
    "longitude": 37.54199
  },
  {
    "city": "Thagare",
    "city_zh": "Thagare",
    "country": "Kenya",
    "country_zh": "肯亞",
    "country_iso_code": "KE",
    "timezone": "Africa/Nairobi",
    "latitude": -0.83333,
    "longitude": 37.0
  },
  {
    "city": "Thaara",
    "city_zh": "Thaara",
    "country": "Kenya",
    "country_zh": "肯亞",
    "country_iso_code": "KE",
    "timezone": "Africa/Nairobi",
    "latitude": -0.79922,
    "longitude": 37.2158
  },
  {
    "city": "Tezo",
    "city_zh": "Tezo",
    "country": "Kenya",
    "country_zh": "肯亞",
    "country_iso_code": "KE",
    "timezone": "Africa/Nairobi",
    "latitude": -3.53394,
    "longitude": 39.85369
  },
  {
    "city": "Tetu",
    "city_zh": "Tetu",
    "country": "Kenya",
    "country_zh": "肯亞",
    "country_iso_code": "KE",
    "timezone": "Africa/Nairobi",
    "latitude": -0.43419,
    "longitude": 36.91681
  },
  {
    "city": "Teso",
    "city_zh": "Teso",
    "country": "Kenya",
    "country_zh": "肯亞",
    "country_iso_code": "KE",
    "timezone": "Africa/Nairobi",
    "latitude": -1.3,
    "longitude": 39.66667
  },
  {
    "city": "Teressia",
    "city_zh": "Teressia",
    "country": "Kenya",
    "country_zh": "肯亞",
    "country_iso_code": "KE",
    "timezone": "Africa/Nairobi",
    "latitude": 0.47482,
    "longitude": 34.88295
  },
  {
    "city": "Teresi",
    "city_zh": "Teresi",
    "country": "Kenya",
    "country_zh": "肯亞",
    "country_iso_code": "KE",
    "timezone": "Africa/Nairobi",
    "latitude": -0.55276,
    "longitude": 34.98764
  },
  {
    "city": "Teremi",
    "city_zh": "Teremi",
    "country": "Kenya",
    "country_zh": "肯亞",
    "country_iso_code": "KE",
    "timezone": "Africa/Nairobi",
    "latitude": 0.75339,
    "longitude": 34.62965
  },
  {
    "city": "Tenwek",
    "city_zh": "Tenwek",
    "country": "Kenya",
    "country_zh": "肯亞",
    "country_iso_code": "KE",
    "timezone": "Africa/Nairobi",
    "latitude": -0.74543,
    "longitude": 35.36173
  },
  {
    "city": "Tenges",
    "city_zh": "Tenges",
    "country": "Kenya",
    "country_zh": "肯亞",
    "country_iso_code": "KE",
    "timezone": "Africa/Nairobi",
    "latitude": 0.3108,
    "longitude": 35.80138
  },
  {
    "city": "Tendere",
    "city_zh": "Tendere",
    "country": "Kenya",
    "country_zh": "肯亞",
    "country_iso_code": "KE",
    "timezone": "Africa/Nairobi",
    "latitude": -0.80888,
    "longitude": 34.72942
  },
  {
    "city": "Telanet",
    "city_zh": "Telanet",
    "country": "Kenya",
    "country_zh": "肯亞",
    "country_iso_code": "KE",
    "timezone": "Africa/Nairobi",
    "latitude": -0.31852,
    "longitude": 35.23689
  },
  {
    "city": "Tegat",
    "city_zh": "Tegat",
    "country": "Kenya",
    "country_zh": "肯亞",
    "country_iso_code": "KE",
    "timezone": "Africa/Nairobi",
    "latitude": -0.78327,
    "longitude": 35.46419
  },
  {
    "city": "Tegat",
    "city_zh": "Tegat",
    "country": "Kenya",
    "country_zh": "肯亞",
    "country_iso_code": "KE",
    "timezone": "Africa/Nairobi",
    "latitude": -0.40761,
    "longitude": 35.193
  },
  {
    "city": "Tebesonik",
    "city_zh": "Tebesonik",
    "country": "Kenya",
    "country_zh": "肯亞",
    "country_iso_code": "KE",
    "timezone": "Africa/Nairobi",
    "latitude": -0.56241,
    "longitude": 35.09531
  },
  {
    "city": "Tawa",
    "city_zh": "Tawa",
    "country": "Kenya",
    "country_zh": "肯亞",
    "country_iso_code": "KE",
    "timezone": "Africa/Nairobi",
    "latitude": -1.55384,
    "longitude": 37.4607
  },
  {
    "city": "Taveta",
    "city_zh": "Taveta",
    "country": "Kenya",
    "country_zh": "肯亞",
    "country_iso_code": "KE",
    "timezone": "Africa/Nairobi",
    "latitude": -3.39879,
    "longitude": 37.68336
  },
  {
    "city": "Taru",
    "city_zh": "Taru",
    "country": "Kenya",
    "country_zh": "肯亞",
    "country_iso_code": "KE",
    "timezone": "Africa/Nairobi",
    "latitude": -3.74172,
    "longitude": 39.14892
  },
  {
    "city": "Tartar Mission",
    "city_zh": "Tartar Mission",
    "country": "Kenya",
    "country_zh": "肯亞",
    "country_iso_code": "KE",
    "timezone": "Africa/Nairobi",
    "latitude": 1.23811,
    "longitude": 35.05608
  },
  {
    "city": "Tarbaj",
    "city_zh": "Tarbaj",
    "country": "Kenya",
    "country_zh": "肯亞",
    "country_iso_code": "KE",
    "timezone": "Africa/Nairobi",
    "latitude": 2.2085,
    "longitude": 40.11812
  },
  {
    "city": "Taranganya",
    "city_zh": "Taranganya",
    "country": "Kenya",
    "country_zh": "肯亞",
    "country_iso_code": "KE",
    "timezone": "Africa/Nairobi",
    "latitude": -1.23435,
    "longitude": 34.60065
  },
  {
    "city": "Taragai",
    "city_zh": "Taragai",
    "country": "Kenya",
    "country_zh": "肯亞",
    "country_iso_code": "KE",
    "timezone": "Africa/Nairobi",
    "latitude": -1.07501,
    "longitude": 34.51165
  },
  {
    "city": "Tangulbei",
    "city_zh": "Tangulbei",
    "country": "Kenya",
    "country_zh": "肯亞",
    "country_iso_code": "KE",
    "timezone": "Africa/Nairobi",
    "latitude": 0.80092,
    "longitude": 36.28766
  },
  {
    "city": "Tangaratwet",
    "city_zh": "Tangaratwet",
    "country": "Kenya",
    "country_zh": "肯亞",
    "country_iso_code": "KE",
    "timezone": "Africa/Nairobi",
    "latitude": 0.51651,
    "longitude": 34.95203
  },
  {
    "city": "Tandare",
    "city_zh": "Tandare",
    "country": "Kenya",
    "country_zh": "肯亞",
    "country_iso_code": "KE",
    "timezone": "Africa/Nairobi",
    "latitude": 0.38773,
    "longitude": 36.27704
  },
  {
    "city": "Tamanak",
    "city_zh": "Tamanak",
    "country": "Kenya",
    "country_zh": "肯亞",
    "country_iso_code": "KE",
    "timezone": "Africa/Nairobi",
    "latitude": 2.66446,
    "longitude": 34.98585
  },
  {
    "city": "Tamkal",
    "city_zh": "Tamkal",
    "country": "Kenya",
    "country_zh": "肯亞",
    "country_iso_code": "KE",
    "timezone": "Africa/Nairobi",
    "latitude": 1.37306,
    "longitude": 35.47175
  },
  {
    "city": "Tambaza",
    "city_zh": "Tambaza",
    "country": "Kenya",
    "country_zh": "肯亞",
    "country_iso_code": "KE",
    "timezone": "Africa/Nairobi",
    "latitude": -0.4335,
    "longitude": 34.1312
  },
  {
    "city": "Tambaya",
    "city_zh": "Tambaya",
    "country": "Kenya",
    "country_zh": "肯亞",
    "country_iso_code": "KE",
    "timezone": "Africa/Nairobi",
    "latitude": -0.52846,
    "longitude": 37.0202
  },
  {
    "city": "Tambach",
    "city_zh": "Tambach",
    "country": "Kenya",
    "country_zh": "肯亞",
    "country_iso_code": "KE",
    "timezone": "Africa/Nairobi",
    "latitude": 0.59103,
    "longitude": 35.52166
  },
  {
    "city": "Taloa",
    "city_zh": "Taloa",
    "country": "Kenya",
    "country_zh": "肯亞",
    "country_iso_code": "KE",
    "timezone": "Africa/Nairobi",
    "latitude": -0.35531,
    "longitude": 35.5565
  },
  {
    "city": "Talio",
    "city_zh": "Talio",
    "country": "Kenya",
    "country_zh": "肯亞",
    "country_iso_code": "KE",
    "timezone": "Africa/Nairobi",
    "latitude": -3.53333,
    "longitude": 38.58333
  },
  {
    "city": "Talau",
    "city_zh": "Talau",
    "country": "Kenya",
    "country_zh": "肯亞",
    "country_iso_code": "KE",
    "timezone": "Africa/Nairobi",
    "latitude": 1.20312,
    "longitude": 35.12136
  },
  {
    "city": "Talai",
    "city_zh": "Talai",
    "country": "Kenya",
    "country_zh": "肯亞",
    "country_iso_code": "KE",
    "timezone": "Africa/Nairobi",
    "latitude": 0.58331,
    "longitude": 35.81277
  },
  {
    "city": "Tala",
    "city_zh": "Tala",
    "country": "Kenya",
    "country_zh": "肯亞",
    "country_iso_code": "KE",
    "timezone": "Africa/Nairobi",
    "latitude": -1.26849,
    "longitude": 37.32186
  },
  {
    "city": "Takwa Milinga",
    "city_zh": "Takwa Milinga",
    "country": "Kenya",
    "country_zh": "肯亞",
    "country_iso_code": "KE",
    "timezone": "Africa/Nairobi",
    "latitude": -2.29833,
    "longitude": 40.95826
  },
  {
    "city": "Takaungu",
    "city_zh": "塔卡溫古",
    "country": "Kenya",
    "country_zh": "肯亞",
    "country_iso_code": "KE",
    "timezone": "Africa/Nairobi",
    "latitude": -3.6835,
    "longitude": 39.85687
  },
  {
    "city": "Tagache",
    "city_zh": "Tagache",
    "country": "Kenya",
    "country_zh": "肯亞",
    "country_iso_code": "KE",
    "timezone": "Africa/Nairobi",
    "latitude": -1.01997,
    "longitude": 34.12537
  },
  {
    "city": "Tobolwa",
    "city_zh": "Tobolwa",
    "country": "Kenya",
    "country_zh": "肯亞",
    "country_iso_code": "KE",
    "timezone": "Africa/Nairobi",
    "latitude": 0.38588,
    "longitude": 34.96356
  },
  {
    "city": "Tabata",
    "city_zh": "Tabata",
    "country": "Kenya",
    "country_zh": "肯亞",
    "country_iso_code": "KE",
    "timezone": "Africa/Nairobi",
    "latitude": -0.03387,
    "longitude": 37.6917
  },
  {
    "city": "Tabaka",
    "city_zh": "Tabaka",
    "country": "Kenya",
    "country_zh": "肯亞",
    "country_iso_code": "KE",
    "timezone": "Africa/Nairobi",
    "latitude": -0.74743,
    "longitude": 34.66682
  },
  {
    "city": "Syumile",
    "city_zh": "Syumile",
    "country": "Kenya",
    "country_zh": "肯亞",
    "country_iso_code": "KE",
    "timezone": "Africa/Nairobi",
    "latitude": -2.26289,
    "longitude": 37.98985
  },
  {
    "city": "Syumbungu",
    "city_zh": "Syumbungu",
    "country": "Kenya",
    "country_zh": "肯亞",
    "country_iso_code": "KE",
    "timezone": "Africa/Nairobi",
    "latitude": -0.9,
    "longitude": 38.5
  },
  {
    "city": "Syongila",
    "city_zh": "Syongila",
    "country": "Kenya",
    "country_zh": "肯亞",
    "country_iso_code": "KE",
    "timezone": "Africa/Nairobi",
    "latitude": -1.33557,
    "longitude": 37.98788
  },
  {
    "city": "Syomuunyu",
    "city_zh": "Syomuunyu",
    "country": "Kenya",
    "country_zh": "肯亞",
    "country_iso_code": "KE",
    "timezone": "Africa/Nairobi",
    "latitude": -1.6717,
    "longitude": 37.83246
  },
  {
    "city": "Syolima",
    "city_zh": "Syolima",
    "country": "Kenya",
    "country_zh": "肯亞",
    "country_iso_code": "KE",
    "timezone": "Africa/Nairobi",
    "latitude": -1.43333,
    "longitude": 38.08333
  },
  {
    "city": "Syengoni",
    "city_zh": "Syengoni",
    "country": "Kenya",
    "country_zh": "肯亞",
    "country_iso_code": "KE",
    "timezone": "Africa/Nairobi",
    "latitude": -2.30013,
    "longitude": 37.85308
  },
  {
    "city": "Syanthi",
    "city_zh": "Syanthi",
    "country": "Kenya",
    "country_zh": "肯亞",
    "country_iso_code": "KE",
    "timezone": "Africa/Nairobi",
    "latitude": -1.30164,
    "longitude": 37.30007
  },
  {
    "city": "Surungai",
    "city_zh": "Surungai",
    "country": "Kenya",
    "country_zh": "肯亞",
    "country_iso_code": "KE",
    "timezone": "Africa/Nairobi",
    "latitude": 0.47462,
    "longitude": 34.97453
  },
  {
    "city": "Sunny Brook",
    "city_zh": "Sunny Brook",
    "country": "Kenya",
    "country_zh": "肯亞",
    "country_iso_code": "KE",
    "timezone": "Africa/Nairobi",
    "latitude": -0.11868,
    "longitude": 35.57234
  },
  {
    "city": "Sungululu",
    "city_zh": "Sungululu",
    "country": "Kenya",
    "country_zh": "肯亞",
    "country_iso_code": "KE",
    "timezone": "Africa/Nairobi",
    "latitude": -3.38882,
    "longitude": 38.35774
  },
  {
    "city": "Suna",
    "city_zh": "Suna",
    "country": "Kenya",
    "country_zh": "肯亞",
    "country_iso_code": "KE",
    "timezone": "Africa/Nairobi",
    "latitude": -1.09639,
    "longitude": 34.45421
  },
  {
    "city": "Sumat",
    "city_zh": "Sumat",
    "country": "Kenya",
    "country_zh": "肯亞",
    "country_iso_code": "KE",
    "timezone": "Africa/Nairobi",
    "latitude": -1.13333,
    "longitude": 40.06667
  },
  {
    "city": "Sumai",
    "city_zh": "Sumai",
    "country": "Kenya",
    "country_zh": "肯亞",
    "country_iso_code": "KE",
    "timezone": "Africa/Nairobi",
    "latitude": -1.53333,
    "longitude": 39.31667
  },
  {
    "city": "Sultan Hamud",
    "city_zh": "蘇丹哈茂德",
    "country": "Kenya",
    "country_zh": "肯亞",
    "country_iso_code": "KE",
    "timezone": "Africa/Nairobi",
    "latitude": -2.02042,
    "longitude": 37.37212
  },
  {
    "city": "Subuko",
    "city_zh": "Subuko",
    "country": "Kenya",
    "country_zh": "肯亞",
    "country_iso_code": "KE",
    "timezone": "Africa/Nairobi",
    "latitude": 0.14401,
    "longitude": 36.37607
  },
  {
    "city": "Subukia",
    "city_zh": "Subukia",
    "country": "Kenya",
    "country_zh": "肯亞",
    "country_iso_code": "KE",
    "timezone": "Africa/Nairobi",
    "latitude": -0.01644,
    "longitude": 36.20927
  },
  {
    "city": "Suba Kuria",
    "city_zh": "Suba Kuria",
    "country": "Kenya",
    "country_zh": "肯亞",
    "country_iso_code": "KE",
    "timezone": "Africa/Nairobi",
    "latitude": -1.16615,
    "longitude": 34.44523
  },
  {
    "city": "Spring Valley Estate",
    "city_zh": "Spring Valley Estate",
    "country": "Kenya",
    "country_zh": "肯亞",
    "country_iso_code": "KE",
    "timezone": "Africa/Nairobi",
    "latitude": -1.25198,
    "longitude": 36.78164
  },
  {
    "city": "Soy",
    "city_zh": "Soy",
    "country": "Kenya",
    "country_zh": "肯亞",
    "country_iso_code": "KE",
    "timezone": "Africa/Nairobi",
    "latitude": 0.67315,
    "longitude": 35.15771
  },
  {
    "city": "South Muguga",
    "city_zh": "South Muguga",
    "country": "Kenya",
    "country_zh": "肯亞",
    "country_iso_code": "KE",
    "timezone": "Africa/Nairobi",
    "latitude": -1.21341,
    "longitude": 36.63134
  },
  {
    "city": "South Kinangop",
    "city_zh": "South Kinangop",
    "country": "Kenya",
    "country_zh": "肯亞",
    "country_iso_code": "KE",
    "timezone": "Africa/Nairobi",
    "latitude": -0.7264,
    "longitude": 36.65258
  },
  {
    "city": "South Horr",
    "city_zh": "South Horr",
    "country": "Kenya",
    "country_zh": "肯亞",
    "country_iso_code": "KE",
    "timezone": "Africa/Nairobi",
    "latitude": 2.09773,
    "longitude": 36.91851
  },
  {
    "city": "Sotik",
    "city_zh": "Sotik",
    "country": "Kenya",
    "country_zh": "肯亞",
    "country_iso_code": "KE",
    "timezone": "Africa/Nairobi",
    "latitude": -0.57795,
    "longitude": 35.36583
  },
  {
    "city": "Sotik",
    "city_zh": "Sotik",
    "country": "Kenya",
    "country_zh": "肯亞",
    "country_iso_code": "KE",
    "timezone": "Africa/Nairobi",
    "latitude": -0.69069,
    "longitude": 35.11102
  },
  {
    "city": "Sota",
    "city_zh": "Sota",
    "country": "Kenya",
    "country_zh": "肯亞",
    "country_iso_code": "KE",
    "timezone": "Africa/Nairobi",
    "latitude": -0.98415,
    "longitude": 34.13896
  },
  {
    "city": "Sosoni",
    "city_zh": "Sosoni",
    "country": "Kenya",
    "country_zh": "肯亞",
    "country_iso_code": "KE",
    "timezone": "Africa/Nairobi",
    "latitude": -3.02147,
    "longitude": 39.9352
  },
  {
    "city": "Sosit",
    "city_zh": "Sosit",
    "country": "Kenya",
    "country_zh": "肯亞",
    "country_iso_code": "KE",
    "timezone": "Africa/Nairobi",
    "latitude": -0.63797,
    "longitude": 35.16441
  },
  {
    "city": "Sosiot",
    "city_zh": "Sosiot",
    "country": "Kenya",
    "country_zh": "肯亞",
    "country_iso_code": "KE",
    "timezone": "Africa/Nairobi",
    "latitude": -0.36295,
    "longitude": 35.1718
  },
  {
    "city": "Sorget",
    "city_zh": "Sorget",
    "country": "Kenya",
    "country_zh": "肯亞",
    "country_iso_code": "KE",
    "timezone": "Africa/Nairobi",
    "latitude": -0.04363,
    "longitude": 35.53429
  },
  {
    "city": "Songoni",
    "city_zh": "Songoni",
    "country": "Kenya",
    "country_zh": "肯亞",
    "country_iso_code": "KE",
    "timezone": "Africa/Nairobi",
    "latitude": -0.37956,
    "longitude": 35.67667
  },
  {
    "city": "Songoliet",
    "city_zh": "Songoliet",
    "country": "Kenya",
    "country_zh": "肯亞",
    "country_iso_code": "KE",
    "timezone": "Africa/Nairobi",
    "latitude": 0.22831,
    "longitude": 35.26555
  },
  {
    "city": "Songi",
    "city_zh": "Songi",
    "country": "Kenya",
    "country_zh": "肯亞",
    "country_iso_code": "KE",
    "timezone": "Africa/Nairobi",
    "latitude": -0.4314,
    "longitude": 35.7716
  },
  {
    "city": "Songhor",
    "city_zh": "Songhor",
    "country": "Kenya",
    "country_zh": "肯亞",
    "country_iso_code": "KE",
    "timezone": "Africa/Nairobi",
    "latitude": -0.055,
    "longitude": 35.21169
  },
  {
    "city": "Songeni",
    "city_zh": "Songeni",
    "country": "Kenya",
    "country_zh": "肯亞",
    "country_iso_code": "KE",
    "timezone": "Africa/Nairobi",
    "latitude": -1.56527,
    "longitude": 37.49203
  },
  {
    "city": "Sondu",
    "city_zh": "Sondu",
    "country": "Kenya",
    "country_zh": "肯亞",
    "country_iso_code": "KE",
    "timezone": "Africa/Nairobi",
    "latitude": -0.3906,
    "longitude": 35.01266
  },
  {
    "city": "Solyo",
    "city_zh": "Solyo",
    "country": "Kenya",
    "country_zh": "肯亞",
    "country_iso_code": "KE",
    "timezone": "Africa/Nairobi",
    "latitude": 0.22515,
    "longitude": 34.82208
  },
  {
    "city": "Sololo",
    "city_zh": "Sololo",
    "country": "Kenya",
    "country_zh": "肯亞",
    "country_iso_code": "KE",
    "timezone": "Africa/Nairobi",
    "latitude": 3.56392,
    "longitude": 38.64321
  },
  {
    "city": "Solyot",
    "city_zh": "Solyot",
    "country": "Kenya",
    "country_zh": "肯亞",
    "country_iso_code": "KE",
    "timezone": "Africa/Nairobi",
    "latitude": -0.7965,
    "longitude": 35.24681
  },
  {
    "city": "Soliat",
    "city_zh": "Soliat",
    "country": "Kenya",
    "country_zh": "肯亞",
    "country_iso_code": "KE",
    "timezone": "Africa/Nairobi",
    "latitude": -0.31733,
    "longitude": 35.13121
  },
  {
    "city": "Solai",
    "city_zh": "Solai",
    "country": "Kenya",
    "country_zh": "肯亞",
    "country_iso_code": "KE",
    "timezone": "Africa/Nairobi",
    "latitude": -0.05495,
    "longitude": 36.12747
  },
  {
    "city": "Sokoke",
    "city_zh": "Sokoke",
    "country": "Kenya",
    "country_zh": "肯亞",
    "country_iso_code": "KE",
    "timezone": "Africa/Nairobi",
    "latitude": -3.52354,
    "longitude": 39.76769
  },
  {
    "city": "Sokoke",
    "city_zh": "Sokoke",
    "country": "Kenya",
    "country_zh": "肯亞",
    "country_iso_code": "KE",
    "timezone": "Africa/Nairobi",
    "latitude": -3.54223,
    "longitude": 39.81705
  },
  {
    "city": "Soklo",
    "city_zh": "Soklo",
    "country": "Kenya",
    "country_zh": "肯亞",
    "country_iso_code": "KE",
    "timezone": "Africa/Nairobi",
    "latitude": -0.45676,
    "longitude": 34.03244
  },
  {
    "city": "Skwata",
    "city_zh": "Skwata",
    "country": "Kenya",
    "country_zh": "肯亞",
    "country_iso_code": "KE",
    "timezone": "Africa/Nairobi",
    "latitude": -1.88333,
    "longitude": 38.41667
  },
  {
    "city": "Siyu",
    "city_zh": "Siyu",
    "country": "Kenya",
    "country_zh": "肯亞",
    "country_iso_code": "KE",
    "timezone": "Africa/Nairobi",
    "latitude": -2.1038,
    "longitude": 41.06064
  },
  {
    "city": "Siwot",
    "city_zh": "Siwot",
    "country": "Kenya",
    "country_zh": "肯亞",
    "country_iso_code": "KE",
    "timezone": "Africa/Nairobi",
    "latitude": -0.87149,
    "longitude": 35.3658
  },
  {
    "city": "Siwo",
    "city_zh": "Siwo",
    "country": "Kenya",
    "country_zh": "肯亞",
    "country_iso_code": "KE",
    "timezone": "Africa/Nairobi",
    "latitude": 0.17763,
    "longitude": 35.22757
  },
  {
    "city": "Sivilie",
    "city_zh": "Sivilie",
    "country": "Kenya",
    "country_zh": "肯亞",
    "country_iso_code": "KE",
    "timezone": "Africa/Nairobi",
    "latitude": 0.46923,
    "longitude": 34.6982
  },
  {
    "city": "Sitotwet",
    "city_zh": "Sitotwet",
    "country": "Kenya",
    "country_zh": "肯亞",
    "country_iso_code": "KE",
    "timezone": "Africa/Nairobi",
    "latitude": -0.30786,
    "longitude": 35.19672
  },
  {
    "city": "Sidikho",
    "city_zh": "Sidikho",
    "country": "Kenya",
    "country_zh": "肯亞",
    "country_iso_code": "KE",
    "timezone": "Africa/Nairobi",
    "latitude": 0.47803,
    "longitude": 34.66483
  },
  {
    "city": "Sitaman",
    "city_zh": "Sitaman",
    "country": "Kenya",
    "country_zh": "肯亞",
    "country_iso_code": "KE",
    "timezone": "Africa/Nairobi",
    "latitude": 1.06667,
    "longitude": 35.25
  },
  {
    "city": "Sisokhe",
    "city_zh": "Sisokhe",
    "country": "Kenya",
    "country_zh": "肯亞",
    "country_iso_code": "KE",
    "timezone": "Africa/Nairobi",
    "latitude": 0.43762,
    "longitude": 34.59794
  },
  {
    "city": "Sisenye",
    "city_zh": "Sisenye",
    "country": "Kenya",
    "country_zh": "肯亞",
    "country_iso_code": "KE",
    "timezone": "Africa/Nairobi",
    "latitude": 0.15,
    "longitude": 33.98333
  },
  {
    "city": "Sirwa",
    "city_zh": "Sirwa",
    "country": "Kenya",
    "country_zh": "肯亞",
    "country_iso_code": "KE",
    "timezone": "Africa/Nairobi",
    "latitude": 0.18018,
    "longitude": 35.7775
  },
  {
    "city": "Sirono",
    "city_zh": "Sirono",
    "country": "Kenya",
    "country_zh": "肯亞",
    "country_iso_code": "KE",
    "timezone": "Africa/Nairobi",
    "latitude": 0.308,
    "longitude": 35.08711
  },
  {
    "city": "Sironga",
    "city_zh": "Sironga",
    "country": "Kenya",
    "country_zh": "肯亞",
    "country_iso_code": "KE",
    "timezone": "Africa/Nairobi",
    "latitude": -0.59186,
    "longitude": 34.9189
  },
  {
    "city": "Sirisia",
    "city_zh": "Sirisia",
    "country": "Kenya",
    "country_zh": "肯亞",
    "country_iso_code": "KE",
    "timezone": "Africa/Nairobi",
    "latitude": 0.75471,
    "longitude": 34.50351
  },
  {
    "city": "Sirisia",
    "city_zh": "Sirisia",
    "country": "Kenya",
    "country_zh": "肯亞",
    "country_iso_code": "KE",
    "timezone": "Africa/Nairobi",
    "latitude": 0.67847,
    "longitude": 34.72221
  },
  {
    "city": "Sirisia",
    "city_zh": "Sirisia",
    "country": "Kenya",
    "country_zh": "肯亞",
    "country_iso_code": "KE",
    "timezone": "Africa/Nairobi",
    "latitude": 0.11667,
    "longitude": 34.0
  },
  {
    "city": "Siriba",
    "city_zh": "Siriba",
    "country": "Kenya",
    "country_zh": "肯亞",
    "country_iso_code": "KE",
    "timezone": "Africa/Nairobi",
    "latitude": 0.0,
    "longitude": 34.6
  },
  {
    "city": "Sirende",
    "city_zh": "Sirende",
    "country": "Kenya",
    "country_zh": "肯亞",
    "country_iso_code": "KE",
    "timezone": "Africa/Nairobi",
    "latitude": 0.72173,
    "longitude": 34.70053
  },
  {
    "city": "Saranga",
    "city_zh": "Saranga",
    "country": "Kenya",
    "country_zh": "肯亞",
    "country_iso_code": "KE",
    "timezone": "Africa/Nairobi",
    "latitude": 0.17771,
    "longitude": 34.20954
  },
  {
    "city": "Sipala",
    "city_zh": "Sipala",
    "country": "Kenya",
    "country_zh": "肯亞",
    "country_iso_code": "KE",
    "timezone": "Africa/Nairobi",
    "latitude": 0.64269,
    "longitude": 34.76543
  },
  {
    "city": "Siongiroi",
    "city_zh": "Siongiroi",
    "country": "Kenya",
    "country_zh": "肯亞",
    "country_iso_code": "KE",
    "timezone": "Africa/Nairobi",
    "latitude": -0.89532,
    "longitude": 35.21134
  },
  {
    "city": "Sio Port",
    "city_zh": "Sio Port",
    "country": "Kenya",
    "country_zh": "肯亞",
    "country_iso_code": "KE",
    "timezone": "Africa/Nairobi",
    "latitude": 0.22521,
    "longitude": 34.02212
  },
  {
    "city": "Sinyolo",
    "city_zh": "Sinyolo",
    "country": "Kenya",
    "country_zh": "肯亞",
    "country_iso_code": "KE",
    "timezone": "Africa/Nairobi",
    "latitude": -0.03329,
    "longitude": 34.66845
  },
  {
    "city": "Sintagara",
    "city_zh": "Sintagara",
    "country": "Kenya",
    "country_zh": "肯亞",
    "country_iso_code": "KE",
    "timezone": "Africa/Nairobi",
    "latitude": -0.99514,
    "longitude": 36.13805
  },
  {
    "city": "Sinonin",
    "city_zh": "Sinonin",
    "country": "Kenya",
    "country_zh": "肯亞",
    "country_iso_code": "KE",
    "timezone": "Africa/Nairobi",
    "latitude": 0.06531,
    "longitude": 35.70247
  },
  {
    "city": "Sinoia",
    "city_zh": "Sinoia",
    "country": "Kenya",
    "country_zh": "肯亞",
    "country_iso_code": "KE",
    "timezone": "Africa/Nairobi",
    "latitude": -3.1671,
    "longitude": 40.10759
  },
  {
    "city": "Sino",
    "city_zh": "Sino",
    "country": "Kenya",
    "country_zh": "肯亞",
    "country_iso_code": "KE",
    "timezone": "Africa/Nairobi",
    "latitude": -0.47107,
    "longitude": 34.75685
  },
  {
    "city": "Singaronik",
    "city_zh": "Singaronik",
    "country": "Kenya",
    "country_zh": "肯亞",
    "country_iso_code": "KE",
    "timezone": "Africa/Nairobi",
    "latitude": -0.37762,
    "longitude": 35.09203
  },
  {
    "city": "Singore",
    "city_zh": "Singore",
    "country": "Kenya",
    "country_zh": "肯亞",
    "country_iso_code": "KE",
    "timezone": "Africa/Nairobi",
    "latitude": 0.71365,
    "longitude": 35.51762
  },
  {
    "city": "Sindo",
    "city_zh": "Sindo",
    "country": "Kenya",
    "country_zh": "肯亞",
    "country_iso_code": "KE",
    "timezone": "Africa/Nairobi",
    "latitude": -0.54061,
    "longitude": 34.16891
  },
  {
    "city": "Sinaga",
    "city_zh": "Sinaga",
    "country": "Kenya",
    "country_zh": "肯亞",
    "country_iso_code": "KE",
    "timezone": "Africa/Nairobi",
    "latitude": 0.05715,
    "longitude": 34.5454
  },
  {
    "city": "Sinaga",
    "city_zh": "Sinaga",
    "country": "Kenya",
    "country_zh": "肯亞",
    "country_iso_code": "KE",
    "timezone": "Africa/Nairobi",
    "latitude": 0.05666,
    "longitude": 34.5172
  },
  {
    "city": "Simisi",
    "city_zh": "Simisi",
    "country": "Kenya",
    "country_zh": "肯亞",
    "country_iso_code": "KE",
    "timezone": "Africa/Nairobi",
    "latitude": -2.0,
    "longitude": 38.33333
  },
  {
    "city": "Simbi",
    "city_zh": "Simbi",
    "country": "Kenya",
    "country_zh": "肯亞",
    "country_iso_code": "KE",
    "timezone": "Africa/Nairobi",
    "latitude": 0.01013,
    "longitude": 34.74733
  },
  {
    "city": "Simba",
    "city_zh": "Simba",
    "country": "Kenya",
    "country_zh": "肯亞",
    "country_iso_code": "KE",
    "timezone": "Africa/Nairobi",
    "latitude": -2.15792,
    "longitude": 37.59166
  },
  {
    "city": "Simandaro",
    "city_zh": "Simandaro",
    "country": "Kenya",
    "country_zh": "肯亞",
    "country_iso_code": "KE",
    "timezone": "Africa/Nairobi",
    "latitude": -2.17992,
    "longitude": 40.87303
  },
  {
    "city": "Silibwet",
    "city_zh": "Silibwet",
    "country": "Kenya",
    "country_zh": "肯亞",
    "country_iso_code": "KE",
    "timezone": "Africa/Nairobi",
    "latitude": -0.73034,
    "longitude": 35.34609
  },
  {
    "city": "Silaloni",
    "city_zh": "Silaloni",
    "country": "Kenya",
    "country_zh": "肯亞",
    "country_iso_code": "KE",
    "timezone": "Africa/Nairobi",
    "latitude": -3.62035,
    "longitude": 39.28401
  },
  {
    "city": "Sikutek",
    "city_zh": "Sikutek",
    "country": "Kenya",
    "country_zh": "肯亞",
    "country_iso_code": "KE",
    "timezone": "Africa/Nairobi",
    "latitude": -0.66494,
    "longitude": 35.1591
  },
  {
    "city": "Sikusi",
    "city_zh": "Sikusi",
    "country": "Kenya",
    "country_zh": "肯亞",
    "country_iso_code": "KE",
    "timezone": "Africa/Nairobi",
    "latitude": 0.69854,
    "longitude": 34.56148
  },
  {
    "city": "Sikoma",
    "city_zh": "Sikoma",
    "country": "Kenya",
    "country_zh": "肯亞",
    "country_iso_code": "KE",
    "timezone": "Africa/Nairobi",
    "latitude": 0.42297,
    "longitude": 34.22189
  },
  {
    "city": "Sigoti",
    "city_zh": "Sigoti",
    "country": "Kenya",
    "country_zh": "肯亞",
    "country_iso_code": "KE",
    "timezone": "Africa/Nairobi",
    "latitude": -0.33875,
    "longitude": 34.9667
  },
  {
    "city": "Sigoro",
    "city_zh": "Sigoro",
    "country": "Kenya",
    "country_zh": "肯亞",
    "country_iso_code": "KE",
    "timezone": "Africa/Nairobi",
    "latitude": 0.11948,
    "longitude": 35.73459
  },
  {
    "city": "Sigor",
    "city_zh": "Sigor",
    "country": "Kenya",
    "country_zh": "肯亞",
    "country_iso_code": "KE",
    "timezone": "Africa/Nairobi",
    "latitude": 1.48806,
    "longitude": 35.46948
  },
  {
    "city": "Sigor",
    "city_zh": "Sigor",
    "country": "Kenya",
    "country_zh": "肯亞",
    "country_iso_code": "KE",
    "timezone": "Africa/Nairobi",
    "latitude": -0.91907,
    "longitude": 35.29931
  },
  {
    "city": "Sigomere",
    "city_zh": "Sigomere",
    "country": "Kenya",
    "country_zh": "肯亞",
    "country_iso_code": "KE",
    "timezone": "Africa/Nairobi",
    "latitude": 0.20279,
    "longitude": 34.35479
  },
  {
    "city": "Sigoit",
    "city_zh": "Sigoit",
    "country": "Kenya",
    "country_zh": "肯亞",
    "country_iso_code": "KE",
    "timezone": "Africa/Nairobi",
    "latitude": 0.41521,
    "longitude": 35.14021
  },
  {
    "city": "Sigio",
    "city_zh": "Sigio",
    "country": "Kenya",
    "country_zh": "肯亞",
    "country_iso_code": "KE",
    "timezone": "Africa/Nairobi",
    "latitude": -1.2,
    "longitude": 36.6
  },
  {
    "city": "Siger",
    "city_zh": "Siger",
    "country": "Kenya",
    "country_zh": "肯亞",
    "country_iso_code": "KE",
    "timezone": "Africa/Nairobi",
    "latitude": -0.11958,
    "longitude": 34.34054
  },
  {
    "city": "Sigalagala",
    "city_zh": "Sigalagala",
    "country": "Kenya",
    "country_zh": "肯亞",
    "country_iso_code": "KE",
    "timezone": "Africa/Nairobi",
    "latitude": 0.19599,
    "longitude": 34.76059
  },
  {
    "city": "Sifuyu",
    "city_zh": "Sifuyu",
    "country": "Kenya",
    "country_zh": "肯亞",
    "country_iso_code": "KE",
    "timezone": "Africa/Nairobi",
    "latitude": 0.13812,
    "longitude": 34.13015
  },
  {
    "city": "Sidok",
    "city_zh": "Sidok",
    "country": "Kenya",
    "country_zh": "肯亞",
    "country_iso_code": "KE",
    "timezone": "Africa/Nairobi",
    "latitude": 0.11151,
    "longitude": 34.14224
  },
  {
    "city": "Sidindi",
    "city_zh": "Sidindi",
    "country": "Kenya",
    "country_zh": "肯亞",
    "country_iso_code": "KE",
    "timezone": "Africa/Nairobi",
    "latitude": 0.15994,
    "longitude": 34.36985
  },
  {
    "city": "Sichei",
    "city_zh": "Sichei",
    "country": "Kenya",
    "country_zh": "肯亞",
    "country_iso_code": "KE",
    "timezone": "Africa/Nairobi",
    "latitude": 0.71563,
    "longitude": 34.60604
  },
  {
    "city": "Sibillo",
    "city_zh": "Sibillo",
    "country": "Kenya",
    "country_zh": "肯亞",
    "country_iso_code": "KE",
    "timezone": "Africa/Nairobi",
    "latitude": 0.70208,
    "longitude": 35.8988
  },
  {
    "city": "Sibembe",
    "city_zh": "Sibembe",
    "country": "Kenya",
    "country_zh": "肯亞",
    "country_iso_code": "KE",
    "timezone": "Africa/Nairobi",
    "latitude": 0.50834,
    "longitude": 34.54757
  },
  {
    "city": "Sibala",
    "city_zh": "Sibala",
    "country": "Kenya",
    "country_zh": "肯亞",
    "country_iso_code": "KE",
    "timezone": "Africa/Nairobi",
    "latitude": 0.11805,
    "longitude": 34.85196
  },
  {
    "city": "Sianda",
    "city_zh": "Sianda",
    "country": "Kenya",
    "country_zh": "肯亞",
    "country_iso_code": "KE",
    "timezone": "Africa/Nairobi",
    "latitude": -0.04826,
    "longitude": 34.65244
  },
  {
    "city": "Siamufua",
    "city_zh": "Siamufua",
    "country": "Kenya",
    "country_zh": "肯亞",
    "country_iso_code": "KE",
    "timezone": "Africa/Nairobi",
    "latitude": 0.10746,
    "longitude": 34.07693
  },
  {
    "city": "Siakago",
    "city_zh": "Siakago",
    "country": "Kenya",
    "country_zh": "肯亞",
    "country_iso_code": "KE",
    "timezone": "Africa/Nairobi",
    "latitude": -0.57728,
    "longitude": 37.63996
  },
  {
    "city": "Shiveye",
    "city_zh": "Shiveye",
    "country": "Kenya",
    "country_zh": "肯亞",
    "country_iso_code": "KE",
    "timezone": "Africa/Nairobi",
    "latitude": 0.16888,
    "longitude": 34.80205
  },
  {
    "city": "Shivakala",
    "city_zh": "Shivakala",
    "country": "Kenya",
    "country_zh": "肯亞",
    "country_iso_code": "KE",
    "timezone": "Africa/Nairobi",
    "latitude": 0.2053,
    "longitude": 34.71779
  },
  {
    "city": "Shitsitswi",
    "city_zh": "Shitsitswi",
    "country": "Kenya",
    "country_zh": "肯亞",
    "country_iso_code": "KE",
    "timezone": "Africa/Nairobi",
    "latitude": 0.26142,
    "longitude": 34.50528
  },
  {
    "city": "Shirugu",
    "city_zh": "Shirugu",
    "country": "Kenya",
    "country_zh": "肯亞",
    "country_iso_code": "KE",
    "timezone": "Africa/Nairobi",
    "latitude": 0.46334,
    "longitude": 34.78884
  },
  {
    "city": "Shirotsa",
    "city_zh": "Shirotsa",
    "country": "Kenya",
    "country_zh": "肯亞",
    "country_iso_code": "KE",
    "timezone": "Africa/Nairobi",
    "latitude": 0.14639,
    "longitude": 34.52611
  },
  {
    "city": "Shirotsa",
    "city_zh": "Shirotsa",
    "country": "Kenya",
    "country_zh": "肯亞",
    "country_iso_code": "KE",
    "timezone": "Africa/Nairobi",
    "latitude": 0.23449,
    "longitude": 34.57498
  },
  {
    "city": "Shirazi",
    "city_zh": "Shirazi",
    "country": "Kenya",
    "country_zh": "肯亞",
    "country_iso_code": "KE",
    "timezone": "Africa/Nairobi",
    "latitude": -4.52942,
    "longitude": 39.42262
  },
  {
    "city": "Shiraha",
    "city_zh": "Shiraha",
    "country": "Kenya",
    "country_zh": "肯亞",
    "country_iso_code": "KE",
    "timezone": "Africa/Nairobi",
    "latitude": 0.1906,
    "longitude": 34.56222
  },
  {
    "city": "Shiongo",
    "city_zh": "Shiongo",
    "country": "Kenya",
    "country_zh": "肯亞",
    "country_iso_code": "KE",
    "timezone": "Africa/Nairobi",
    "latitude": 0.17658,
    "longitude": 34.57869
  },
  {
    "city": "Shinyikha",
    "city_zh": "Shinyikha",
    "country": "Kenya",
    "country_zh": "肯亞",
    "country_iso_code": "KE",
    "timezone": "Africa/Nairobi",
    "latitude": 0.25534,
    "longitude": 34.7056
  },
  {
    "city": "Shinyalu",
    "city_zh": "Shinyalu",
    "country": "Kenya",
    "country_zh": "肯亞",
    "country_iso_code": "KE",
    "timezone": "Africa/Nairobi",
    "latitude": 0.22396,
    "longitude": 34.80807
  },
  {
    "city": "Shinoyi",
    "city_zh": "Shinoyi",
    "country": "Kenya",
    "country_zh": "肯亞",
    "country_iso_code": "KE",
    "timezone": "Africa/Nairobi",
    "latitude": 0.34192,
    "longitude": 34.66525
  },
  {
    "city": "Shinaka",
    "city_zh": "Shinaka",
    "country": "Kenya",
    "country_zh": "肯亞",
    "country_iso_code": "KE",
    "timezone": "Africa/Nairobi",
    "latitude": 0.14369,
    "longitude": 34.58594
  },
  {
    "city": "Simotwa",
    "city_zh": "Simotwa",
    "country": "Kenya",
    "country_zh": "肯亞",
    "country_iso_code": "KE",
    "timezone": "Africa/Nairobi",
    "latitude": 0.21633,
    "longitude": 35.5389
  },