[
  {
    "city": "Cantiere",
    "city_zh": "Cantiere",
    "country": "South Sudan",
    "country_zh": "南蘇丹",
    "country_iso_code": "SS",
    "timezone": "Africa/Juba",
    "latitude": 6.44529,
    "longitude": 34.94172
  },
  {
    "city": "Zungumbia",
    "city_zh": "Zungumbia",
    "country": "South Sudan",
    "country_zh": "南蘇丹",
    "country_iso_code": "SS",
    "timezone": "Africa/Juba",
    "latitude": 7.21536,
    "longitude": 28.73034
  },
  {
    "city": "Zingwanda",
    "city_zh": "Zingwanda",
    "country": "South Sudan",
    "country_zh": "南蘇丹",
    "country_iso_code": "SS",
    "timezone": "Africa/Juba",
    "latitude": 7.15806,
    "longitude": 27.93551
  },
  {
    "city": "Zanga",
    "city_zh": "Zanga",
    "country": "South Sudan",
    "country_zh": "南蘇丹",
    "country_iso_code": "SS",
    "timezone": "Africa/Juba",
    "latitude": 8.12485,
    "longitude": 25.57618
  },
  {
    "city": "Zakka",
    "city_zh": "Zakka",
    "country": "South Sudan",
    "country_zh": "南蘇丹",
    "country_iso_code": "SS",
    "timezone": "Africa/Juba",
    "latitude": 8.19117,
    "longitude": 25.87889
  },
  {
    "city": "Zabit",
    "city_zh": "Zabit",
    "country": "South Sudan",
    "country_zh": "南蘇丹",
    "country_iso_code": "SS",
    "timezone": "Africa/Juba",
    "latitude": 5.53671,
    "longitude": 30.8682
  },
  {
    "city": "Yusuf Natcha",
    "city_zh": "Yusuf Natcha",
    "country": "South Sudan",
    "country_zh": "南蘇丹",
    "country_iso_code": "SS",
    "timezone": "Africa/Juba",
    "latitude": 10.06888,
    "longitude": 33.39765
  },
  {
    "city": "Yusuf Batil",
    "city_zh": "Yusuf Batil",
    "country": "South Sudan",
    "country_zh": "南蘇丹",
    "country_iso_code": "SS",
    "timezone": "Africa/Juba",
    "latitude": 10.01773,
    "longitude": 33.54576
  },
  {
    "city": "Yungriom",
    "city_zh": "Yungriom",
    "country": "South Sudan",
    "country_zh": "南蘇丹",
    "country_iso_code": "SS",
    "timezone": "Africa/Juba",
    "latitude": 7.81201,
    "longitude": 28.70577
  },
  {
    "city": "Yoynyang",
    "city_zh": "Yoynyang",
    "country": "South Sudan",
    "country_zh": "南蘇丹",
    "country_iso_code": "SS",
    "timezone": "Africa/Juba",
    "latitude": 9.29109,
    "longitude": 29.79061
  },
  {
    "city": "Yor",
    "city_zh": "Yor",
    "country": "South Sudan",
    "country_zh": "南蘇丹",
    "country_iso_code": "SS",
    "timezone": "Africa/Juba",
    "latitude": 8.28808,
    "longitude": 32.92637
  },
  {
    "city": "Yomding",
    "city_zh": "Yomding",
    "country": "South Sudan",
    "country_zh": "南蘇丹",
    "country_iso_code": "SS",
    "timezone": "Africa/Juba",
    "latitude": 8.63112,
    "longitude": 32.85874
  },
  {
    "city": "Yom",
    "city_zh": "Yom",
    "country": "South Sudan",
    "country_zh": "南蘇丹",
    "country_iso_code": "SS",
    "timezone": "Africa/Juba",
    "latitude": 9.17763,
    "longitude": 30.78497
  },
  {
    "city": "Yolwot",
    "city_zh": "Yolwot",
    "country": "South Sudan",
    "country_zh": "南蘇丹",
    "country_iso_code": "SS",
    "timezone": "Africa/Juba",
    "latitude": 10.40099,
    "longitude": 32.32172
  },
  {
    "city": "Yokwai",
    "city_zh": "Yokwai",
    "country": "South Sudan",
    "country_zh": "南蘇丹",
    "country_iso_code": "SS",
    "timezone": "Africa/Juba",
    "latitude": 4.417,
    "longitude": 31.56804
  },
  {
    "city": "Yirwa",
    "city_zh": "Yirwa",
    "country": "South Sudan",
    "country_zh": "南蘇丹",
    "country_iso_code": "SS",
    "timezone": "Africa/Juba",
    "latitude": 7.77996,
    "longitude": 27.22694
  },
  {
    "city": "Yirol",
    "city_zh": "Yirol",
    "country": "South Sudan",
    "country_zh": "南蘇丹",
    "country_iso_code": "SS",
    "timezone": "Africa/Juba",
    "latitude": 6.5525,
    "longitude": 30.49806
  },
  {
    "city": "Yinkusa",
    "city_zh": "Yinkusa",
    "country": "South Sudan",
    "country_zh": "南蘇丹",
    "country_iso_code": "SS",
    "timezone": "Africa/Juba",
    "latitude": 9.83023,
    "longitude": 30.05191
  },
  {
    "city": "Yinga",
    "city_zh": "Yinga",
    "country": "South Sudan",
    "country_zh": "南蘇丹",
    "country_iso_code": "SS",
    "timezone": "Africa/Juba",
    "latitude": 7.70627,
    "longitude": 27.77485
  },
  {
    "city": "Yill",
    "city_zh": "Yill",
    "country": "South Sudan",
    "country_zh": "南蘇丹",
    "country_iso_code": "SS",
    "timezone": "Africa/Juba",
    "latitude": 8.31137,
    "longitude": 30.03363
  },
  {
    "city": "Yih",
    "city_zh": "Yih",
    "country": "South Sudan",
    "country_zh": "南蘇丹",
    "country_iso_code": "SS",
    "timezone": "Africa/Juba",
    "latitude": 9.03106,
    "longitude": 32.90953
  },
  {
    "city": "Yenanoi",
    "city_zh": "Yenanoi",
    "country": "South Sudan",
    "country_zh": "南蘇丹",
    "country_iso_code": "SS",
    "timezone": "Africa/Juba",
    "latitude": 9.15316,
    "longitude": 31.53341
  },
  {
    "city": "Yelgu",
    "city_zh": "Yelgu",
    "country": "South Sudan",
    "country_zh": "南蘇丹",
    "country_iso_code": "SS",
    "timezone": "Africa/Juba",
    "latitude": 10.01062,
    "longitude": 33.50947
  },
  {
    "city": "Yelakot",
    "city_zh": "Yelakot",
    "country": "South Sudan",
    "country_zh": "南蘇丹",
    "country_iso_code": "SS",
    "timezone": "Africa/Juba",
    "latitude": 5.92286,
    "longitude": 31.61941
  },
  {
    "city": "Yei",
    "city_zh": "耶伊",
    "country": "South Sudan",
    "country_zh": "南蘇丹",
    "country_iso_code": "SS",
    "timezone": "Africa/Juba",
    "latitude": 4.09444,
    "longitude": 30.67639
  },
  {
    "city": "Yegi Yegi",
    "city_zh": "Yegi Yegi",
    "country": "South Sudan",
    "country_zh": "南蘇丹",
    "country_iso_code": "SS",
    "timezone": "Africa/Juba",
    "latitude": 4.73147,
    "longitude": 32.65012
  },
  {
    "city": "Yedid",
    "city_zh": "Yedid",
    "country": "South Sudan",
    "country_zh": "南蘇丹",
    "country_iso_code": "SS",
    "timezone": "Africa/Juba",
    "latitude": 8.20069,
    "longitude": 32.27193
  },
  {
    "city": "Yebisak",
    "city_zh": "Yebisak",
    "country": "South Sudan",
    "country_zh": "南蘇丹",
    "country_iso_code": "SS",
    "timezone": "Africa/Juba",
    "latitude": 5.82287,
    "longitude": 31.77373
  },
  {
    "city": "Yeba",
    "city_zh": "Yeba",
    "country": "South Sudan",
    "country_zh": "南蘇丹",
    "country_iso_code": "SS",
    "timezone": "Africa/Juba",
    "latitude": 5.57536,
    "longitude": 30.71068
  },
  {
    "city": "Yarkwaich",
    "city_zh": "Yarkwaich",
    "country": "South Sudan",
    "country_zh": "南蘇丹",
    "country_iso_code": "SS",
    "timezone": "Africa/Juba",
    "latitude": 8.93113,
    "longitude": 32.41308
  },
  {
    "city": "Yari",
    "city_zh": "Yari",
    "country": "South Sudan",
    "country_zh": "南蘇丹",
    "country_iso_code": "SS",
    "timezone": "Africa/Juba",
    "latitude": 3.86303,
    "longitude": 30.75569
  },
  {
    "city": "Yargut",
    "city_zh": "Yargut",
    "country": "South Sudan",
    "country_zh": "南蘇丹",
    "country_iso_code": "SS",
    "timezone": "Africa/Juba",
    "latitude": 8.994,
    "longitude": 27.46373
  },
  {
    "city": "Yanguba",
    "city_zh": "Yanguba",
    "country": "South Sudan",
    "country_zh": "南蘇丹",
    "country_iso_code": "SS",
    "timezone": "Africa/Juba",
    "latitude": 8.02591,
    "longitude": 26.04296
  },
  {
    "city": "Yangenya",
    "city_zh": "Yangenya",
    "country": "South Sudan",
    "country_zh": "南蘇丹",
    "country_iso_code": "SS",
    "timezone": "Africa/Juba",
    "latitude": 8.87178,
    "longitude": 26.15319
  },
  {
    "city": "Yamma",
    "city_zh": "Yamma",
    "country": "South Sudan",
    "country_zh": "南蘇丹",
    "country_iso_code": "SS",
    "timezone": "Africa/Juba",
    "latitude": 8.28627,
    "longitude": 27.87675
  },
  {
    "city": "Yambio",
    "city_zh": "Yambio",
    "country": "South Sudan",
    "country_zh": "南蘇丹",
    "country_iso_code": "SS",
    "timezone": "Africa/Juba",
    "latitude": 4.57083,
    "longitude": 28.39417
  },
  {
    "city": "Yamarogo",
    "city_zh": "Yamarogo",
    "country": "South Sudan",
    "country_zh": "南蘇丹",
    "country_iso_code": "SS",
    "timezone": "Africa/Juba",
    "latitude": 7.67208,
    "longitude": 26.20941
  },
  {
    "city": "Yali",
    "city_zh": "Yali",
    "country": "South Sudan",
    "country_zh": "南蘇丹",
    "country_iso_code": "SS",
    "timezone": "Africa/Juba",
    "latitude": 6.64039,
    "longitude": 30.45543
  },
  {
    "city": "Yala",
    "city_zh": "Yala",
    "country": "South Sudan",
    "country_zh": "南蘇丹",
    "country_iso_code": "SS",
    "timezone": "Africa/Juba",
    "latitude": 8.06517,
    "longitude": 27.33855
  },
  {
    "city": "Yakara Dogatwan",
    "city_zh": "Yakara Dogatwan",
    "country": "South Sudan",
    "country_zh": "南蘇丹",
    "country_iso_code": "SS",
    "timezone": "Africa/Juba",
    "latitude": 5.26303,
    "longitude": 31.79721
  },
  {
    "city": "Yaiwal",
    "city_zh": "Yaiwal",
    "country": "South Sudan",
    "country_zh": "南蘇丹",
    "country_iso_code": "SS",
    "timezone": "Africa/Juba",
    "latitude": 8.94752,
    "longitude": 33.53291
  },
  {
    "city": "Yagaru",
    "city_zh": "Yagaru",
    "country": "South Sudan",
    "country_zh": "南蘇丹",
    "country_iso_code": "SS",
    "timezone": "Africa/Juba",
    "latitude": 8.08588,
    "longitude": 25.99042
  },
  {
    "city": "Yafgar",
    "city_zh": "Yafgar",
    "country": "South Sudan",
    "country_zh": "南蘇丹",
    "country_iso_code": "SS",
    "timezone": "Africa/Juba",
    "latitude": 8.75464,
    "longitude": 30.97713
  },
  {
    "city": "Wuthol",
    "city_zh": "Wuthol",
    "country": "South Sudan",
    "country_zh": "南蘇丹",
    "country_iso_code": "SS",
    "timezone": "Africa/Juba",
    "latitude": 9.26819,
    "longitude": 31.63813
  },
  {
    "city": "Wuthoing",
    "city_zh": "Wuthoing",
    "country": "South Sudan",
    "country_zh": "南蘇丹",
    "country_iso_code": "SS",
    "timezone": "Africa/Juba",
    "latitude": 9.01008,
    "longitude": 29.82557
  },
  {
    "city": "Wuriyang",
    "city_zh": "Wuriyang",
    "country": "South Sudan",
    "country_zh": "南蘇丹",
    "country_iso_code": "SS",
    "timezone": "Africa/Juba",
    "latitude": 9.00066,
    "longitude": 31.52494
  },
  {
    "city": "Wurang",
    "city_zh": "Wurang",
    "country": "South Sudan",
    "country_zh": "南蘇丹",
    "country_iso_code": "SS",
    "timezone": "Africa/Juba",
    "latitude": 10.26139,
    "longitude": 32.58327
  },
  {
    "city": "Wunyat",
    "city_zh": "Wunyat",
    "country": "South Sudan",
    "country_zh": "南蘇丹",
    "country_iso_code": "SS",
    "timezone": "Africa/Juba",
    "latitude": 10.60788,
    "longitude": 32.55693
  },
  {
    "city": "Wunyar",
    "city_zh": "Wunyar",
    "country": "South Sudan",
    "country_zh": "南蘇丹",
    "country_iso_code": "SS",
    "timezone": "Africa/Juba",
    "latitude": 9.19607,
    "longitude": 29.01889
  },
  {
    "city": "Wunura",
    "city_zh": "Wunura",
    "country": "South Sudan",
    "country_zh": "南蘇丹",
    "country_iso_code": "SS",
    "timezone": "Africa/Juba",
    "latitude": 5.91604,
    "longitude": 31.62984
  },
  {
    "city": "Wun Tit",
    "city_zh": "Wun Tit",
    "country": "South Sudan",
    "country_zh": "南蘇丹",
    "country_iso_code": "SS",
    "timezone": "Africa/Juba",
    "latitude": 8.08665,
    "longitude": 28.04035
  },
  {
    "city": "Wunthou",
    "city_zh": "Wunthou",
    "country": "South Sudan",
    "country_zh": "南蘇丹",
    "country_iso_code": "SS",
    "timezone": "Africa/Juba",
    "latitude": 8.63051,
    "longitude": 33.08312
  },
  {
    "city": "Wuntau",
    "city_zh": "Wuntau",
    "country": "South Sudan",
    "country_zh": "南蘇丹",
    "country_iso_code": "SS",
    "timezone": "Africa/Juba",
    "latitude": 10.26481,
    "longitude": 32.55881
  },
  {
    "city": "Wuntao",
    "city_zh": "Wuntao",
    "country": "South Sudan",
    "country_zh": "南蘇丹",
    "country_iso_code": "SS",
    "timezone": "Africa/Juba",
    "latitude": 9.72154,
    "longitude": 32.2398
  },
  {
    "city": "Wun Shwai",
    "city_zh": "Wun Shwai",
    "country": "South Sudan",
    "country_zh": "南蘇丹",
    "country_iso_code": "SS",
    "timezone": "Africa/Juba",
    "latitude": 8.01289,
    "longitude": 29.45157
  },
  {
    "city": "Wun Shol",
    "city_zh": "Wun Shol",
    "country": "South Sudan",
    "country_zh": "南蘇丹",
    "country_iso_code": "SS",
    "timezone": "Africa/Juba",
    "latitude": 7.1879,
    "longitude": 28.84955
  },
  {
    "city": "Wunshaiye",
    "city_zh": "Wunshaiye",
    "country": "South Sudan",
    "country_zh": "南蘇丹",
    "country_iso_code": "SS",
    "timezone": "Africa/Juba",
    "latitude": 7.13678,
    "longitude": 33.80083
  },
  {
    "city": "Wun Rual",
    "city_zh": "Wun Rual",
    "country": "South Sudan",
    "country_zh": "南蘇丹",
    "country_iso_code": "SS",
    "timezone": "Africa/Juba",
    "latitude": 7.25972,
    "longitude": 30.35972
  },
  {
    "city": "Wun Rog",
    "city_zh": "Wun Rog",
    "country": "South Sudan",
    "country_zh": "南蘇丹",
    "country_iso_code": "SS",
    "timezone": "Africa/Juba",
    "latitude": 8.98977,
    "longitude": 28.3026
  },
  {
    "city": "Wun Liyu",
    "city_zh": "Wun Liyu",
    "country": "South Sudan",
    "country_zh": "南蘇丹",
    "country_iso_code": "SS",
    "timezone": "Africa/Juba",
    "latitude": 8.9209,
    "longitude": 28.34964
  },
  {
    "city": "Wun Lit",
    "city_zh": "Wun Lit",
    "country": "South Sudan",
    "country_zh": "南蘇丹",
    "country_iso_code": "SS",
    "timezone": "Africa/Juba",
    "latitude": 8.40446,
    "longitude": 28.64631
  },
  {
    "city": "Wun Liet",
    "city_zh": "Wun Liet",
    "country": "South Sudan",
    "country_zh": "南蘇丹",
    "country_iso_code": "SS",
    "timezone": "Africa/Juba",
    "latitude": 8.79453,
    "longitude": 28.22296
  },
  {
    "city": "Wunkwil",
    "city_zh": "Wunkwil",
    "country": "South Sudan",
    "country_zh": "南蘇丹",
    "country_iso_code": "SS",
    "timezone": "Africa/Juba",
    "latitude": 8.64432,
    "longitude": 33.71979
  },
  {
    "city": "Wunkwil",
    "city_zh": "Wunkwil",
    "country": "South Sudan",
    "country_zh": "南蘇丹",
    "country_iso_code": "SS",
    "timezone": "Africa/Juba",
    "latitude": 8.21614,
    "longitude": 32.23148
  },
  {
    "city": "Wun Kwel",
    "city_zh": "Wun Kwel",
    "country": "South Sudan",
    "country_zh": "南蘇丹",
    "country_iso_code": "SS",
    "timezone": "Africa/Juba",
    "latitude": 8.3041,
    "longitude": 29.23044
  },
  {
    "city": "Wun Kwel",
    "city_zh": "Wun Kwel",
    "country": "South Sudan",
    "country_zh": "南蘇丹",
    "country_iso_code": "SS",
    "timezone": "Africa/Juba",
    "latitude": 8.16906,
    "longitude": 28.65489
  },
  {
    "city": "Wun Kwel",
    "city_zh": "Wun Kwel",
    "country": "South Sudan",
    "country_zh": "南蘇丹",
    "country_iso_code": "SS",
    "timezone": "Africa/Juba",
    "latitude": 8.04617,
    "longitude": 28.91528
  },
  {
    "city": "Wunkur",
    "city_zh": "Wunkur",
    "country": "South Sudan",
    "country_zh": "南蘇丹",
    "country_iso_code": "SS",
    "timezone": "Africa/Juba",
    "latitude": 9.69103,
    "longitude": 30.781
  },
  {
    "city": "Wunkur",
    "city_zh": "Wunkur",
    "country": "South Sudan",
    "country_zh": "南蘇丹",
    "country_iso_code": "SS",
    "timezone": "Africa/Juba",
    "latitude": 7.34175,
    "longitude": 29.54539
  },
  {
    "city": "Wun Kote",
    "city_zh": "Wun Kote",
    "country": "South Sudan",
    "country_zh": "南蘇丹",
    "country_iso_code": "SS",
    "timezone": "Africa/Juba",
    "latitude": 7.72371,
    "longitude": 29.03256
  },
  {
    "city": "Wunkok",
    "city_zh": "Wunkok",
    "country": "South Sudan",
    "country_zh": "南蘇丹",
    "country_iso_code": "SS",
    "timezone": "Africa/Juba",
    "latitude": 6.87889,
    "longitude": 33.07389
  },
  {
    "city": "Wunkoi",
    "city_zh": "Wunkoi",
    "country": "South Sudan",
    "country_zh": "南蘇丹",
    "country_iso_code": "SS",
    "timezone": "Africa/Juba",
    "latitude": 8.92387,
    "longitude": 33.57669
  },
  {
    "city": "Wunkir",
    "city_zh": "Wunkir",
    "country": "South Sudan",
    "country_zh": "南蘇丹",
    "country_iso_code": "SS",
    "timezone": "Africa/Juba",
    "latitude": 9.03687,
    "longitude": 32.15178
  },
  {
    "city": "Wunkir",
    "city_zh": "Wunkir",
    "country": "South Sudan",
    "country_zh": "南蘇丹",
    "country_iso_code": "SS",
    "timezone": "Africa/Juba",
    "latitude": 9.00764,
    "longitude": 33.45383
  },
  {
    "city": "Wunkel",
    "city_zh": "Wunkel",
    "country": "South Sudan",
    "country_zh": "南蘇丹",
    "country_iso_code": "SS",
    "timezone": "Africa/Juba",
    "latitude": 6.65778,
    "longitude": 30.92444
  },
  {
    "city": "Wuniyer",
    "city_zh": "Wuniyer",
    "country": "South Sudan",
    "country_zh": "南蘇丹",
    "country_iso_code": "SS",
    "timezone": "Africa/Juba",
    "latitude": 10.29313,
    "longitude": 32.48577
  },
  {
    "city": "Wunging",
    "city_zh": "Wunging",
    "country": "South Sudan",
    "country_zh": "南蘇丹",
    "country_iso_code": "SS",
    "timezone": "Africa/Juba",
    "latitude": 8.93726,
    "longitude": 31.80712
  },
  {
    "city": "Wun Ghir",
    "city_zh": "Wun Ghir",
    "country": "South Sudan",
    "country_zh": "南蘇丹",
    "country_iso_code": "SS",
    "timezone": "Africa/Juba",
    "latitude": 11.9,
    "longitude": 32.78333
  },
  {
    "city": "Bangalo",
    "city_zh": "Bangalo",
    "country": "South Sudan",
    "country_zh": "南蘇丹",
    "country_iso_code": "SS",
    "timezone": "Africa/Juba",
    "latitude": 4.80833,
    "longitude": 30.32764
  },
  {
    "city": "Wundong",
    "city_zh": "Wundong",
    "country": "South Sudan",
    "country_zh": "南蘇丹",
    "country_iso_code": "SS",
    "timezone": "Africa/Juba",
    "latitude": 8.98073,
    "longitude": 31.27731
  },
  {
    "city": "Wundong",
    "city_zh": "Wundong",
    "country": "South Sudan",
    "country_zh": "南蘇丹",
    "country_iso_code": "SS",
    "timezone": "Africa/Juba",
    "latitude": 7.46362,
    "longitude": 30.45531
  },
  {
    "city": "Wundok",
    "city_zh": "Wundok",
    "country": "South Sudan",
    "country_zh": "南蘇丹",
    "country_iso_code": "SS",
    "timezone": "Africa/Juba",
    "latitude": 10.37911,
    "longitude": 32.59769
  },
  {
    "city": "Wunbut",
    "city_zh": "Wunbut",
    "country": "South Sudan",
    "country_zh": "南蘇丹",
    "country_iso_code": "SS",
    "timezone": "Africa/Juba",
    "latitude": 11.88333,
    "longitude": 32.8
  },
  {
    "city": "Wunbut",
    "city_zh": "Wunbut",
    "country": "South Sudan",
    "country_zh": "南蘇丹",
    "country_iso_code": "SS",
    "timezone": "Africa/Juba",
    "latitude": 9.26065,
    "longitude": 29.71667
  },
  {
    "city": "Wunayan",
    "city_zh": "Wunayan",
    "country": "South Sudan",
    "country_zh": "南蘇丹",
    "country_iso_code": "SS",
    "timezone": "Africa/Juba",
    "latitude": 10.62664,
    "longitude": 32.55577
  },
  {
    "city": "Wunawol",
    "city_zh": "Wunawol",
    "country": "South Sudan",
    "country_zh": "南蘇丹",
    "country_iso_code": "SS",
    "timezone": "Africa/Juba",
    "latitude": 10.81654,
    "longitude": 32.59681
  },
  {
    "city": "Wunarual",
    "city_zh": "Wunarual",
    "country": "South Sudan",
    "country_zh": "南蘇丹",
    "country_iso_code": "SS",
    "timezone": "Africa/Juba",
    "latitude": 8.82729,
    "longitude": 31.86393
  },
  {
    "city": "Wunapith",
    "city_zh": "Wunapith",
    "country": "South Sudan",
    "country_zh": "南蘇丹",
    "country_iso_code": "SS",
    "timezone": "Africa/Juba",
    "latitude": 8.94694,
    "longitude": 31.79036
  },
  {
    "city": "Wunanyak",
    "city_zh": "Wunanyak",
    "country": "South Sudan",
    "country_zh": "南蘇丹",
    "country_iso_code": "SS",
    "timezone": "Africa/Juba",
    "latitude": 9.13722,
    "longitude": 31.72444
  },
  {
    "city": "Wunamith",
    "city_zh": "Wunamith",
    "country": "South Sudan",
    "country_zh": "南蘇丹",
    "country_iso_code": "SS",
    "timezone": "Africa/Juba",
    "latitude": 9.70916,
    "longitude": 30.75043
  },
  {
    "city": "Wun Amet",
    "city_zh": "Wun Amet",
    "country": "South Sudan",
    "country_zh": "南蘇丹",
    "country_iso_code": "SS",
    "timezone": "Africa/Juba",
    "latitude": 7.96784,
    "longitude": 29.11769
  },
  {
    "city": "Wunalong",
    "city_zh": "Wunalong",
    "country": "South Sudan",
    "country_zh": "南蘇丹",
    "country_iso_code": "SS",
    "timezone": "Africa/Juba",
    "latitude": 9.25905,
    "longitude": 31.67007
  },
  {
    "city": "Wun Aliet",
    "city_zh": "Wun Aliet",
    "country": "South Sudan",
    "country_zh": "南蘇丹",
    "country_iso_code": "SS",
    "timezone": "Africa/Juba",
    "latitude": 7.2201,
    "longitude": 30.32469
  },
  {
    "city": "Wunaleng",
    "city_zh": "Wunaleng",
    "country": "South Sudan",
    "country_zh": "南蘇丹",
    "country_iso_code": "SS",
    "timezone": "Africa/Juba",
    "latitude": 5.64955,
    "longitude": 31.19834
  },
  {
    "city": "Wunalam",
    "city_zh": "Wunalam",
    "country": "South Sudan",
    "country_zh": "南蘇丹",
    "country_iso_code": "SS",
    "timezone": "Africa/Juba",
    "latitude": 9.09421,
    "longitude": 31.73679
  },
  {
    "city": "Wunakoich",
    "city_zh": "Wunakoich",
    "country": "South Sudan",
    "country_zh": "南蘇丹",
    "country_iso_code": "SS",
    "timezone": "Africa/Juba",
    "latitude": 9.7982,
    "longitude": 32.14525
  },
  {
    "city": "Wunakir",
    "city_zh": "Wunakir",
    "country": "South Sudan",
    "country_zh": "南蘇丹",
    "country_iso_code": "SS",
    "timezone": "Africa/Juba",
    "latitude": 9.24474,
    "longitude": 31.68019
  },
  {
    "city": "Wunakei",
    "city_zh": "Wunakei",
    "country": "South Sudan",
    "country_zh": "南蘇丹",
    "country_iso_code": "SS",
    "timezone": "Africa/Juba",
    "latitude": 8.96784,
    "longitude": 31.77491
  },
  {
    "city": "Wunagwan",
    "city_zh": "Wunagwan",
    "country": "South Sudan",
    "country_zh": "南蘇丹",
    "country_iso_code": "SS",
    "timezone": "Africa/Juba",
    "latitude": 9.73485,
    "longitude": 32.29012
  },
  {
    "city": "Wunagoi",
    "city_zh": "Wunagoi",
    "country": "South Sudan",
    "country_zh": "南蘇丹",
    "country_iso_code": "SS",
    "timezone": "Africa/Juba",
    "latitude": 9.07303,
    "longitude": 32.38147
  },
  {
    "city": "Wunaget",
    "city_zh": "Wunaget",
    "country": "South Sudan",
    "country_zh": "南蘇丹",
    "country_iso_code": "SS",
    "timezone": "Africa/Juba",
    "latitude": 9.05241,
    "longitude": 32.38514
  },
  {
    "city": "Wunagak",
    "city_zh": "Wunagak",
    "country": "South Sudan",
    "country_zh": "南蘇丹",
    "country_iso_code": "SS",
    "timezone": "Africa/Juba",
    "latitude": 9.28674,
    "longitude": 32.08814
  },
  {
    "city": "Wunadup",
    "city_zh": "Wunadup",
    "country": "South Sudan",
    "country_zh": "南蘇丹",
    "country_iso_code": "SS",
    "timezone": "Africa/Juba",
    "latitude": 10.28263,
    "longitude": 32.57049
  },
  {
    "city": "Wunachwil",
    "city_zh": "Wunachwil",
    "country": "South Sudan",
    "country_zh": "南蘇丹",
    "country_iso_code": "SS",
    "timezone": "Africa/Juba",
    "latitude": 10.23561,
    "longitude": 32.45992
  },
  {
    "city": "Wun",
    "city_zh": "Wun",
    "country": "South Sudan",
    "country_zh": "南蘇丹",
    "country_iso_code": "SS",
    "timezone": "Africa/Juba",
    "latitude": 7.90632,
    "longitude": 29.23009
  },
  {
    "city": "Wulyang",
    "city_zh": "Wulyang",
    "country": "South Sudan",
    "country_zh": "南蘇丹",
    "country_iso_code": "SS",
    "timezone": "Africa/Juba",
    "latitude": 8.09817,
    "longitude": 30.85294
  },
  {
    "city": "Wulikare",
    "city_zh": "Wulikare",
    "country": "South Sudan",
    "country_zh": "南蘇丹",
    "country_iso_code": "SS",
    "timezone": "Africa/Juba",
    "latitude": 5.08307,
    "longitude": 31.46917
  },
  {
    "city": "Wulang",
    "city_zh": "Wulang",
    "country": "South Sudan",
    "country_zh": "南蘇丹",
    "country_iso_code": "SS",
    "timezone": "Africa/Juba",
    "latitude": 8.22122,
    "longitude": 32.21896
  },
  {
    "city": "Wubek",
    "city_zh": "Wubek",
    "country": "South Sudan",
    "country_zh": "南蘇丹",
    "country_iso_code": "SS",
    "timezone": "Africa/Juba",
    "latitude": 9.82796,
    "longitude": 30.07895
  },
  {
    "city": "Woroworo",
    "city_zh": "Woroworo",
    "country": "South Sudan",
    "country_zh": "南蘇丹",
    "country_iso_code": "SS",
    "timezone": "Africa/Juba",
    "latitude": 4.23894,
    "longitude": 33.07411
  },
  {
    "city": "Wor",
    "city_zh": "Wor",
    "country": "South Sudan",
    "country_zh": "南蘇丹",
    "country_iso_code": "SS",
    "timezone": "Africa/Juba",
    "latitude": 8.50584,
    "longitude": 30.63351
  },
  {
    "city": "Wontoi",
    "city_zh": "Wontoi",
    "country": "South Sudan",
    "country_zh": "南蘇丹",
    "country_iso_code": "SS",
    "timezone": "Africa/Juba",
    "latitude": 10.46505,
    "longitude": 32.46793
  },
  {
    "city": "Wongotero",
    "city_zh": "Wongotero",
    "country": "South Sudan",
    "country_zh": "南蘇丹",
    "country_iso_code": "SS",
    "timezone": "Africa/Juba",
    "latitude": 7.73035,
    "longitude": 33.03581
  },
  {
    "city": "Wongkurnuk",
    "city_zh": "Wongkurnuk",
    "country": "South Sudan",
    "country_zh": "南蘇丹",
    "country_iso_code": "SS",
    "timezone": "Africa/Juba",
    "latitude": 8.9747,
    "longitude": 26.84836
  },
  {
    "city": "Wokoi",
    "city_zh": "Wokoi",
    "country": "South Sudan",
    "country_zh": "南蘇丹",
    "country_iso_code": "SS",
    "timezone": "Africa/Juba",
    "latitude": 3.86072,
    "longitude": 31.52203
  },
  {
    "city": "Woke",
    "city_zh": "Woke",
    "country": "South Sudan",
    "country_zh": "南蘇丹",
    "country_iso_code": "SS",
    "timezone": "Africa/Juba",
    "latitude": 4.57848,
    "longitude": 31.07628
  },
  {
    "city": "Woinglek",
    "city_zh": "Woinglek",
    "country": "South Sudan",
    "country_zh": "南蘇丹",
    "country_iso_code": "SS",
    "timezone": "Africa/Juba",
    "latitude": 8.41404,
    "longitude": 28.65013
  },
  {
    "city": "Woendwal",
    "city_zh": "Woendwal",
    "country": "South Sudan",
    "country_zh": "南蘇丹",
    "country_iso_code": "SS",
    "timezone": "Africa/Juba",
    "latitude": 6.43553,
    "longitude": 29.97429
  },
  {
    "city": "Witia",
    "city_zh": "Witia",
    "country": "South Sudan",
    "country_zh": "南蘇丹",
    "country_iso_code": "SS",
    "timezone": "Africa/Juba",
    "latitude": 7.586,
    "longitude": 27.79825
  },
  {
    "city": "Wit Dokott",
    "city_zh": "Wit Dokott",
    "country": "South Sudan",
    "country_zh": "南蘇丹",
    "country_iso_code": "SS",
    "timezone": "Africa/Juba",
    "latitude": 9.43321,
    "longitude": 31.57505
  },
  {
    "city": "Wishia",
    "city_zh": "Wishia",
    "country": "South Sudan",
    "country_zh": "南蘇丹",
    "country_iso_code": "SS",
    "timezone": "Africa/Juba",
    "latitude": 8.34695,
    "longitude": 26.78398
  },
  {
    "city": "Winyanlonge",
    "city_zh": "Winyanlonge",
    "country": "South Sudan",
    "country_zh": "南蘇丹",
    "country_iso_code": "SS",
    "timezone": "Africa/Juba",
    "latitude": 3.94,
    "longitude": 32.1827
  },
  {
    "city": "Winejok",
    "city_zh": "Winejok",
    "country": "South Sudan",
    "country_zh": "南蘇丹",
    "country_iso_code": "SS",
    "timezone": "Africa/Juba",
    "latitude": 9.01222,
    "longitude": 27.57081
  },
  {
    "city": "Wilyot",
    "city_zh": "Wilyot",
    "country": "South Sudan",
    "country_zh": "南蘇丹",
    "country_iso_code": "SS",
    "timezone": "Africa/Juba",
    "latitude": 9.28333,
    "longitude": 28.83333
  },
  {
    "city": "Wilnyang",
    "city_zh": "Wilnyang",
    "country": "South Sudan",
    "country_zh": "南蘇丹",
    "country_iso_code": "SS",
    "timezone": "Africa/Juba",
    "latitude": 9.40991,
    "longitude": 31.31167
  },
  {
    "city": "Willa",
    "city_zh": "Willa",
    "country": "South Sudan",
    "country_zh": "南蘇丹",
    "country_iso_code": "SS",
    "timezone": "Africa/Juba",
    "latitude": 9.07613,
    "longitude": 29.2058
  },
  {
    "city": "Wijur",
    "city_zh": "Wijur",
    "country": "South Sudan",
    "country_zh": "南蘇丹",
    "country_iso_code": "SS",
    "timezone": "Africa/Juba",
    "latitude": 9.26579,
    "longitude": 32.09054
  },
  {
    "city": "Wijbur",
    "city_zh": "Wijbur",
    "country": "South Sudan",
    "country_zh": "南蘇丹",
    "country_iso_code": "SS",
    "timezone": "Africa/Juba",
    "latitude": 9.77144,
    "longitude": 31.89922
  },
  {
    "city": "Widhong",
    "city_zh": "Widhong",
    "country": "South Sudan",
    "country_zh": "南蘇丹",
    "country_iso_code": "SS",
    "timezone": "Africa/Juba",
    "latitude": 9.8201,
    "longitude": 30.28374
  },
  {
    "city": "Whure",
    "city_zh": "Whure",
    "country": "South Sudan",
    "country_zh": "南蘇丹",
    "country_iso_code": "SS",
    "timezone": "Africa/Juba",
    "latitude": 3.81935,
    "longitude": 33.41273
  },
  {
    "city": "Weth",
    "city_zh": "Weth",
    "country": "South Sudan",
    "country_zh": "南蘇丹",
    "country_iso_code": "SS",
    "timezone": "Africa/Juba",
    "latitude": 9.28705,
    "longitude": 32.72339
  },
  {
    "city": "Weth",
    "city_zh": "Weth",
    "country": "South Sudan",
    "country_zh": "南蘇丹",
    "country_iso_code": "SS",
    "timezone": "Africa/Juba",
    "latitude": 8.90981,
    "longitude": 33.08869
  },
  {
    "city": "Wer Ping",
    "city_zh": "Wer Ping",
    "country": "South Sudan",
    "country_zh": "南蘇丹",
    "country_iso_code": "SS",
    "timezone": "Africa/Juba",
    "latitude": 9.45646,
    "longitude": 28.90698
  },
  {
    "city": "Weroja",
    "city_zh": "Weroja",
    "country": "South Sudan",
    "country_zh": "南蘇丹",
    "country_iso_code": "SS",
    "timezone": "Africa/Juba",
    "latitude": 5.14609,
    "longitude": 30.82617
  },
  {
    "city": "Wer Ngurp",
    "city_zh": "Wer Ngurp",
    "country": "South Sudan",
    "country_zh": "南蘇丹",
    "country_iso_code": "SS",
    "timezone": "Africa/Juba",
    "latitude": 10.05842,
    "longitude": 30.11763
  },
  {
    "city": "Werakot",
    "city_zh": "Werakot",
    "country": "South Sudan",
    "country_zh": "南蘇丹",
    "country_iso_code": "SS",
    "timezone": "Africa/Juba",
    "latitude": 6.96214,
    "longitude": 29.18699
  },
  {
    "city": "Wun Kwel",
    "city_zh": "Wun Kwel",
    "country": "South Sudan",
    "country_zh": "南蘇丹",
    "country_iso_code": "SS",
    "timezone": "Africa/Juba",
    "latitude": 8.16667,
    "longitude": 28.03652
  },
  {
    "city": "Wen",
    "city_zh": "Wen",
    "country": "South Sudan",
    "country_zh": "南蘇丹",
    "country_iso_code": "SS",
    "timezone": "Africa/Juba",
    "latitude": 8.28474,
    "longitude": 27.63474
  },
  {
    "city": "Welamoi",
    "city_zh": "Welamoi",
    "country": "South Sudan",
    "country_zh": "南蘇丹",
    "country_iso_code": "SS",
    "timezone": "Africa/Juba",
    "latitude": 4.52621,
    "longitude": 33.36182
  },
  {
    "city": "Weinial",
    "city_zh": "Weinial",
    "country": "South Sudan",
    "country_zh": "南蘇丹",
    "country_iso_code": "SS",
    "timezone": "Africa/Juba",
    "latitude": 8.3386,
    "longitude": 31.88296
  },
  {
    "city": "Weidany",
    "city_zh": "Weidany",
    "country": "South Sudan",
    "country_zh": "南蘇丹",
    "country_iso_code": "SS",
    "timezone": "Africa/Juba",
    "latitude": 7.72077,
    "longitude": 32.94275
  },
  {
    "city": "Weibuon",
    "city_zh": "Weibuon",
    "country": "South Sudan",
    "country_zh": "南蘇丹",
    "country_iso_code": "SS",
    "timezone": "Africa/Juba",
    "latitude": 8.59213,
    "longitude": 33.03859
  },
  {
    "city": "Weibuini",
    "city_zh": "Weibuini",
    "country": "South Sudan",
    "country_zh": "南蘇丹",
    "country_iso_code": "SS",
    "timezone": "Africa/Juba",
    "latitude": 8.91667,
    "longitude": 32.45
  },
  {
    "city": "Wegbail",
    "city_zh": "Wegbail",
    "country": "South Sudan",
    "country_zh": "南蘇丹",
    "country_iso_code": "SS",
    "timezone": "Africa/Juba",
    "latitude": 8.34088,
    "longitude": 33.19045
  },
  {
    "city": "Wedweil",
    "city_zh": "Wedweil",
    "country": "South Sudan",
    "country_zh": "南蘇丹",
    "country_iso_code": "SS",
    "timezone": "Africa/Juba",
    "latitude": 9.00016,
    "longitude": 27.19054
  },
  {
    "city": "Wayi",
    "city_zh": "Wayi",
    "country": "South Sudan",
    "country_zh": "南蘇丹",
    "country_iso_code": "SS",
    "timezone": "Africa/Juba",
    "latitude": 5.18089,
    "longitude": 30.17758
  },
  {
    "city": "Wawali",
    "city_zh": "Wawali",
    "country": "South Sudan",
    "country_zh": "南蘇丹",
    "country_iso_code": "SS",
    "timezone": "Africa/Juba",
    "latitude": 3.851,
    "longitude": 31.65659
  },
  {
    "city": "Wau",
    "city_zh": "Wau",
    "country": "South Sudan",
    "country_zh": "南蘇丹",
    "country_iso_code": "SS",
    "timezone": "Africa/Juba",
    "latitude": 9.66914,
    "longitude": 31.71051
  },
  {
    "city": "Wau",
    "city_zh": "Wau",
    "country": "South Sudan",
    "country_zh": "南蘇丹",
    "country_iso_code": "SS",
    "timezone": "Africa/Juba",
    "latitude": 9.65019,
    "longitude": 31.783
  },
  {
    "city": "Wau",
    "city_zh": "Wau",
    "country": "South Sudan",
    "country_zh": "南蘇丹",
    "country_iso_code": "SS",
    "timezone": "Africa/Juba",
    "latitude": 8.25285,
    "longitude": 31.37059
  },
  {
    "city": "Wau",
    "city_zh": "瓦烏",
    "country": "South Sudan",
    "country_zh": "南蘇丹",
    "country_iso_code": "SS",
    "timezone": "Africa/Juba",
    "latitude": 7.70111,
    "longitude": 27.98972
  },
  {
    "city": "Wau Wau",
    "city_zh": "Wau Wau",
    "country": "South Sudan",
    "country_zh": "南蘇丹",
    "country_iso_code": "SS",
    "timezone": "Africa/Juba",
    "latitude": 8.54314,
    "longitude": 29.10305
  },
  {
    "city": "Wath Wang Kech",
    "city_zh": "Wath Wang Kech",
    "country": "South Sudan",
    "country_zh": "南蘇丹",
    "country_iso_code": "SS",
    "timezone": "Africa/Juba",
    "latitude": 9.45285,
    "longitude": 30.80498
  },
  {
    "city": "Wath Jak",
    "city_zh": "Wath Jak",
    "country": "South Sudan",
    "country_zh": "南蘇丹",
    "country_iso_code": "SS",
    "timezone": "Africa/Juba",
    "latitude": 9.13509,
    "longitude": 29.58362
  },
  {
    "city": "Waat",
    "city_zh": "Waat",
    "country": "South Sudan",
    "country_zh": "南蘇丹",
    "country_iso_code": "SS",
    "timezone": "Africa/Juba",
    "latitude": 8.17925,
    "longitude": 32.15206
  },
  {
    "city": "Waat",
    "city_zh": "Waat",
    "country": "South Sudan",
    "country_zh": "南蘇丹",
    "country_iso_code": "SS",
    "timezone": "Africa/Juba",
    "latitude": 7.39801,
    "longitude": 28.93173
  },
  {
    "city": "Wutau",
    "city_zh": "Wutau",
    "country": "South Sudan",
    "country_zh": "南蘇丹",
    "country_iso_code": "SS",
    "timezone": "Africa/Juba",
    "latitude": 9.63183,
    "longitude": 32.22826
  },
  {
    "city": "Warweng",
    "city_zh": "Warweng",
    "country": "South Sudan",
    "country_zh": "南蘇丹",
    "country_iso_code": "SS",
    "timezone": "Africa/Juba",
    "latitude": 8.98552,
    "longitude": 33.4516
  },
  {
    "city": "Waruga",
    "city_zh": "Waruga",
    "country": "South Sudan",
    "country_zh": "南蘇丹",
    "country_iso_code": "SS",
    "timezone": "Africa/Juba",
    "latitude": 3.66166,
    "longitude": 30.69494
  },
  {
    "city": "War Shum",
    "city_zh": "War Shum",
    "country": "South Sudan",
    "country_zh": "南蘇丹",
    "country_iso_code": "SS",
    "timezone": "Africa/Juba",
    "latitude": 9.08994,
    "longitude": 27.08858
  },
  {
    "city": "War Shuai",
    "city_zh": "War Shuai",
    "country": "South Sudan",
    "country_zh": "南蘇丹",
    "country_iso_code": "SS",
    "timezone": "Africa/Juba",
    "latitude": 8.51611,
    "longitude": 27.97021
  },
  {
    "city": "Warrit",
    "city_zh": "Warrit",
    "country": "South Sudan",
    "country_zh": "南蘇丹",
    "country_iso_code": "SS",
    "timezone": "Africa/Juba",
    "latitude": 11.543,
    "longitude": 32.7531
  },
  {
    "city": "War Mabwoit",
    "city_zh": "War Mabwoit",
    "country": "South Sudan",
    "country_zh": "南蘇丹",
    "country_iso_code": "SS",
    "timezone": "Africa/Juba",
    "latitude": 9.1375,
    "longitude": 27.94792
  },
  {
    "city": "War Kwel",
    "city_zh": "War Kwel",
    "country": "South Sudan",
    "country_zh": "南蘇丹",
    "country_iso_code": "SS",
    "timezone": "Africa/Juba",
    "latitude": 9.20007,
    "longitude": 26.91127
  },
  {
    "city": "Wariti",
    "city_zh": "Wariti",
    "country": "South Sudan",
    "country_zh": "南蘇丹",
    "country_iso_code": "SS",
    "timezone": "Africa/Juba",
    "latitude": 5.14414,
    "longitude": 30.56602
  },
  {
    "city": "Warikango",
    "city_zh": "Warikango",
    "country": "South Sudan",
    "country_zh": "南蘇丹",
    "country_iso_code": "SS",
    "timezone": "Africa/Juba",
    "latitude": 4.28266,
    "longitude": 31.00098
  },
  {
    "city": "War Gel",
    "city_zh": "War Gel",
    "country": "South Sudan",
    "country_zh": "南蘇丹",
    "country_iso_code": "SS",
    "timezone": "Africa/Juba",
    "latitude": 7.93455,
    "longitude": 29.20135
  },
  {
    "city": "War Bok",
    "city_zh": "War Bok",
    "country": "South Sudan",
    "country_zh": "南蘇丹",
    "country_iso_code": "SS",
    "timezone": "Africa/Juba",
    "latitude": 8.0546,
    "longitude": 29.42881
  },
  {
    "city": "Warawut",
    "city_zh": "Warawut",
    "country": "South Sudan",
    "country_zh": "南蘇丹",
    "country_iso_code": "SS",
    "timezone": "Africa/Juba",
    "latitude": 10.40572,
    "longitude": 32.52271
  },
  {
    "city": "Warawar",
    "city_zh": "Warawar",
    "country": "South Sudan",
    "country_zh": "南蘇丹",
    "country_iso_code": "SS",
    "timezone": "Africa/Juba",
    "latitude": 7.8504,
    "longitude": 31.68697
  },
  {
    "city": "Wararair",
    "city_zh": "Wararair",
    "country": "South Sudan",
    "country_zh": "南蘇丹",
    "country_iso_code": "SS",
    "timezone": "Africa/Juba",
    "latitude": 8.52498,
    "longitude": 27.50484
  },
  {
    "city": "Warabol",
    "city_zh": "Warabol",
    "country": "South Sudan",
    "country_zh": "南蘇丹",
    "country_iso_code": "SS",
    "timezone": "Africa/Juba",
    "latitude": 6.40325,
    "longitude": 29.75809
  },
  {
    "city": "War-a-Bak",
    "city_zh": "War-a-Bak",
    "country": "South Sudan",
    "country_zh": "南蘇丹",
    "country_iso_code": "SS",
    "timezone": "Africa/Juba",
    "latitude": 9.14391,
    "longitude": 27.61201
  },
  {
    "city": "Wanyang",
    "city_zh": "Wanyang",
    "country": "South Sudan",
    "country_zh": "南蘇丹",
    "country_iso_code": "SS",
    "timezone": "Africa/Juba",
    "latitude": 5.44847,
    "longitude": 31.83596
  },
  {
    "city": "Wantok",
    "city_zh": "Wantok",
    "country": "South Sudan",
    "country_zh": "南蘇丹",
    "country_iso_code": "SS",
    "timezone": "Africa/Juba",
    "latitude": 6.82186,
    "longitude": 29.68449
  },
  {
    "city": "Wantiit",
    "city_zh": "Wantiit",
    "country": "South Sudan",
    "country_zh": "南蘇丹",
    "country_iso_code": "SS",
    "timezone": "Africa/Juba",
    "latitude": 6.19967,
    "longitude": 30.46846
  },
  {
    "city": "Wankarkh",
    "city_zh": "Wankarkh",
    "country": "South Sudan",
    "country_zh": "南蘇丹",
    "country_iso_code": "SS",
    "timezone": "Africa/Juba",
    "latitude": 8.301,
    "longitude": 29.96306
  },
  {
    "city": "Wani",
    "city_zh": "Wani",
    "country": "South Sudan",
    "country_zh": "南蘇丹",
    "country_iso_code": "SS",
    "timezone": "Africa/Juba",
    "latitude": 5.6279,
    "longitude": 31.71161
  },
  {
    "city": "Wanh Alet",
    "city_zh": "Wanh Alet",
    "country": "South Sudan",
    "country_zh": "南蘇丹",
    "country_iso_code": "SS",
    "timezone": "Africa/Juba",
    "latitude": 7.51566,
    "longitude": 28.87852
  },
  {
    "city": "Wang Tar",
    "city_zh": "Wang Tar",
    "country": "South Sudan",
    "country_zh": "南蘇丹",
    "country_iso_code": "SS",
    "timezone": "Africa/Juba",
    "latitude": 9.43118,
    "longitude": 30.98924
  },
  {
    "city": "Wanglat",
    "city_zh": "Wanglat",
    "country": "South Sudan",
    "country_zh": "南蘇丹",
    "country_iso_code": "SS",
    "timezone": "Africa/Juba",
    "latitude": 9.04779,
    "longitude": 28.45807
  },
  {
    "city": "Wang Kiel",
    "city_zh": "Wang Kiel",
    "country": "South Sudan",
    "country_zh": "南蘇丹",
    "country_iso_code": "SS",
    "timezone": "Africa/Juba",
    "latitude": 9.17616,
    "longitude": 30.89386
  },
  {
    "city": "Ghābat el ‘Arab",
    "city_zh": "Ghābat el ‘Arab",
    "country": "South Sudan",
    "country_zh": "南蘇丹",
    "country_iso_code": "SS",
    "timezone": "Africa/Juba",
    "latitude": 9.08701,
    "longitude": 29.45469
  },
  {
    "city": "Wangding",
    "city_zh": "Wangding",
    "country": "South Sudan",
    "country_zh": "南蘇丹",
    "country_iso_code": "SS",
    "timezone": "Africa/Juba",
    "latitude": 8.06816,
    "longitude": 33.07151
  },
  {
    "city": "Wangbop",
    "city_zh": "Wangbop",
    "country": "South Sudan",
    "country_zh": "南蘇丹",
    "country_iso_code": "SS",
    "timezone": "Africa/Juba",
    "latitude": 8.56901,
    "longitude": 33.07365
  },
  {
    "city": "Wanarah",
    "city_zh": "Wanarah",
    "country": "South Sudan",
    "country_zh": "南蘇丹",
    "country_iso_code": "SS",
    "timezone": "Africa/Juba",
    "latitude": 6.12217,
    "longitude": 31.24599
  },
  {
    "city": "Walichmar",
    "city_zh": "Walichmar",
    "country": "South Sudan",
    "country_zh": "南蘇丹",
    "country_iso_code": "SS",
    "timezone": "Africa/Juba",
    "latitude": 6.78005,
    "longitude": 33.09646
  },
  {
    "city": "Wal Athiang",
    "city_zh": "Wal Athiang",
    "country": "South Sudan",
    "country_zh": "南蘇丹",
    "country_iso_code": "SS",
    "timezone": "Africa/Juba",
    "latitude": 7.71184,
    "longitude": 29.6702
  },
  {
    "city": "Wak Rial",
    "city_zh": "Wak Rial",
    "country": "South Sudan",
    "country_zh": "南蘇丹",
    "country_iso_code": "SS",
    "timezone": "Africa/Juba",
    "latitude": 8.58245,
    "longitude": 33.06045
  },
  {
    "city": "Wakela",
    "city_zh": "Wakela",
    "country": "South Sudan",
    "country_zh": "南蘇丹",
    "country_iso_code": "SS",
    "timezone": "Africa/Juba",
    "latitude": 7.39648,
    "longitude": 28.23652
  },
  {
    "city": "Waka",
    "city_zh": "Waka",
    "country": "South Sudan",
    "country_zh": "南蘇丹",
    "country_iso_code": "SS",
    "timezone": "Africa/Juba",
    "latitude": 9.01667,
    "longitude": 34.06667
  },
  {
    "city": "Wai Kwai",
    "city_zh": "Wai Kwai",
    "country": "South Sudan",
    "country_zh": "南蘇丹",
    "country_iso_code": "SS",
    "timezone": "Africa/Juba",
    "latitude": 8.47328,
    "longitude": 32.71008
  },
  {
    "city": "Waijung",
    "city_zh": "Waijung",
    "country": "South Sudan",
    "country_zh": "南蘇丹",
    "country_iso_code": "SS",
    "timezone": "Africa/Juba",
    "latitude": 8.89269,
    "longitude": 28.19035
  },
  {
    "city": "Wad Tabir",
    "city_zh": "Wad Tabir",
    "country": "South Sudan",
    "country_zh": "南蘇丹",
    "country_iso_code": "SS",
    "timezone": "Africa/Juba",
    "latitude": 10.41963,
    "longitude": 33.2329
  },
  {
    "city": "Wadda",
    "city_zh": "Wadda",
    "country": "South Sudan",
    "country_zh": "南蘇丹",
    "country_iso_code": "SS",
    "timezone": "Africa/Juba",
    "latitude": 9.2405,
    "longitude": 24.25627
  },
  {
    "city": "Wad Batta",
    "city_zh": "Wad Batta",
    "country": "South Sudan",
    "country_zh": "南蘇丹",
    "country_iso_code": "SS",
    "timezone": "Africa/Juba",
    "latitude": 11.9639,
    "longitude": 33.0194
  },
  {
    "city": "Wad el Mak",
    "city_zh": "Wad el Mak",
    "country": "South Sudan",
    "country_zh": "南蘇丹",
    "country_iso_code": "SS",
    "timezone": "Africa/Juba",
    "latitude": 8.07304,
    "longitude": 27.01017
  },
  {
    "city": "Wad ’Ali",
    "city_zh": "Wad ’Ali",
    "country": "South Sudan",
    "country_zh": "南蘇丹",
    "country_iso_code": "SS",
    "timezone": "Africa/Juba",
    "latitude": 7.55319,
    "longitude": 28.038
  },
  {
    "city": "Wabuit",
    "city_zh": "Wabuit",
    "country": "South Sudan",
    "country_zh": "南蘇丹",
    "country_iso_code": "SS",
    "timezone": "Africa/Juba",
    "latitude": 9.48853,
    "longitude": 32.15735
  },
  {
    "city": "Vuya",
    "city_zh": "Vuya",
    "country": "South Sudan",
    "country_zh": "南蘇丹",
    "country_iso_code": "SS",
    "timezone": "Africa/Juba",
    "latitude": 5.35928,
    "longitude": 29.66857
  },
  {
    "city": "Vulu",
    "city_zh": "Vulu",
    "country": "South Sudan",
    "country_zh": "南蘇丹",
    "country_iso_code": "SS",
    "timezone": "Africa/Juba",
    "latitude": 9.31992,
    "longitude": 24.59786
  },
  {
    "city": "Viang",
    "city_zh": "Viang",
    "country": "South Sudan",
    "country_zh": "南蘇丹",
    "country_iso_code": "SS",
    "timezone": "Africa/Juba",
    "latitude": 7.9589,
    "longitude": 28.79113
  },
  {
    "city": "Verlingai",
    "city_zh": "Verlingai",
    "country": "South Sudan",
    "country_zh": "南蘇丹",
    "country_iso_code": "SS",
    "timezone": "Africa/Juba",
    "latitude": 5.84267,
    "longitude": 30.83195
  },
  {
    "city": "Verikoka",
    "city_zh": "Verikoka",
    "country": "South Sudan",
    "country_zh": "南蘇丹",
    "country_iso_code": "SS",
    "timezone": "Africa/Juba",
    "latitude": 5.14365,
    "longitude": 30.8487
  },
  {
    "city": "Vegu",
    "city_zh": "Vegu",
    "country": "South Sudan",
    "country_zh": "南蘇丹",
    "country_iso_code": "SS",
    "timezone": "Africa/Juba",
    "latitude": 8.80785,
    "longitude": 26.03026
  },
  {
    "city": "Aweil",
    "city_zh": "Aweil",
    "country": "South Sudan",
    "country_zh": "南蘇丹",
    "country_iso_code": "SS",
    "timezone": "Africa/Juba",
    "latitude": 8.76194,
    "longitude": 27.39194
  },
  {
    "city": "Utili",
    "city_zh": "Utili",
    "country": "South Sudan",
    "country_zh": "南蘇丹",
    "country_iso_code": "SS",
    "timezone": "Africa/Juba",
    "latitude": 7.75589,
    "longitude": 33.03059
  },
  {
    "city": "Utalo",
    "city_zh": "Utalo",
    "country": "South Sudan",
    "country_zh": "南蘇丹",
    "country_iso_code": "SS",
    "timezone": "Africa/Juba",
    "latitude": 7.12055,
    "longitude": 33.82983
  },
  {
    "city": "Ushini",
    "city_zh": "Ushini",
    "country": "South Sudan",
    "country_zh": "南蘇丹",
    "country_iso_code": "SS",
    "timezone": "Africa/Juba",
    "latitude": 7.68477,
    "longitude": 33.55783
  },
  {
    "city": "Uriang",
    "city_zh": "Uriang",
    "country": "South Sudan",
    "country_zh": "南蘇丹",
    "country_iso_code": "SS",
    "timezone": "Africa/Juba",
    "latitude": 10.616,
    "longitude": 32.17765
  },
  {
    "city": "Uriang",
    "city_zh": "Uriang",
    "country": "South Sudan",
    "country_zh": "南蘇丹",
    "country_iso_code": "SS",
    "timezone": "Africa/Juba",
    "latitude": 8.75299,
    "longitude": 32.76
  },
  {
    "city": "Uriang",
    "city_zh": "Uriang",
    "country": "South Sudan",
    "country_zh": "南蘇丹",
    "country_iso_code": "SS",
    "timezone": "Africa/Juba",
    "latitude": 8.06177,
    "longitude": 32.2468
  },
  {
    "city": "Urao",
    "city_zh": "Urao",
    "country": "South Sudan",
    "country_zh": "南蘇丹",
    "country_iso_code": "SS",
    "timezone": "Africa/Juba",
    "latitude": 7.79671,
    "longitude": 28.47453
  },
  {
    "city": "Uphal",
    "city_zh": "Uphal",
    "country": "South Sudan",
    "country_zh": "南蘇丹",
    "country_iso_code": "SS",
    "timezone": "Africa/Juba",
    "latitude": 6.9682,
    "longitude": 34.27291
  },
  {
    "city": "Ungwei",
    "city_zh": "Ungwei",
    "country": "South Sudan",
    "country_zh": "南蘇丹",
    "country_iso_code": "SS",
    "timezone": "Africa/Juba",
    "latitude": 9.0316,
    "longitude": 27.75769
  },
  {
    "city": "Unfait",
    "city_zh": "Unfait",
    "country": "South Sudan",
    "country_zh": "南蘇丹",
    "country_iso_code": "SS",
    "timezone": "Africa/Juba",
    "latitude": 8.7038,
    "longitude": 27.64679
  },
  {
    "city": "Unarol",
    "city_zh": "Unarol",
    "country": "South Sudan",
    "country_zh": "南蘇丹",
    "country_iso_code": "SS",
    "timezone": "Africa/Juba",
    "latitude": 9.22483,
    "longitude": 27.00801
  },
  {
    "city": "Umo",
    "city_zh": "Umo",
    "country": "South Sudan",
    "country_zh": "南蘇丹",
    "country_iso_code": "SS",
    "timezone": "Africa/Juba",
    "latitude": 4.06721,
    "longitude": 31.73966
  },
  {
    "city": "Umm Tugulgul",
    "city_zh": "Umm Tugulgul",
    "country": "South Sudan",
    "country_zh": "南蘇丹",
    "country_iso_code": "SS",
    "timezone": "Africa/Juba",
    "latitude": 8.13993,
    "longitude": 25.94656
  },
  {
    "city": "Umm Sagura",
    "city_zh": "Umm Sagura",
    "country": "South Sudan",
    "country_zh": "南蘇丹",
    "country_iso_code": "SS",
    "timezone": "Africa/Juba",
    "latitude": 9.63386,
    "longitude": 29.83961
  },
  {
    "city": "Umm Keddada",
    "city_zh": "Umm Keddada",
    "country": "South Sudan",
    "country_zh": "南蘇丹",
    "country_iso_code": "SS",
    "timezone": "Africa/Juba",
    "latitude": 9.96997,
    "longitude": 30.49534
  },
  {
    "city": "Umm Hugar",
    "city_zh": "Umm Hugar",
    "country": "South Sudan",
    "country_zh": "南蘇丹",
    "country_iso_code": "SS",
    "timezone": "Africa/Juba",
    "latitude": 8.75481,
    "longitude": 25.97248
  },
  {
    "city": "Umm Hugar",
    "city_zh": "Umm Hugar",
    "country": "South Sudan",
    "country_zh": "南蘇丹",
    "country_iso_code": "SS",
    "timezone": "Africa/Juba",
    "latitude": 9.40542,
    "longitude": 24.4592
  },
  {
    "city": "Umm Hashim",
    "city_zh": "Umm Hashim",
    "country": "South Sudan",
    "country_zh": "南蘇丹",
    "country_iso_code": "SS",
    "timezone": "Africa/Juba",
    "latitude": 8.71598,
    "longitude": 25.90192
  },
  {
    "city": "Umm Begago",
    "city_zh": "Umm Begago",
    "country": "South Sudan",
    "country_zh": "南蘇丹",
    "country_iso_code": "SS",
    "timezone": "Africa/Juba",
    "latitude": 9.78333,
    "longitude": 26.05
  },
  {
    "city": "Umm Barbit",
    "city_zh": "Umm Barbit",
    "country": "South Sudan",
    "country_zh": "南蘇丹",
    "country_iso_code": "SS",
    "timezone": "Africa/Juba",
    "latitude": 10.95863,
    "longitude": 32.54559
  },
  {
    "city": "Umbolo",
    "city_zh": "Umbolo",
    "country": "South Sudan",
    "country_zh": "南蘇丹",
    "country_iso_code": "SS",
    "timezone": "Africa/Juba",
    "latitude": 5.87003,
    "longitude": 31.01612
  },
  {
    "city": "Umberi",
    "city_zh": "Umberi",
    "country": "South Sudan",
    "country_zh": "南蘇丹",
    "country_iso_code": "SS",
    "timezone": "Africa/Juba",
    "latitude": 7.64748,
    "longitude": 33.64473
  },
  {
    "city": "Umbelti",
    "city_zh": "Umbelti",
    "country": "South Sudan",
    "country_zh": "南蘇丹",
    "country_iso_code": "SS",
    "timezone": "Africa/Juba",
    "latitude": 6.1263,
    "longitude": 29.78689
  },
  {
    "city": "Umbeli",
    "city_zh": "Umbeli",
    "country": "South Sudan",
    "country_zh": "南蘇丹",
    "country_iso_code": "SS",
    "timezone": "Africa/Juba",
    "latitude": 7.46481,
    "longitude": 27.72637
  },
  {
    "city": "Umbasi",
    "city_zh": "Umbasi",
    "country": "South Sudan",
    "country_zh": "南蘇丹",
    "country_iso_code": "SS",
    "timezone": "Africa/Juba",
    "latitude": 3.90504,
    "longitude": 30.74259
  },
  {
    "city": "Ulang",
    "city_zh": "Ulang",
    "country": "South Sudan",
    "country_zh": "南蘇丹",
    "country_iso_code": "SS",
    "timezone": "Africa/Juba",
    "latitude": 8.84013,
    "longitude": 33.18765
  },
  {
    "city": "Ulambi",
    "city_zh": "Ulambi",
    "country": "South Sudan",
    "country_zh": "南蘇丹",
    "country_iso_code": "SS",
    "timezone": "Africa/Juba",
    "latitude": 8.65728,
    "longitude": 26.07185
  },
  {
    "city": "Ulali",
    "city_zh": "Ulali",
    "country": "South Sudan",
    "country_zh": "南蘇丹",
    "country_iso_code": "SS",
    "timezone": "Africa/Juba",
    "latitude": 7.70428,
    "longitude": 33.04509
  },
  {
    "city": "Ulako",
    "city_zh": "Ulako",
    "country": "South Sudan",
    "country_zh": "南蘇丹",
    "country_iso_code": "SS",
    "timezone": "Africa/Juba",
    "latitude": 3.84605,
    "longitude": 31.82704
  },
  {
    "city": "Okwaa",
    "city_zh": "Okwaa",
    "country": "South Sudan",
    "country_zh": "南蘇丹",
    "country_iso_code": "SS",
    "timezone": "Africa/Juba",
    "latitude": 6.76667,
    "longitude": 34.56667
  },
  {
    "city": "Uku",
    "city_zh": "Uku",
    "country": "South Sudan",
    "country_zh": "南蘇丹",
    "country_iso_code": "SS",
    "timezone": "Africa/Juba",
    "latitude": 7.55713,
    "longitude": 27.86164
  },
  {
    "city": "Ukka",
    "city_zh": "Ukka",
    "country": "South Sudan",
    "country_zh": "南蘇丹",
    "country_iso_code": "SS",
    "timezone": "Africa/Juba",
    "latitude": 10.04194,
    "longitude": 33.33455
  },
  {
    "city": "Ukadi",
    "city_zh": "Ukadi",
    "country": "South Sudan",
    "country_zh": "南蘇丹",
    "country_iso_code": "SS",
    "timezone": "Africa/Juba",
    "latitude": 7.00105,
    "longitude": 34.24405
  },
  {
    "city": "Ujak",
    "city_zh": "Ujak",
    "country": "South Sudan",
    "country_zh": "南蘇丹",
    "country_iso_code": "SS",
    "timezone": "Africa/Juba",
    "latitude": 7.27757,
    "longitude": 33.46121
  },
  {
    "city": "Ugar",
    "city_zh": "Ugar",
    "country": "South Sudan",
    "country_zh": "南蘇丹",
    "country_iso_code": "SS",
    "timezone": "Africa/Juba",
    "latitude": 7.03088,
    "longitude": 34.21026
  },
  {
    "city": "Ueli",
    "city_zh": "Ueli",
    "country": "South Sudan",
    "country_zh": "南蘇丹",
    "country_iso_code": "SS",
    "timezone": "Africa/Juba",
    "latitude": 4.49422,
    "longitude": 31.02715
  },
  {
    "city": "Udu Baras",
    "city_zh": "Udu Baras",
    "country": "South Sudan",
    "country_zh": "南蘇丹",
    "country_iso_code": "SS",
    "timezone": "Africa/Juba",
    "latitude": 7.19404,
    "longitude": 27.83506
  },
  {
    "city": "Uburi",
    "city_zh": "Uburi",
    "country": "South Sudan",
    "country_zh": "南蘇丹",
    "country_iso_code": "SS",
    "timezone": "Africa/Juba",
    "latitude": 7.57567,
    "longitude": 28.04658
  },
  {
    "city": "Uburi",
    "city_zh": "Uburi",
    "country": "South Sudan",
    "country_zh": "南蘇丹",
    "country_iso_code": "SS",
    "timezone": "Africa/Juba",
    "latitude": 7.43524,
    "longitude": 28.09501
  },
  {
    "city": "Ubori",
    "city_zh": "Ubori",
    "country": "South Sudan",
    "country_zh": "南蘇丹",
    "country_iso_code": "SS",
    "timezone": "Africa/Juba",
    "latitude": 6.6679,
    "longitude": 29.3276
  },
  {
    "city": "Ubeir",
    "city_zh": "Ubeir",
    "country": "South Sudan",
    "country_zh": "南蘇丹",
    "country_iso_code": "SS",
    "timezone": "Africa/Juba",
    "latitude": 7.71394,
    "longitude": 33.04228
  },
  {
    "city": "Uaiya",
    "city_zh": "Uaiya",
    "country": "South Sudan",
    "country_zh": "南蘇丹",
    "country_iso_code": "SS",
    "timezone": "Africa/Juba",
    "latitude": 3.96081,
    "longitude": 32.57788
  },
  {
    "city": "Uad",
    "city_zh": "Uad",
    "country": "South Sudan",
    "country_zh": "南蘇丹",
    "country_iso_code": "SS",
    "timezone": "Africa/Juba",
    "latitude": 7.15518,
    "longitude": 29.67914
  },
  {
    "city": "Twut",
    "city_zh": "Twut",
    "country": "South Sudan",
    "country_zh": "南蘇丹",
    "country_iso_code": "SS",
    "timezone": "Africa/Juba",
    "latitude": 7.98383,
    "longitude": 28.36234
  },
  {
    "city": "Twoich Pair",
    "city_zh": "Twoich Pair",
    "country": "South Sudan",
    "country_zh": "南蘇丹",
    "country_iso_code": "SS",
    "timezone": "Africa/Juba",
    "latitude": 8.28082,
    "longitude": 30.16819
  },
  {
    "city": "Twoich",
    "city_zh": "Twoich",
    "country": "South Sudan",
    "country_zh": "南蘇丹",
    "country_iso_code": "SS",
    "timezone": "Africa/Juba",
    "latitude": 8.36028,
    "longitude": 29.94515
  },
  {
    "city": "Twilong",
    "city_zh": "Twilong",
    "country": "South Sudan",
    "country_zh": "南蘇丹",
    "country_iso_code": "SS",
    "timezone": "Africa/Juba",
    "latitude": 7.68504,
    "longitude": 33.0608
  },
  {
    "city": "Twango",
    "city_zh": "Twango",
    "country": "South Sudan",
    "country_zh": "南蘇丹",
    "country_iso_code": "SS",
    "timezone": "Africa/Juba",
    "latitude": 6.26285,
    "longitude": 31.54823
  },
  {
    "city": "Twabor",
    "city_zh": "Twabor",
    "country": "South Sudan",
    "country_zh": "南蘇丹",
    "country_iso_code": "SS",
    "timezone": "Africa/Juba",
    "latitude": 10.15403,
    "longitude": 32.59924
  },
  {
    "city": "Tuyo Quffa",
    "city_zh": "Tuyo Quffa",
    "country": "South Sudan",
    "country_zh": "南蘇丹",
    "country_iso_code": "SS",
    "timezone": "Africa/Juba",
    "latitude": 10.06631,
    "longitude": 33.75754
  },
  {
    "city": "Turukwana",
    "city_zh": "Turukwana",
    "country": "South Sudan",
    "country_zh": "南蘇丹",
    "country_iso_code": "SS",
    "timezone": "Africa/Juba",
    "latitude": 4.14933,
    "longitude": 33.6346
  },
  {
    "city": "Tereiba",
    "city_zh": "Tereiba",
    "country": "South Sudan",
    "country_zh": "南蘇丹",
    "country_iso_code": "SS",
    "timezone": "Africa/Juba",
    "latitude": 11.16749,
    "longitude": 32.67956
  },
  {
    "city": "Turakon",
    "city_zh": "Turakon",
    "country": "South Sudan",
    "country_zh": "南蘇丹",
    "country_iso_code": "SS",
    "timezone": "Africa/Juba",
    "latitude": 9.94981,
    "longitude": 30.15925
  },
  {
    "city": "Tungyun",
    "city_zh": "Tungyun",
    "country": "South Sudan",
    "country_zh": "南蘇丹",
    "country_iso_code": "SS",
    "timezone": "Africa/Juba",
    "latitude": 6.66525,
    "longitude": 32.92006
  },
  {
    "city": "Tungya",
    "city_zh": "Tungya",
    "country": "South Sudan",
    "country_zh": "南蘇丹",
    "country_iso_code": "SS",
    "timezone": "Africa/Juba",
    "latitude": 9.83727,
    "longitude": 33.61185
  },
  {
    "city": "Tungrub",
    "city_zh": "Tungrub",
    "country": "South Sudan",
    "country_zh": "南蘇丹",
    "country_iso_code": "SS",
    "timezone": "Africa/Juba",
    "latitude": 8.17638,
    "longitude": 30.82803
  },
  {
    "city": "Tungia",
    "city_zh": "Tungia",
    "country": "South Sudan",
    "country_zh": "南蘇丹",
    "country_iso_code": "SS",
    "timezone": "Africa/Juba",
    "latitude": 9.97516,
    "longitude": 32.01097
  },
  {
    "city": "Tumma",
    "city_zh": "Tumma",
    "country": "South Sudan",
    "country_zh": "南蘇丹",
    "country_iso_code": "SS",
    "timezone": "Africa/Juba",
    "latitude": 9.95194,
    "longitude": 33.81307
  },
  {
    "city": "Tumbur",
    "city_zh": "Tumbur",
    "country": "South Sudan",
    "country_zh": "南蘇丹",
    "country_iso_code": "SS",
    "timezone": "Africa/Juba",
    "latitude": 4.33689,
    "longitude": 31.56659
  },
  {
    "city": "Tumbal",
    "city_zh": "Tumbal",
    "country": "South Sudan",
    "country_zh": "南蘇丹",
    "country_iso_code": "SS",
    "timezone": "Africa/Juba",
    "latitude": 7.77787,
    "longitude": 27.63232
  },
  {
    "city": "Tukudungwen",
    "city_zh": "Tukudungwen",
    "country": "South Sudan",
    "country_zh": "南蘇丹",
    "country_iso_code": "SS",
    "timezone": "Africa/Juba",
    "latitude": 4.55032,
    "longitude": 30.99016
  },
  {
    "city": "Tuga",
    "city_zh": "Tuga",
    "country": "South Sudan",
    "country_zh": "南蘇丹",
    "country_iso_code": "SS",
    "timezone": "Africa/Juba",
    "latitude": 5.63772,
    "longitude": 31.52617
  },
  {
    "city": "Tubug",
    "city_zh": "Tubug",
    "country": "South Sudan",
    "country_zh": "南蘇丹",
    "country_iso_code": "SS",
    "timezone": "Africa/Juba",
    "latitude": 9.19019,
    "longitude": 32.14281
  },
  {
    "city": "Tuai Bur",
    "city_zh": "Tuai Bur",
    "country": "South Sudan",
    "country_zh": "南蘇丹",
    "country_iso_code": "SS",
    "timezone": "Africa/Juba",
    "latitude": 9.40273,
    "longitude": 30.67561
  },
  {
    "city": "Towot",
    "city_zh": "Towot",
    "country": "South Sudan",
    "country_zh": "南蘇丹",
    "country_iso_code": "SS",
    "timezone": "Africa/Juba",
    "latitude": 6.29658,
    "longitude": 34.39703
  },
  {
    "city": "Tot",
    "city_zh": "Tot",
    "country": "South Sudan",
    "country_zh": "南蘇丹",
    "country_iso_code": "SS",
    "timezone": "Africa/Juba",
    "latitude": 9.07845,
    "longitude": 28.98639
  },
  {
    "city": "Torpot",
    "city_zh": "Torpot",
    "country": "South Sudan",
    "country_zh": "南蘇丹",
    "country_iso_code": "SS",
    "timezone": "Africa/Juba",
    "latitude": 8.57069,
    "longitude": 33.11541
  },
  {
    "city": "Torkej",
    "city_zh": "Torkej",
    "country": "South Sudan",
    "country_zh": "南蘇丹",
    "country_iso_code": "SS",
    "timezone": "Africa/Juba",
    "latitude": 8.47069,
    "longitude": 33.15033
  },
  {
    "city": "Torit",
    "city_zh": "托里特",
    "country": "South Sudan",
    "country_zh": "南蘇丹",
    "country_iso_code": "SS",
    "timezone": "Africa/Juba",
    "latitude": 4.41177,
    "longitude": 32.57046
  },
  {
    "city": "Toriak",
    "city_zh": "Toriak",
    "country": "South Sudan",
    "country_zh": "南蘇丹",
    "country_iso_code": "SS",
    "timezone": "Africa/Juba",
    "latitude": 8.75988,
    "longitude": 32.10946
  },
  {
    "city": "Torbar",
    "city_zh": "Torbar",
    "country": "South Sudan",
    "country_zh": "南蘇丹",
    "country_iso_code": "SS",
    "timezone": "Africa/Juba",
    "latitude": 8.60843,
    "longitude": 32.8964
  },
  {
    "city": "Toragain",
    "city_zh": "Toragain",
    "country": "South Sudan",
    "country_zh": "南蘇丹",
    "country_iso_code": "SS",
    "timezone": "Africa/Juba",
    "latitude": 8.79545,
    "longitude": 31.09519
  },
  {
    "city": "Toraba",
    "city_zh": "Toraba",
    "country": "South Sudan",
    "country_zh": "南蘇丹",
    "country_iso_code": "SS",
    "timezone": "Africa/Juba",
    "latitude": 5.58547,
    "longitude": 30.37599
  },
  {
    "city": "Taro",
    "city_zh": "Taro",
    "country": "South Sudan",
    "country_zh": "南蘇丹",
    "country_iso_code": "SS",
    "timezone": "Africa/Juba",
    "latitude": 10.59341,
    "longitude": 32.12341
  },
  {
    "city": "Tor",
    "city_zh": "Tor",
    "country": "South Sudan",
    "country_zh": "南蘇丹",
    "country_iso_code": "SS",
    "timezone": "Africa/Juba",
    "latitude": 9.06489,
    "longitude": 30.52162
  },
  {
    "city": "Tor",
    "city_zh": "Tor",
    "country": "South Sudan",
    "country_zh": "南蘇丹",
    "country_iso_code": "SS",
    "timezone": "Africa/Juba",
    "latitude": 8.92498,
    "longitude": 28.04875
  },
  {
    "city": "Tonj",
    "city_zh": "通季",
    "country": "South Sudan",
    "country_zh": "南蘇丹",
    "country_iso_code": "SS",
    "timezone": "Africa/Juba",
    "latitude": 7.27389,
    "longitude": 28.6775
  },
  {
    "city": "Tong Tong",
    "city_zh": "Tong Tong",
    "country": "South Sudan",
    "country_zh": "南蘇丹",
    "country_iso_code": "SS",
    "timezone": "Africa/Juba",
    "latitude": 7.09063,
    "longitude": 33.02969
  },
  {
    "city": "Tonga",
    "city_zh": "Tonga",
    "country": "South Sudan",
    "country_zh": "南蘇丹",
    "country_iso_code": "SS",
    "timezone": "Africa/Juba",
    "latitude": 9.47443,
    "longitude": 31.04507
  },
  {
    "city": "Tong",
    "city_zh": "Tong",
    "country": "South Sudan",
    "country_zh": "南蘇丹",
    "country_iso_code": "SS",
    "timezone": "Africa/Juba",
    "latitude": 6.46308,
    "longitude": 31.61883
  },
  {
    "city": "Tondiak",
    "city_zh": "Tondiak",
    "country": "South Sudan",
    "country_zh": "南蘇丹",
    "country_iso_code": "SS",
    "timezone": "Africa/Juba",
    "latitude": 9.4084,
    "longitude": 31.15069
  },
  {
    "city": "Tombe",
    "city_zh": "Tombe",
    "country": "South Sudan",
    "country_zh": "南蘇丹",
    "country_iso_code": "SS",
    "timezone": "Africa/Juba",
    "latitude": 5.8136,
    "longitude": 31.68522
  },
  {
    "city": "Tolubi",
    "city_zh": "Tolubi",
    "country": "South Sudan",
    "country_zh": "南蘇丹",
    "country_iso_code": "SS",
    "timezone": "Africa/Juba",
    "latitude": 4.36622,
    "longitude": 33.67437
  },
  {
    "city": "Tolla",
    "city_zh": "Tolla",
    "country": "South Sudan",
    "country_zh": "南蘇丹",
    "country_iso_code": "SS",
    "timezone": "Africa/Juba",
    "latitude": 5.95955,
    "longitude": 30.29386
  },
  {
    "city": "Toladul",
    "city_zh": "Toladul",
    "country": "South Sudan",
    "country_zh": "南蘇丹",
    "country_iso_code": "SS",
    "timezone": "Africa/Juba",
    "latitude": 9.26553,
    "longitude": 30.71305
  },
  {
    "city": "Tol",
    "city_zh": "Tol",
    "country": "South Sudan",
    "country_zh": "南蘇丹",
    "country_iso_code": "SS",
    "timezone": "Africa/Juba",
    "latitude": 8.79469,
    "longitude": 33.64046
  },
  {
    "city": "Tokwaich",
    "city_zh": "Tokwaich",
    "country": "South Sudan",
    "country_zh": "南蘇丹",
    "country_iso_code": "SS",
    "timezone": "Africa/Juba",
    "latitude": 10.55758,
    "longitude": 32.12425
  },
  {
    "city": "Tokur",
    "city_zh": "Tokur",
    "country": "South Sudan",
    "country_zh": "南蘇丹",
    "country_iso_code": "SS",
    "timezone": "Africa/Juba",
    "latitude": 8.03742,
    "longitude": 30.13634
  },
  {
    "city": "Tokot",
    "city_zh": "Tokot",
    "country": "South Sudan",
    "country_zh": "南蘇丹",
    "country_iso_code": "SS",
    "timezone": "Africa/Juba",
    "latitude": 5.8576,
    "longitude": 31.55178
  },
  {
    "city": "Tokiman",
    "city_zh": "Tokiman",
    "country": "South Sudan",
    "country_zh": "南蘇丹",
    "country_iso_code": "SS",
    "timezone": "Africa/Juba",
    "latitude": 4.77001,
    "longitude": 31.6024
  },
  {
    "city": "Toinya",
    "city_zh": "Toinya",
    "country": "South Sudan",
    "country_zh": "南蘇丹",
    "country_iso_code": "SS",
    "timezone": "Africa/Juba",
    "latitude": 6.27844,
    "longitude": 29.7337
  },
  {
    "city": "Toin Sek",
    "city_zh": "Toin Sek",
    "country": "South Sudan",
    "country_zh": "南蘇丹",
    "country_iso_code": "SS",
    "timezone": "Africa/Juba",
    "latitude": 7.83409,
    "longitude": 28.32268
  },
  {
    "city": "Toingwek",
    "city_zh": "Toingwek",
    "country": "South Sudan",
    "country_zh": "南蘇丹",
    "country_iso_code": "SS",
    "timezone": "Africa/Juba",
    "latitude": 8.33773,
    "longitude": 28.76308
  },
  {
    "city": "Toing",
    "city_zh": "Toing",
    "country": "South Sudan",
    "country_zh": "南蘇丹",
    "country_iso_code": "SS",
    "timezone": "Africa/Juba",
    "latitude": 7.79988,
    "longitude": 28.60997
  },
  {
    "city": "Toi",
    "city_zh": "Toi",
    "country": "South Sudan",
    "country_zh": "南蘇丹",
    "country_iso_code": "SS",
    "timezone": "Africa/Juba",
    "latitude": 9.2832,
    "longitude": 31.5925
  },
  {
    "city": "Toboya",
    "city_zh": "Toboya",
    "country": "South Sudan",
    "country_zh": "南蘇丹",
    "country_iso_code": "SS",
    "timezone": "Africa/Juba",
    "latitude": 4.66431,
    "longitude": 30.93013
  },
  {
    "city": "Tobaipapwa",
    "city_zh": "Tobaipapwa",
    "country": "South Sudan",
    "country_zh": "南蘇丹",
    "country_iso_code": "SS",
    "timezone": "Africa/Juba",
    "latitude": 4.76787,
    "longitude": 30.76946
  },
  {
    "city": "Tiura",
    "city_zh": "Tiura",
    "country": "South Sudan",
    "country_zh": "南蘇丹",
    "country_iso_code": "SS",
    "timezone": "Africa/Juba",
    "latitude": 8.76875,
    "longitude": 32.97683
  },
  {
    "city": "Tirro",
    "city_zh": "Tirro",
    "country": "South Sudan",
    "country_zh": "南蘇丹",
    "country_iso_code": "SS",
    "timezone": "Africa/Juba",
    "latitude": 6.73659,
    "longitude": 30.42383
  },
  {
    "city": "Tiriou",
    "city_zh": "Tiriou",
    "country": "South Sudan",
    "country_zh": "南蘇丹",
    "country_iso_code": "SS",
    "timezone": "Africa/Juba",
    "latitude": 6.11129,
    "longitude": 30.23171
  },
  {
    "city": "Tirangole",
    "city_zh": "Tirangole",
    "country": "South Sudan",
    "country_zh": "南蘇丹",
    "country_iso_code": "SS",
    "timezone": "Africa/Juba",
    "latitude": 4.47881,
    "longitude": 32.81708
  },
  {
    "city": "Tir",
    "city_zh": "Tir",
    "country": "South Sudan",
    "country_zh": "南蘇丹",
    "country_iso_code": "SS",
    "timezone": "Africa/Juba",
    "latitude": 10.51701,
    "longitude": 32.51032
  },
  {
    "city": "Tior",
    "city_zh": "Tior",
    "country": "South Sudan",
    "country_zh": "南蘇丹",
    "country_iso_code": "SS",
    "timezone": "Africa/Juba",
    "latitude": 6.3719,
    "longitude": 31.17486
  },
  {
    "city": "Tingya",
    "city_zh": "Tingya",
    "country": "South Sudan",
    "country_zh": "南蘇丹",
    "country_iso_code": "SS",
    "timezone": "Africa/Juba",
    "latitude": 10.49085,
    "longitude": 32.55253
  },
  {
    "city": "Tingar",
    "city_zh": "Tingar",
    "country": "South Sudan",
    "country_zh": "南蘇丹",
    "country_iso_code": "SS",
    "timezone": "Africa/Juba",
    "latitude": 9.32485,
    "longitude": 25.37648
  },
  {
    "city": "Tinechor",
    "city_zh": "Tinechor",
    "country": "South Sudan",
    "country_zh": "南蘇丹",
    "country_iso_code": "SS",
    "timezone": "Africa/Juba",
    "latitude": 6.76045,
    "longitude": 30.85711
  },
  {
    "city": "Tindalo",
    "city_zh": "Tindalo",
    "country": "South Sudan",
    "country_zh": "南蘇丹",
    "country_iso_code": "SS",
    "timezone": "Africa/Juba",
    "latitude": 5.65557,
    "longitude": 31.05696
  },
  {
    "city": "Tiltil",
    "city_zh": "Tiltil",
    "country": "South Sudan",
    "country_zh": "南蘇丹",
    "country_iso_code": "SS",
    "timezone": "Africa/Juba",
    "latitude": 9.2795,
    "longitude": 30.63286
  },
  {
    "city": "Tiki Tiki",
    "city_zh": "Tiki Tiki",
    "country": "South Sudan",
    "country_zh": "南蘇丹",
    "country_iso_code": "SS",
    "timezone": "Africa/Juba",
    "latitude": 8.12116,
    "longitude": 27.65284
  },
  {
    "city": "Tikasu",
    "city_zh": "Tikasu",
    "country": "South Sudan",
    "country_zh": "南蘇丹",
    "country_iso_code": "SS",
    "timezone": "Africa/Juba",
    "latitude": 4.12958,
    "longitude": 30.75035
  },
  {
    "city": "Tijor",
    "city_zh": "Tijor",
    "country": "South Sudan",
    "country_zh": "南蘇丹",
    "country_iso_code": "SS",
    "timezone": "Africa/Juba",
    "latitude": 5.13947,
    "longitude": 31.182
  },
  {
    "city": "Tidwel",
    "city_zh": "Tidwel",
    "country": "South Sudan",
    "country_zh": "南蘇丹",
    "country_iso_code": "SS",
    "timezone": "Africa/Juba",
    "latitude": 7.41611,
    "longitude": 29.09649
  },
  {
    "city": "Tidwach",
    "city_zh": "Tidwach",
    "country": "South Sudan",
    "country_zh": "南蘇丹",
    "country_iso_code": "SS",
    "timezone": "Africa/Juba",
    "latitude": 9.32543,
    "longitude": 30.88065
  },
  {
    "city": "Tidfok",
    "city_zh": "Tidfok",
    "country": "South Sudan",
    "country_zh": "南蘇丹",
    "country_iso_code": "SS",
    "timezone": "Africa/Juba",
    "latitude": 9.33825,
    "longitude": 30.82108
  },
  {
    "city": "Tidbil",
    "city_zh": "Tidbil",
    "country": "South Sudan",
    "country_zh": "南蘇丹",
    "country_iso_code": "SS",
    "timezone": "Africa/Juba",
    "latitude": 8.78078,
    "longitude": 31.26853
  },
  {
    "city": "Tidakul",
    "city_zh": "Tidakul",
    "country": "South Sudan",
    "country_zh": "南蘇丹",
    "country_iso_code": "SS",
    "timezone": "Africa/Juba",
    "latitude": 6.51002,
    "longitude": 29.68902
  },
  {
    "city": "Tibna",
    "city_zh": "Tibna",
    "country": "South Sudan",
    "country_zh": "南蘇丹",
    "country_iso_code": "SS",
    "timezone": "Africa/Juba",
    "latitude": 10.78587,
    "longitude": 33.11827
  },
  {
    "city": "Tibari",
    "city_zh": "Tibari",
    "country": "South Sudan",
    "country_zh": "南蘇丹",
    "country_iso_code": "SS",
    "timezone": "Africa/Juba",
    "latitude": 5.01562,
    "longitude": 31.71878
  },
  {
    "city": "Tiang Rial",
    "city_zh": "Tiang Rial",
    "country": "South Sudan",
    "country_zh": "南蘇丹",
    "country_iso_code": "SS",
    "timezone": "Africa/Juba",
    "latitude": 10.30723,
    "longitude": 32.26951
  },
  {
    "city": "Tiam",
    "city_zh": "Tiam",
    "country": "South Sudan",
    "country_zh": "南蘇丹",
    "country_iso_code": "SS",
    "timezone": "Africa/Juba",
    "latitude": 7.72828,
    "longitude": 30.23386
  },
  {
    "city": "Thuro Nyiyar",
    "city_zh": "Thuro Nyiyar",
    "country": "South Sudan",
    "country_zh": "南蘇丹",
    "country_iso_code": "SS",
    "timezone": "Africa/Juba",
    "latitude": 10.30317,
    "longitude": 32.22666
  },
  {
    "city": "Thuro Adawdo",
    "city_zh": "Thuro Adawdo",
    "country": "South Sudan",
    "country_zh": "南蘇丹",
    "country_iso_code": "SS",
    "timezone": "Africa/Juba",
    "latitude": 10.29612,
    "longitude": 32.22986
  },
  {
    "city": "Thurnum",
    "city_zh": "Thurnum",
    "country": "South Sudan",
    "country_zh": "南蘇丹",
    "country_iso_code": "SS",
    "timezone": "Africa/Juba",
    "latitude": 8.30959,
    "longitude": 30.1081
  },
  {
    "city": "Thur",
    "city_zh": "Thur",
    "country": "South Sudan",
    "country_zh": "南蘇丹",
    "country_iso_code": "SS",
    "timezone": "Africa/Juba",
    "latitude": 8.27474,
    "longitude": 30.27428
  },
  {
    "city": "Thol",
    "city_zh": "Thol",
    "country": "South Sudan",
    "country_zh": "南蘇丹",
    "country_iso_code": "SS",
    "timezone": "Africa/Juba",
    "latitude": 8.52366,
    "longitude": 32.06273
  },
  {
    "city": "Thukchak",
    "city_zh": "Thukchak",
    "country": "South Sudan",
    "country_zh": "南蘇丹",
    "country_iso_code": "SS",
    "timezone": "Africa/Juba",
    "latitude": 9.17101,
    "longitude": 30.75534
  },
  {
    "city": "Thukak",
    "city_zh": "Thukak",
    "country": "South Sudan",
    "country_zh": "南蘇丹",
    "country_iso_code": "SS",
    "timezone": "Africa/Juba",
    "latitude": 9.38915,
    "longitude": 30.91685
  },
  {
    "city": "Thorial",
    "city_zh": "Thorial",
    "country": "South Sudan",
    "country_zh": "南蘇丹",
    "country_iso_code": "SS",
    "timezone": "Africa/Juba",
    "latitude": 8.65988,
    "longitude": 29.95884
  },
  {
    "city": "Thor",
    "city_zh": "Thor",
    "country": "South Sudan",
    "country_zh": "南蘇丹",
    "country_iso_code": "SS",
    "timezone": "Africa/Juba",
    "latitude": 8.10157,
    "longitude": 32.57218
  },
  {
    "city": "Thīrān",
    "city_zh": "Thīrān",
    "country": "South Sudan",
    "country_zh": "南蘇丹",
    "country_iso_code": "SS",
    "timezone": "Africa/Juba",
    "latitude": 9.61667,
    "longitude": 26.1
  },
  {
    "city": "Thir",
    "city_zh": "Thir",
    "country": "South Sudan",
    "country_zh": "南蘇丹",
    "country_iso_code": "SS",
    "timezone": "Africa/Juba",
    "latitude": 9.2264,
    "longitude": 29.26182
  },
  {
    "city": "Thimtijejero",
    "city_zh": "Thimtijejero",
    "country": "South Sudan",
    "country_zh": "南蘇丹",
    "country_iso_code": "SS",
    "timezone": "Africa/Juba",
    "latitude": 4.31657,
    "longitude": 33.66268
  },
  {
    "city": "Thiep Shawor",
    "city_zh": "Thiep Shawor",
    "country": "South Sudan",
    "country_zh": "南蘇丹",
    "country_iso_code": "SS",
    "timezone": "Africa/Juba",
    "latitude": 7.78281,
    "longitude": 32.32703
  },
  {
    "city": "Thiang",
    "city_zh": "Thiang",
    "country": "South Sudan",
    "country_zh": "南蘇丹",
    "country_iso_code": "SS",
    "timezone": "Africa/Juba",
    "latitude": 7.7409,
    "longitude": 31.88241
  },
  {
    "city": "Thiam",
    "city_zh": "Thiam",
    "country": "South Sudan",
    "country_zh": "南蘇丹",
    "country_iso_code": "SS",
    "timezone": "Africa/Juba",
    "latitude": 7.78998,
    "longitude": 31.78052
  },
  {
    "city": "Thepkeni",
    "city_zh": "Thepkeni",
    "country": "South Sudan",
    "country_zh": "南蘇丹",
    "country_iso_code": "SS",
    "timezone": "Africa/Juba",
    "latitude": 9.33739,
    "longitude": 29.67731
  },
  {
    "city": "Thaworo",
    "city_zh": "Thaworo",
    "country": "South Sudan",
    "country_zh": "南蘇丹",
    "country_iso_code": "SS",
    "timezone": "Africa/Juba",
    "latitude": 9.38194,
    "longitude": 31.27895
  },
  {
    "city": "Thar Wang",
    "city_zh": "Thar Wang",
    "country": "South Sudan",
    "country_zh": "南蘇丹",
    "country_iso_code": "SS",
    "timezone": "Africa/Juba",
    "latitude": 8.52713,
    "longitude": 30.07275
  },
  {
    "city": "Thar Nhom",
    "city_zh": "Thar Nhom",
    "country": "South Sudan",
    "country_zh": "南蘇丹",
    "country_iso_code": "SS",
    "timezone": "Africa/Juba",
    "latitude": 7.42692,
    "longitude": 30.47657
  },
  {
    "city": "Thar Jath",
    "city_zh": "Thar Jath",
    "country": "South Sudan",
    "country_zh": "南蘇丹",
    "country_iso_code": "SS",
    "timezone": "Africa/Juba",
    "latitude": 8.46798,
    "longitude": 30.30729
  },
  {
    "city": "Thar Cheng",
    "city_zh": "Thar Cheng",
    "country": "South Sudan",
    "country_zh": "南蘇丹",
    "country_iso_code": "SS",
    "timezone": "Africa/Juba",
    "latitude": 8.2229,
    "longitude": 30.22058
  },
  {
    "city": "Thanilak",
    "city_zh": "Thanilak",
    "country": "South Sudan",
    "country_zh": "南蘇丹",
    "country_iso_code": "SS",
    "timezone": "Africa/Juba",
    "latitude": 9.18176,
    "longitude": 31.68228
  },
  {
    "city": "Thangoro",
    "city_zh": "Thangoro",
    "country": "South Sudan",
    "country_zh": "南蘇丹",
    "country_iso_code": "SS",
    "timezone": "Africa/Juba",
    "latitude": 9.16981,
    "longitude": 29.56392
  },
  {
    "city": "Tetalla",
    "city_zh": "Tetalla",
    "country": "South Sudan",
    "country_zh": "南蘇丹",
    "country_iso_code": "SS",
    "timezone": "Africa/Juba",
    "latitude": 9.15727,
    "longitude": 24.42352
  },
  {
    "city": "Teri",
    "city_zh": "Teri",
    "country": "South Sudan",
    "country_zh": "南蘇丹",
    "country_iso_code": "SS",
    "timezone": "Africa/Juba",
    "latitude": 5.78467,
    "longitude": 30.09394
  },
  {
    "city": "Terekeka",
    "city_zh": "Terekeka",
    "country": "South Sudan",
    "country_zh": "南蘇丹",
    "country_iso_code": "SS",
    "timezone": "Africa/Juba",
    "latitude": 5.44389,
    "longitude": 31.75083
  },
  {
    "city": "Tengler",
    "city_zh": "Tengler",
    "country": "South Sudan",
    "country_zh": "南蘇丹",
    "country_iso_code": "SS",
    "timezone": "Africa/Juba",
    "latitude": 8.18925,
    "longitude": 30.08597
  },
  {
    "city": "Temrol",
    "city_zh": "Temrol",
    "country": "South Sudan",
    "country_zh": "南蘇丹",
    "country_iso_code": "SS",
    "timezone": "Africa/Juba",
    "latitude": 8.272,
    "longitude": 30.61578
  },
  {
    "city": "Temrod",
    "city_zh": "Temrod",
    "country": "South Sudan",
    "country_zh": "南蘇丹",
    "country_iso_code": "SS",
    "timezone": "Africa/Juba",
    "latitude": 8.93161,
    "longitude": 28.63745
  },
  {
    "city": "Temchung-de-gi",
    "city_zh": "Temchung-de-gi",
    "country": "South Sudan",
    "country_zh": "南蘇丹",
    "country_iso_code": "SS",
    "timezone": "Africa/Juba",
    "latitude": 9.6502,
    "longitude": 32.15198
  },
  {
    "city": "Temchuk",
    "city_zh": "Temchuk",
    "country": "South Sudan",
    "country_zh": "南蘇丹",
    "country_iso_code": "SS",
    "timezone": "Africa/Juba",
    "latitude": 9.65033,
    "longitude": 32.15752
  },
  {
    "city": "Tekakomi",
    "city_zh": "Tekakomi",
    "country": "South Sudan",
    "country_zh": "南蘇丹",
    "country_iso_code": "SS",
    "timezone": "Africa/Juba",
    "latitude": 3.91667,
    "longitude": 32.08333
  },
  {
    "city": "Teiranging",
    "city_zh": "Teiranging",
    "country": "South Sudan",
    "country_zh": "南蘇丹",
    "country_iso_code": "SS",
    "timezone": "Africa/Juba",
    "latitude": 4.27794,
    "longitude": 32.72212
  },
  {
    "city": "Teday",
    "city_zh": "Teday",
    "country": "South Sudan",
    "country_zh": "南蘇丹",
    "country_iso_code": "SS",
    "timezone": "Africa/Juba",
    "latitude": 10.34344,
    "longitude": 32.49926
  },
  {
    "city": "Tebusaya",
    "city_zh": "Tebusaya",
    "country": "South Sudan",
    "country_zh": "南蘇丹",
    "country_iso_code": "SS",
    "timezone": "Africa/Juba",
    "latitude": 9.70078,
    "longitude": 29.02548
  },
  {
    "city": "Tebu",
    "city_zh": "Tebu",
    "country": "South Sudan",
    "country_zh": "南蘇丹",
    "country_iso_code": "SS",
    "timezone": "Africa/Juba",
    "latitude": 9.69855,
    "longitude": 32.19032
  },
  {
    "city": "Tebi",
    "city_zh": "Tebi",
    "country": "South Sudan",
    "country_zh": "南蘇丹",
    "country_iso_code": "SS",
    "timezone": "Africa/Juba",
    "latitude": 9.35252,
    "longitude": 25.41168
  },
  {
    "city": "Tchumakori",
    "city_zh": "Tchumakori",
    "country": "South Sudan",
    "country_zh": "南蘇丹",
    "country_iso_code": "SS",
    "timezone": "Africa/Juba",
    "latitude": 4.8724,
    "longitude": 33.52169
  },
  {
    "city": "Tayiba",
    "city_zh": "Tayiba",
    "country": "South Sudan",
    "country_zh": "南蘇丹",
    "country_iso_code": "SS",
    "timezone": "Africa/Juba",
    "latitude": 12.0183,
    "longitude": 32.7678
  },
  {
    "city": "Taufikia",
    "city_zh": "Taufikia",
    "country": "South Sudan",
    "country_zh": "南蘇丹",
    "country_iso_code": "SS",
    "timezone": "Africa/Juba",
    "latitude": 9.43072,
    "longitude": 31.62887
  },
  {
    "city": "Tartamon",
    "city_zh": "Tartamon",
    "country": "South Sudan",
    "country_zh": "南蘇丹",
    "country_iso_code": "SS",
    "timezone": "Africa/Juba",
    "latitude": 4.14243,
    "longitude": 33.58217
  },
  {
    "city": "Tarkwem",
    "city_zh": "Tarkwem",
    "country": "South Sudan",
    "country_zh": "南蘇丹",
    "country_iso_code": "SS",
    "timezone": "Africa/Juba",
    "latitude": 6.98282,
    "longitude": 31.28229
  },
  {
    "city": "Tarhala",
    "city_zh": "Tarhala",
    "country": "South Sudan",
    "country_zh": "南蘇丹",
    "country_iso_code": "SS",
    "timezone": "Africa/Juba",
    "latitude": 8.788,
    "longitude": 26.04469
  },
  {
    "city": "Tareng",
    "city_zh": "Tareng",
    "country": "South Sudan",
    "country_zh": "南蘇丹",
    "country_iso_code": "SS",
    "timezone": "Africa/Juba",
    "latitude": 9.6076,
    "longitude": 30.41231
  },
  {
    "city": "Tanyir",
    "city_zh": "Tanyir",
    "country": "South Sudan",
    "country_zh": "南蘇丹",
    "country_iso_code": "SS",
    "timezone": "Africa/Juba",
    "latitude": 8.83328,
    "longitude": 30.71498
  },
  {
    "city": "Tankariat",
    "city_zh": "Tankariat",
    "country": "South Sudan",
    "country_zh": "南蘇丹",
    "country_iso_code": "SS",
    "timezone": "Africa/Juba",
    "latitude": 5.58755,
    "longitude": 31.27434
  },
  {
    "city": "Tangore",
    "city_zh": "Tangore",
    "country": "South Sudan",
    "country_zh": "南蘇丹",
    "country_iso_code": "SS",
    "timezone": "Africa/Juba",
    "latitude": 4.08615,
    "longitude": 30.65783
  },
  {
    "city": "Tanga",
    "city_zh": "Tanga",
    "country": "South Sudan",
    "country_zh": "南蘇丹",
    "country_iso_code": "SS",
    "timezone": "Africa/Juba",
    "latitude": 7.25459,
    "longitude": 28.08051
  },
  {
    "city": "Tandu",
    "city_zh": "Tandu",
    "country": "South Sudan",
    "country_zh": "南蘇丹",
    "country_iso_code": "SS",
    "timezone": "Africa/Juba",
    "latitude": 9.36972,
    "longitude": 25.37583
  },
  {
    "city": "Tambura",
    "city_zh": "Tambura",
    "country": "South Sudan",
    "country_zh": "南蘇丹",
    "country_iso_code": "SS",
    "timezone": "Africa/Juba",
    "latitude": 5.6,
    "longitude": 27.46667
  },
  {
    "city": "Tambura",
    "city_zh": "Tambura",
    "country": "South Sudan",
    "country_zh": "南蘇丹",
    "country_iso_code": "SS",
    "timezone": "Africa/Juba",
    "latitude": 4.05972,
    "longitude": 31.05694
  },
  {
    "city": "Tambur",
    "city_zh": "Tambur",
    "country": "South Sudan",
    "country_zh": "南蘇丹",
    "country_iso_code": "SS",
    "timezone": "Africa/Juba",
    "latitude": 4.92106,
    "longitude": 31.55044
  },
  {
    "city": "Tamation",
    "city_zh": "Tamation",
    "country": "South Sudan",
    "country_zh": "南蘇丹",
    "country_iso_code": "SS",
    "timezone": "Africa/Juba",
    "latitude": 10.33038,
    "longitude": 32.31584
  },
  {
    "city": "Talung",
    "city_zh": "Talung",
    "country": "South Sudan",
    "country_zh": "南蘇丹",
    "country_iso_code": "SS",
    "timezone": "Africa/Juba",
    "latitude": 8.38747,
    "longitude": 26.17177
  },
  {
    "city": "Tali Post",
    "city_zh": "Tali Post",
    "country": "South Sudan",
    "country_zh": "南蘇丹",
    "country_iso_code": "SS",
    "timezone": "Africa/Juba",
    "latitude": 5.88922,
    "longitude": 30.77865
  },
  {
    "city": "Taguk",
    "city_zh": "Taguk",
    "country": "South Sudan",
    "country_zh": "南蘇丹",
    "country_iso_code": "SS",
    "timezone": "Africa/Juba",
    "latitude": 4.72733,
    "longitude": 33.25537
  },
  {
    "city": "Tagga",
    "city_zh": "Tagga",
    "country": "South Sudan",
    "country_zh": "南蘇丹",
    "country_iso_code": "SS",
    "timezone": "Africa/Juba",
    "latitude": 10.02386,
    "longitude": 33.64433
  },
  {
    "city": "Tadagha",
    "city_zh": "Tadagha",
    "country": "South Sudan",
    "country_zh": "南蘇丹",
    "country_iso_code": "SS",
    "timezone": "Africa/Juba",
    "latitude": 4.11905,
    "longitude": 32.89619
  },
  {
    "city": "Ta",
    "city_zh": "Ta",
    "country": "South Sudan",
    "country_zh": "南蘇丹",
    "country_iso_code": "SS",
    "timezone": "Africa/Juba",
    "latitude": 8.91519,
    "longitude": 26.13462
  },
  {
    "city": "Tabau",
    "city_zh": "Tabau",
    "country": "South Sudan",
    "country_zh": "南蘇丹",
    "country_iso_code": "SS",
    "timezone": "Africa/Juba",
    "latitude": 6.0443,
    "longitude": 30.28925
  },
  {
    "city": "Tabangiya",
    "city_zh": "Tabangiya",
    "country": "South Sudan",
    "country_zh": "南蘇丹",
    "country_iso_code": "SS",
    "timezone": "Africa/Juba",
    "latitude": 7.75898,
    "longitude": 26.16202
  },
  {
    "city": "Surur Bol",
    "city_zh": "Surur Bol",
    "country": "South Sudan",
    "country_zh": "南蘇丹",
    "country_iso_code": "SS",
    "timezone": "Africa/Juba",
    "latitude": 7.14403,
    "longitude": 28.57132
  },
  {
    "city": "Sirur",
    "city_zh": "Sirur",
    "country": "South Sudan",
    "country_zh": "南蘇丹",
    "country_iso_code": "SS",
    "timezone": "Africa/Juba",
    "latitude": 7.50743,
    "longitude": 28.24613
  },
  {
    "city": "Sirur",
    "city_zh": "Sirur",
    "country": "South Sudan",
    "country_zh": "南蘇丹",
    "country_iso_code": "SS",
    "timezone": "Africa/Juba",
    "latitude": 7.3809,
    "longitude": 27.62194
  },
  {
    "city": "Sultan Saroor",
    "city_zh": "Sultan Saroor",
    "country": "South Sudan",
    "country_zh": "南蘇丹",
    "country_iso_code": "SS",
    "timezone": "Africa/Juba",
    "latitude": 3.59574,
    "longitude": 32.08174
  },
  {
    "city": "Sultan Chak Chak",
    "city_zh": "Sultan Chak Chak",
    "country": "South Sudan",
    "country_zh": "南蘇丹",
    "country_iso_code": "SS",
    "timezone": "Africa/Juba",
    "latitude": 8.6731,
    "longitude": 26.85127
  },
  {
    "city": "Sullup",
    "city_zh": "Sullup",
    "country": "South Sudan",
    "country_zh": "南蘇丹",
    "country_iso_code": "SS",
    "timezone": "Africa/Juba",
    "latitude": 8.58149,
    "longitude": 32.76691
  },
  {
    "city": "Suleiman",
    "city_zh": "Suleiman",
    "country": "South Sudan",
    "country_zh": "南蘇丹",
    "country_iso_code": "SS",
    "timezone": "Africa/Juba",
    "latitude": 5.12894,
    "longitude": 30.4582
  },
  {
    "city": "Sughaiyer",
    "city_zh": "Sughaiyer",
    "country": "South Sudan",
    "country_zh": "南蘇丹",
    "country_iso_code": "SS",
    "timezone": "Africa/Juba",
    "latitude": 7.79124,
    "longitude": 27.65574
  },
  {
    "city": "Sosodi",
    "city_zh": "Sosodi",
    "country": "South Sudan",
    "country_zh": "南蘇丹",
    "country_iso_code": "SS",
    "timezone": "Africa/Juba",
    "latitude": 3.87685,
    "longitude": 30.74542
  },
  {
    "city": "Sopo",
    "city_zh": "Sopo",
    "country": "South Sudan",
    "country_zh": "南蘇丹",
    "country_iso_code": "SS",
    "timezone": "Africa/Juba",
    "latitude": 8.01761,
    "longitude": 26.05528
  },
  {
    "city": "Songola",
    "city_zh": "Songola",
    "country": "South Sudan",
    "country_zh": "南蘇丹",
    "country_iso_code": "SS",
    "timezone": "Africa/Juba",
    "latitude": 4.70961,
    "longitude": 31.52386
  },
  {
    "city": "Sirsiri",
    "city_zh": "Sirsiri",
    "country": "South Sudan",
    "country_zh": "南蘇丹",
    "country_iso_code": "SS",
    "timezone": "Africa/Juba",
    "latitude": 4.39487,
    "longitude": 31.87946
  },
  {
    "city": "Singi",
    "city_zh": "Singi",
    "country": "South Sudan",
    "country_zh": "南蘇丹",
    "country_iso_code": "SS",
    "timezone": "Africa/Juba",
    "latitude": 4.86278,
    "longitude": 31.76936
  },
  {
    "city": "Sindiru",
    "city_zh": "Sindiru",
    "country": "South Sudan",
    "country_zh": "南蘇丹",
    "country_iso_code": "SS",
    "timezone": "Africa/Juba",
    "latitude": 4.45763,
    "longitude": 31.61583
  },
  {
    "city": "Shwil",
    "city_zh": "Shwil",
    "country": "South Sudan",
    "country_zh": "南蘇丹",
    "country_iso_code": "SS",
    "timezone": "Africa/Juba",
    "latitude": 8.99705,
    "longitude": 32.4147
  },
  {
    "city": "Shwai Chuk",
    "city_zh": "Shwai Chuk",
    "country": "South Sudan",
    "country_zh": "南蘇丹",
    "country_iso_code": "SS",
    "timezone": "Africa/Juba",
    "latitude": 8.05,
    "longitude": 31.41667
  },
  {
    "city": "Shwai",
    "city_zh": "Shwai",
    "country": "South Sudan",
    "country_zh": "南蘇丹",
    "country_iso_code": "SS",
    "timezone": "Africa/Juba",
    "latitude": 9.06735,
    "longitude": 31.75267
  },
  {
    "city": "Shwai",
    "city_zh": "Shwai",
    "country": "South Sudan",
    "country_zh": "南蘇丹",
    "country_iso_code": "SS",
    "timezone": "Africa/Juba",
    "latitude": 8.85632,
    "longitude": 32.51216
  },
  {
    "city": "Shurur",
    "city_zh": "Shurur",
    "country": "South Sudan",
    "country_zh": "南蘇丹",
    "country_iso_code": "SS",
    "timezone": "Africa/Juba",
    "latitude": 8.10179,
    "longitude": 27.82823
  },
  {
    "city": "Shuri",
    "city_zh": "Shuri",
    "country": "South Sudan",
    "country_zh": "南蘇丹",
    "country_iso_code": "SS",
    "timezone": "Africa/Juba",
    "latitude": 7.13292,
    "longitude": 29.72281
  },
  {
    "city": "Shumam",
    "city_zh": "Shumam",
    "country": "South Sudan",
    "country_zh": "南蘇丹",
    "country_iso_code": "SS",
    "timezone": "Africa/Juba",
    "latitude": 8.56044,
    "longitude": 25.8044
  },
  {
    "city": "Shum",
    "city_zh": "Shum",
    "country": "South Sudan",
    "country_zh": "南蘇丹",
    "country_iso_code": "SS",
    "timezone": "Africa/Juba",
    "latitude": 7.39737,
    "longitude": 28.8238
  },
  {
    "city": "Shukoli",
    "city_zh": "Shukoli",
    "country": "South Sudan",
    "country_zh": "南蘇丹",
    "country_iso_code": "SS",
    "timezone": "Africa/Juba",
    "latitude": 3.90787,
    "longitude": 31.7694
  },
  {
    "city": "Shukkaba",
    "city_zh": "Shukkaba",
    "country": "South Sudan",
    "country_zh": "南蘇丹",
    "country_iso_code": "SS",
    "timezone": "Africa/Juba",
    "latitude": 10.98747,
    "longitude": 32.58322
  },
  {
    "city": "Shukdash",
    "city_zh": "Shukdash",
    "country": "South Sudan",
    "country_zh": "南蘇丹",
    "country_iso_code": "SS",
    "timezone": "Africa/Juba",
    "latitude": 11.7084,
    "longitude": 32.8668
  },
  {
    "city": "Shuai",
    "city_zh": "Shuai",
    "country": "South Sudan",
    "country_zh": "南蘇丹",
    "country_iso_code": "SS",
    "timezone": "Africa/Juba",
    "latitude": 7.12211,
    "longitude": 29.74609
  },
  {
    "city": "Shotfeng",
    "city_zh": "Shotfeng",
    "country": "South Sudan",
    "country_zh": "南蘇丹",
    "country_iso_code": "SS",
    "timezone": "Africa/Juba",
    "latitude": 8.15057,
    "longitude": 30.84979
  },
  {
    "city": "Sholayik",
    "city_zh": "Sholayik",
    "country": "South Sudan",
    "country_zh": "南蘇丹",
    "country_iso_code": "SS",
    "timezone": "Africa/Juba",
    "latitude": 9.13098,
    "longitude": 31.74719
  },
  {
    "city": "Shol Ajok",
    "city_zh": "Shol Ajok",
    "country": "South Sudan",
    "country_zh": "南蘇丹",
    "country_iso_code": "SS",
    "timezone": "Africa/Juba",
    "latitude": 9.21663,
    "longitude": 31.68035
  },
  {
    "city": "Shol",
    "city_zh": "Shol",
    "country": "South Sudan",
    "country_zh": "南蘇丹",
    "country_iso_code": "SS",
    "timezone": "Africa/Juba",
    "latitude": 9.26304,
    "longitude": 32.076
  },
  {
    "city": "Shokhi",
    "city_zh": "Shokhi",
    "country": "South Sudan",
    "country_zh": "南蘇丹",
    "country_iso_code": "SS",
    "timezone": "Africa/Juba",
    "latitude": 9.18333,
    "longitude": 24.46667
  },
  {
    "city": "Shiromba",
    "city_zh": "Shiromba",
    "country": "South Sudan",
    "country_zh": "南蘇丹",
    "country_iso_code": "SS",
    "timezone": "Africa/Juba",
    "latitude": 4.58395,
    "longitude": 30.98184
  },
  {
    "city": "Shebalueng",
    "city_zh": "Shebalueng",
    "country": "South Sudan",
    "country_zh": "南蘇丹",
    "country_iso_code": "SS",
    "timezone": "Africa/Juba",
    "latitude": 9.2942,
    "longitude": 30.69454
  },
  {
    "city": "Shain",
    "city_zh": "Shain",
    "country": "South Sudan",
    "country_zh": "南蘇丹",
    "country_iso_code": "SS",
    "timezone": "Africa/Juba",
    "latitude": 8.49007,
    "longitude": 25.70179
  },
  {
    "city": "Sheikh Offio",
    "city_zh": "Sheikh Offio",
    "country": "South Sudan",
    "country_zh": "南蘇丹",
    "country_iso_code": "SS",
    "timezone": "Africa/Juba",
    "latitude": 8.47894,
    "longitude": 27.01742
  },
  {
    "city": "Sheikh Nur",
    "city_zh": "Sheikh Nur",
    "country": "South Sudan",
    "country_zh": "南蘇丹",
    "country_iso_code": "SS",
    "timezone": "Africa/Juba",
    "latitude": 8.91642,
    "longitude": 27.23666
  },
  {
    "city": "Sheikh Mulai",
    "city_zh": "Sheikh Mulai",
    "country": "South Sudan",
    "country_zh": "南蘇丹",
    "country_iso_code": "SS",
    "timezone": "Africa/Juba",
    "latitude": 4.9475,
    "longitude": 30.71938
  },
  {
    "city": "Sheikh Jok",
    "city_zh": "Sheikh Jok",
    "country": "South Sudan",
    "country_zh": "南蘇丹",
    "country_iso_code": "SS",
    "timezone": "Africa/Juba",
    "latitude": 10.96389,
    "longitude": 32.63831
  },
  {
    "city": "Sheikh Gombo",
    "city_zh": "Sheikh Gombo",
    "country": "South Sudan",
    "country_zh": "南蘇丹",
    "country_iso_code": "SS",
    "timezone": "Africa/Juba",
    "latitude": 4.85778,
    "longitude": 30.59651
  },
  {
    "city": "Shaykh Faḑl Mikwar",
    "city_zh": "Shaykh Faḑl Mikwar",
    "country": "South Sudan",
    "country_zh": "南蘇丹",
    "country_iso_code": "SS",
    "timezone": "Africa/Juba",
    "latitude": 8.0696,
    "longitude": 27.79061
  },
  {
    "city": "Sheikh Dud Malang",
    "city_zh": "Sheikh Dud Malang",
    "country": "South Sudan",
    "country_zh": "南蘇丹",
    "country_iso_code": "SS",
    "timezone": "Africa/Juba",
    "latitude": 7.746,
    "longitude": 27.93949
  },
  {
    "city": "Sheikh Bringi",
    "city_zh": "Sheikh Bringi",
    "country": "South Sudan",
    "country_zh": "南蘇丹",
    "country_iso_code": "SS",
    "timezone": "Africa/Juba",
    "latitude": 4.65095,
    "longitude": 30.38775
  },
  {
    "city": "Sheikh Bade",
    "city_zh": "Sheikh Bade",
    "country": "South Sudan",
    "country_zh": "南蘇丹",
    "country_iso_code": "SS",
    "timezone": "Africa/Juba",
    "latitude": 10.24403,
    "longitude": 33.54336
  },
  {
    "city": "Sheikh Badari",
    "city_zh": "Sheikh Badari",
    "country": "South Sudan",
    "country_zh": "南蘇丹",
    "country_iso_code": "SS",
    "timezone": "Africa/Juba",
    "latitude": 8.11432,
    "longitude": 27.52094
  },
  {
    "city": "Sheikh Aliu",
    "city_zh": "Sheikh Aliu",
    "country": "South Sudan",
    "country_zh": "南蘇丹",
    "country_iso_code": "SS",
    "timezone": "Africa/Juba",
    "latitude": 7.51415,
    "longitude": 28.16266
  },
  {
    "city": "Shapot",
    "city_zh": "Shapot",
    "country": "South Sudan",
    "country_zh": "南蘇丹",
    "country_iso_code": "SS",
    "timezone": "Africa/Juba",
    "latitude": 8.07079,
    "longitude": 30.8925
  },
  {
    "city": "Shamma",
    "city_zh": "Shamma",
    "country": "South Sudan",
    "country_zh": "南蘇丹",
    "country_iso_code": "SS",
    "timezone": "Africa/Juba",
    "latitude": 8.93974,
    "longitude": 28.46056
  },
  {
    "city": "Shambe",
    "city_zh": "Shambe",
    "country": "South Sudan",
    "country_zh": "南蘇丹",
    "country_iso_code": "SS",
    "timezone": "Africa/Juba",
    "latitude": 7.10472,
    "longitude": 30.77361
  },
  {
    "city": "Shamba",
    "city_zh": "Shamba",
    "country": "South Sudan",
    "country_zh": "南蘇丹",
    "country_iso_code": "SS",
    "timezone": "Africa/Juba",
    "latitude": 4.37955,
    "longitude": 31.13862
  },
  {
    "city": "Senango",
    "city_zh": "Senango",
    "country": "South Sudan",
    "country_zh": "南蘇丹",
    "country_iso_code": "SS",
    "timezone": "Africa/Juba",
    "latitude": 4.72008,
    "longitude": 29.42924
  },
  {
    "city": "Senambia",
    "city_zh": "Senambia",
    "country": "South Sudan",
    "country_zh": "南蘇丹",
    "country_iso_code": "SS",
    "timezone": "Africa/Juba",
    "latitude": 4.75355,
    "longitude": 29.52523
  },
  {
    "city": "Sassa",
    "city_zh": "Sassa",
    "country": "South Sudan",
    "country_zh": "南蘇丹",
    "country_iso_code": "SS",
    "timezone": "Africa/Juba",
    "latitude": 5.78351,
    "longitude": 28.80728
  },
  {
    "city": "Saskosko",
    "city_zh": "Saskosko",
    "country": "South Sudan",
    "country_zh": "南蘇丹",
    "country_iso_code": "SS",
    "timezone": "Africa/Juba",
    "latitude": 9.22721,
    "longitude": 33.81496
  },
  {
    "city": "Sarandil",
    "city_zh": "Sarandil",
    "country": "South Sudan",
    "country_zh": "南蘇丹",
    "country_iso_code": "SS",
    "timezone": "Africa/Juba",
    "latitude": 9.28333,
    "longitude": 24.46667
  },
  {
    "city": "Sangisangi",
    "city_zh": "Sangisangi",
    "country": "South Sudan",
    "country_zh": "南蘇丹",
    "country_iso_code": "SS",
    "timezone": "Africa/Juba",
    "latitude": 5.8569,
    "longitude": 28.74085
  },
  {
    "city": "Saleh Kulunguru",
    "city_zh": "Saleh Kulunguru",
    "country": "South Sudan",
    "country_zh": "南蘇丹",
    "country_iso_code": "SS",
    "timezone": "Africa/Juba",
    "latitude": 7.98321,
    "longitude": 26.08081
  },
  {
    "city": "Said Gatti",
    "city_zh": "Said Gatti",
    "country": "South Sudan",
    "country_zh": "南蘇丹",
    "country_iso_code": "SS",
    "timezone": "Africa/Juba",
    "latitude": 6.53093,
    "longitude": 29.53336
  },
  {
    "city": "Sa‘id Bundas",
    "city_zh": "Sa‘id Bundas",
    "country": "South Sudan",
    "country_zh": "南蘇丹",
    "country_iso_code": "SS",
    "timezone": "Africa/Juba",
    "latitude": 8.45252,
    "longitude": 24.71938
  },