[
  {
    "city": "Zyonguen",
    "city_zh": "Zyonguen",
    "country": "Burkina Faso",
    "country_zh": "布吉納法索",
    "country_iso_code": "BF",
    "timezone": "Africa/Ouagadougou",
    "latitude": 12.36667,
    "longitude": -0.45
  },
  {
    "city": "Zyiliwèlè",
    "city_zh": "Zyiliwèlè",
    "country": "Burkina Faso",
    "country_zh": "布吉納法索",
    "country_iso_code": "BF",
    "timezone": "Africa/Ouagadougou",
    "latitude": 12.38333,
    "longitude": -2.73333
  },
  {
    "city": "Zyanko",
    "city_zh": "Zyanko",
    "country": "Burkina Faso",
    "country_zh": "布吉納法索",
    "country_iso_code": "BF",
    "timezone": "Africa/Ouagadougou",
    "latitude": 12.78333,
    "longitude": -0.41667
  },
  {
    "city": "Zouta",
    "city_zh": "Zouta",
    "country": "Burkina Faso",
    "country_zh": "布吉納法索",
    "country_iso_code": "BF",
    "timezone": "Africa/Ouagadougou",
    "latitude": 13.14908,
    "longitude": -1.28197
  },
  {
    "city": "Zourtenga",
    "city_zh": "Zourtenga",
    "country": "Burkina Faso",
    "country_zh": "布吉納法索",
    "country_iso_code": "BF",
    "timezone": "Africa/Ouagadougou",
    "latitude": 12.95741,
    "longitude": -1.28745
  },
  {
    "city": "Zourma-Kita",
    "city_zh": "Zourma-Kita",
    "country": "Burkina Faso",
    "country_zh": "布吉納法索",
    "country_iso_code": "BF",
    "timezone": "Africa/Ouagadougou",
    "latitude": 11.39418,
    "longitude": -0.79273
  },
  {
    "city": "Zouri",
    "city_zh": "Zouri",
    "country": "Burkina Faso",
    "country_zh": "布吉納法索",
    "country_iso_code": "BF",
    "timezone": "Africa/Ouagadougou",
    "latitude": 11.65,
    "longitude": -1.28333
  },
  {
    "city": "Zoura",
    "city_zh": "Zoura",
    "country": "Burkina Faso",
    "country_zh": "布吉納法索",
    "country_iso_code": "BF",
    "timezone": "Africa/Ouagadougou",
    "latitude": 13.28261,
    "longitude": -1.47644
  },
  {
    "city": "Zoungwa",
    "city_zh": "Zoungwa",
    "country": "Burkina Faso",
    "country_zh": "布吉納法索",
    "country_iso_code": "BF",
    "timezone": "Africa/Ouagadougou",
    "latitude": 13.21895,
    "longitude": -1.97142
  },
  {
    "city": "Zoungou",
    "city_zh": "Zoungou",
    "country": "Burkina Faso",
    "country_zh": "布吉納法索",
    "country_iso_code": "BF",
    "timezone": "Africa/Ouagadougou",
    "latitude": 12.14441,
    "longitude": -0.53169
  },
  {
    "city": "Zoungo",
    "city_zh": "Zoungo",
    "country": "Burkina Faso",
    "country_zh": "布吉納法索",
    "country_iso_code": "BF",
    "timezone": "Africa/Ouagadougou",
    "latitude": 13.28675,
    "longitude": -1.14636
  },
  {
    "city": "Zoundri",
    "city_zh": "Zoundri",
    "country": "Burkina Faso",
    "country_zh": "布吉納法索",
    "country_iso_code": "BF",
    "timezone": "Africa/Ouagadougou",
    "latitude": 12.42718,
    "longitude": -1.90874
  },
  {
    "city": "Zoundi",
    "city_zh": "Zoundi",
    "country": "Burkina Faso",
    "country_zh": "布吉納法索",
    "country_iso_code": "BF",
    "timezone": "Africa/Ouagadougou",
    "latitude": 12.73972,
    "longitude": -1.51522
  },
  {
    "city": "Zounara",
    "city_zh": "Zounara",
    "country": "Burkina Faso",
    "country_zh": "布吉納法索",
    "country_iso_code": "BF",
    "timezone": "Africa/Ouagadougou",
    "latitude": 14.0603,
    "longitude": -0.9666
  },
  {
    "city": "Zoumbara",
    "city_zh": "Zoumbara",
    "country": "Burkina Faso",
    "country_zh": "布吉納法索",
    "country_iso_code": "BF",
    "timezone": "Africa/Ouagadougou",
    "latitude": 12.88333,
    "longitude": -3.15
  },
  {
    "city": "Zouma",
    "city_zh": "Zouma",
    "country": "Burkina Faso",
    "country_zh": "布吉納法索",
    "country_iso_code": "BF",
    "timezone": "Africa/Ouagadougou",
    "latitude": 13.33543,
    "longitude": -2.05511
  },
  {
    "city": "Zouma",
    "city_zh": "Zouma",
    "country": "Burkina Faso",
    "country_zh": "布吉納法索",
    "country_iso_code": "BF",
    "timezone": "Africa/Ouagadougou",
    "latitude": 12.66667,
    "longitude": -2.91667
  },
  {
    "city": "Zouma",
    "city_zh": "Zouma",
    "country": "Burkina Faso",
    "country_zh": "布吉納法索",
    "country_iso_code": "BF",
    "timezone": "Africa/Ouagadougou",
    "latitude": 12.59733,
    "longitude": -1.60221
  },
  {
    "city": "Zoum",
    "city_zh": "Zoum",
    "country": "Burkina Faso",
    "country_zh": "布吉納法索",
    "country_iso_code": "BF",
    "timezone": "Africa/Ouagadougou",
    "latitude": 12.76667,
    "longitude": -3.98333
  },
  {
    "city": "Zouloumtenga",
    "city_zh": "Zouloumtenga",
    "country": "Burkina Faso",
    "country_zh": "布吉納法索",
    "country_iso_code": "BF",
    "timezone": "Africa/Ouagadougou",
    "latitude": 12.85,
    "longitude": -0.98333
  },
  {
    "city": "Zoula",
    "city_zh": "Zoula",
    "country": "Burkina Faso",
    "country_zh": "布吉納法索",
    "country_iso_code": "BF",
    "timezone": "Africa/Ouagadougou",
    "latitude": 12.25,
    "longitude": -2.46667
  },
  {
    "city": "Zoukoundougou",
    "city_zh": "Zoukoundougou",
    "country": "Burkina Faso",
    "country_zh": "布吉納法索",
    "country_iso_code": "BF",
    "timezone": "Africa/Ouagadougou",
    "latitude": 13.47294,
    "longitude": -1.82887
  },
  {
    "city": "Zougountenga",
    "city_zh": "Zougountenga",
    "country": "Burkina Faso",
    "country_zh": "布吉納法索",
    "country_iso_code": "BF",
    "timezone": "Africa/Ouagadougou",
    "latitude": 13.43528,
    "longitude": -0.61691
  },
  {
    "city": "Zougoungo",
    "city_zh": "Zougoungo",
    "country": "Burkina Faso",
    "country_zh": "布吉納法索",
    "country_iso_code": "BF",
    "timezone": "Africa/Ouagadougou",
    "latitude": 13.0482,
    "longitude": -2.2187
  },
  {
    "city": "Zongouma",
    "city_zh": "Zongouma",
    "country": "Burkina Faso",
    "country_zh": "布吉納法索",
    "country_iso_code": "BF",
    "timezone": "Africa/Ouagadougou",
    "latitude": 13.91409,
    "longitude": -2.24711
  },
  {
    "city": "Zougouma",
    "city_zh": "Zougouma",
    "country": "Burkina Faso",
    "country_zh": "布吉納法索",
    "country_iso_code": "BF",
    "timezone": "Africa/Ouagadougou",
    "latitude": 13.56335,
    "longitude": -2.51996
  },
  {
    "city": "Zougo",
    "city_zh": "Zougo",
    "country": "Burkina Faso",
    "country_zh": "布吉納法索",
    "country_iso_code": "BF",
    "timezone": "Africa/Ouagadougou",
    "latitude": 12.8,
    "longitude": -2.63333
  },
  {
    "city": "Roudounga",
    "city_zh": "Roudounga",
    "country": "Burkina Faso",
    "country_zh": "布吉納法索",
    "country_iso_code": "BF",
    "timezone": "Africa/Ouagadougou",
    "latitude": 13.76241,
    "longitude": -2.34135
  },
  {
    "city": "Zouandoma",
    "city_zh": "Zouandoma",
    "country": "Burkina Faso",
    "country_zh": "布吉納法索",
    "country_iso_code": "BF",
    "timezone": "Africa/Ouagadougou",
    "latitude": 13.315,
    "longitude": -2.13058
  },
  {
    "city": "Zorogo",
    "city_zh": "Zorogo",
    "country": "Burkina Faso",
    "country_zh": "布吉納法索",
    "country_iso_code": "BF",
    "timezone": "Africa/Ouagadougou",
    "latitude": 12.25,
    "longitude": -0.28333
  },
  {
    "city": "Zoro",
    "city_zh": "Zoro",
    "country": "Burkina Faso",
    "country_zh": "布吉納法索",
    "country_iso_code": "BF",
    "timezone": "Africa/Ouagadougou",
    "latitude": 11.1,
    "longitude": -2.05
  },
  {
    "city": "Zorkoum",
    "city_zh": "Zorkoum",
    "country": "Burkina Faso",
    "country_zh": "布吉納法索",
    "country_iso_code": "BF",
    "timezone": "Africa/Ouagadougou",
    "latitude": 13.14888,
    "longitude": -1.16584
  },
  {
    "city": "Zorgongo",
    "city_zh": "Zorgongo",
    "country": "Burkina Faso",
    "country_zh": "布吉納法索",
    "country_iso_code": "BF",
    "timezone": "Africa/Ouagadougou",
    "latitude": 12.26667,
    "longitude": -0.8
  },
  {
    "city": "Zorgo",
    "city_zh": "Zorgo",
    "country": "Burkina Faso",
    "country_zh": "布吉納法索",
    "country_iso_code": "BF",
    "timezone": "Africa/Ouagadougou",
    "latitude": 13.06589,
    "longitude": -0.66919
  },
  {
    "city": "Zorgo",
    "city_zh": "Zorgo",
    "country": "Burkina Faso",
    "country_zh": "布吉納法索",
    "country_iso_code": "BF",
    "timezone": "Africa/Ouagadougou",
    "latitude": 12.24922,
    "longitude": -0.61527
  },
  {
    "city": "Zorgo",
    "city_zh": "Zorgo",
    "country": "Burkina Faso",
    "country_zh": "布吉納法索",
    "country_iso_code": "BF",
    "timezone": "Africa/Ouagadougou",
    "latitude": 11.7,
    "longitude": -1.33333
  },
  {
    "city": "Zorga",
    "city_zh": "Zorga",
    "country": "Burkina Faso",
    "country_zh": "布吉納法索",
    "country_iso_code": "BF",
    "timezone": "Africa/Ouagadougou",
    "latitude": 13.02002,
    "longitude": -0.66817
  },
  {
    "city": "Zore",
    "city_zh": "Zore",
    "country": "Burkina Faso",
    "country_zh": "布吉納法索",
    "country_iso_code": "BF",
    "timezone": "Africa/Ouagadougou",
    "latitude": 12.28333,
    "longitude": -0.45
  },
  {
    "city": "Zorbo",
    "city_zh": "Zorbo",
    "country": "Burkina Faso",
    "country_zh": "布吉納法索",
    "country_iso_code": "BF",
    "timezone": "Africa/Ouagadougou",
    "latitude": 13.5327,
    "longitude": -0.97824
  },
  {
    "city": "Zoongo",
    "city_zh": "Zoongo",
    "country": "Burkina Faso",
    "country_zh": "布吉納法索",
    "country_iso_code": "BF",
    "timezone": "Africa/Ouagadougou",
    "latitude": 12.85,
    "longitude": -0.58333
  },
  {
    "city": "Zinzour-Polo",
    "city_zh": "Zinzour-Polo",
    "country": "Burkina Faso",
    "country_zh": "布吉納法索",
    "country_iso_code": "BF",
    "timezone": "Africa/Ouagadougou",
    "latitude": 10.16785,
    "longitude": -2.89802
  },
  {
    "city": "Zontibé",
    "city_zh": "Zontibé",
    "country": "Burkina Faso",
    "country_zh": "布吉納法索",
    "country_iso_code": "BF",
    "timezone": "Africa/Ouagadougou",
    "latitude": 13.41516,
    "longitude": -1.25175
  },
  {
    "city": "Zonsé",
    "city_zh": "Zonsé",
    "country": "Burkina Faso",
    "country_zh": "布吉納法索",
    "country_iso_code": "BF",
    "timezone": "Africa/Ouagadougou",
    "latitude": 11.37,
    "longitude": -0.615
  },
  {
    "city": "Zono",
    "city_zh": "Zono",
    "country": "Burkina Faso",
    "country_zh": "布吉納法索",
    "country_iso_code": "BF",
    "timezone": "Africa/Ouagadougou",
    "latitude": 10.41667,
    "longitude": -3.56667
  },
  {
    "city": "Zonkin",
    "city_zh": "Zonkin",
    "country": "Burkina Faso",
    "country_zh": "布吉納法索",
    "country_iso_code": "BF",
    "timezone": "Africa/Ouagadougou",
    "latitude": 12.98639,
    "longitude": -0.9914
  },
  {
    "city": "Zongpiguen",
    "city_zh": "Zongpiguen",
    "country": "Burkina Faso",
    "country_zh": "布吉納法索",
    "country_iso_code": "BF",
    "timezone": "Africa/Ouagadougou",
    "latitude": 12.25,
    "longitude": -0.78333
  },
  {
    "city": "Zongowaétan",
    "city_zh": "Zongowaétan",
    "country": "Burkina Faso",
    "country_zh": "布吉納法索",
    "country_iso_code": "BF",
    "timezone": "Africa/Ouagadougou",
    "latitude": 13.79124,
    "longitude": 0.54774
  },
  {
    "city": "Zongo",
    "city_zh": "Zongo",
    "country": "Burkina Faso",
    "country_zh": "布吉納法索",
    "country_iso_code": "BF",
    "timezone": "Africa/Ouagadougou",
    "latitude": 13.4246,
    "longitude": -1.22507
  },
  {
    "city": "Zongo",
    "city_zh": "Zongo",
    "country": "Burkina Faso",
    "country_zh": "布吉納法索",
    "country_iso_code": "BF",
    "timezone": "Africa/Ouagadougou",
    "latitude": 13.22745,
    "longitude": -2.37596
  },
  {
    "city": "Zongo",
    "city_zh": "Zongo",
    "country": "Burkina Faso",
    "country_zh": "布吉納法索",
    "country_iso_code": "BF",
    "timezone": "Africa/Ouagadougou",
    "latitude": 12.34595,
    "longitude": -1.59856
  },
  {
    "city": "Zonesso",
    "city_zh": "Zonesso",
    "country": "Burkina Faso",
    "country_zh": "布吉納法索",
    "country_iso_code": "BF",
    "timezone": "Africa/Ouagadougou",
    "latitude": 11.16497,
    "longitude": -4.17687
  },
  {
    "city": "Zoner",
    "city_zh": "Zoner",
    "country": "Burkina Faso",
    "country_zh": "布吉納法索",
    "country_iso_code": "BF",
    "timezone": "Africa/Ouagadougou",
    "latitude": 11.21667,
    "longitude": -2.83333
  },
  {
    "city": "Zonankui",
    "city_zh": "Zonankui",
    "country": "Burkina Faso",
    "country_zh": "布吉納法索",
    "country_iso_code": "BF",
    "timezone": "Africa/Ouagadougou",
    "latitude": 12.68333,
    "longitude": -3.58333
  },
  {
    "city": "Zon",
    "city_zh": "Zon",
    "country": "Burkina Faso",
    "country_zh": "布吉納法索",
    "country_iso_code": "BF",
    "timezone": "Africa/Ouagadougou",
    "latitude": 13.72901,
    "longitude": -1.61531
  },
  {
    "city": "Zon",
    "city_zh": "Zon",
    "country": "Burkina Faso",
    "country_zh": "布吉納法索",
    "country_iso_code": "BF",
    "timezone": "Africa/Ouagadougou",
    "latitude": 11.28333,
    "longitude": -1.4
  },
  {
    "city": "Zomouna",
    "city_zh": "Zomouna",
    "country": "Burkina Faso",
    "country_zh": "布吉納法索",
    "country_iso_code": "BF",
    "timezone": "Africa/Ouagadougou",
    "latitude": 11.2,
    "longitude": -2.46667
  },
  {
    "city": "Zomnogo",
    "city_zh": "Zomnogo",
    "country": "Burkina Faso",
    "country_zh": "布吉納法索",
    "country_iso_code": "BF",
    "timezone": "Africa/Ouagadougou",
    "latitude": 13.25112,
    "longitude": -0.45782
  },
  {
    "city": "Zomnogo",
    "city_zh": "Zomnogo",
    "country": "Burkina Faso",
    "country_zh": "布吉納法索",
    "country_iso_code": "BF",
    "timezone": "Africa/Ouagadougou",
    "latitude": 12.61667,
    "longitude": -0.38333
  },
  {
    "city": "Zomkalga",
    "city_zh": "Zomkalga",
    "country": "Burkina Faso",
    "country_zh": "布吉納法索",
    "country_iso_code": "BF",
    "timezone": "Africa/Ouagadougou",
    "latitude": 13.45749,
    "longitude": -1.88202
  },
  {
    "city": "Zomkalga",
    "city_zh": "Zomkalga",
    "country": "Burkina Faso",
    "country_zh": "布吉納法索",
    "country_iso_code": "BF",
    "timezone": "Africa/Ouagadougou",
    "latitude": 13.18893,
    "longitude": -1.48445
  },
  {
    "city": "Zom",
    "city_zh": "Zom",
    "country": "Burkina Faso",
    "country_zh": "布吉納法索",
    "country_iso_code": "BF",
    "timezone": "Africa/Ouagadougou",
    "latitude": 13.83017,
    "longitude": -2.40276
  },
  {
    "city": "Zolo",
    "city_zh": "Zolo",
    "country": "Burkina Faso",
    "country_zh": "布吉納法索",
    "country_iso_code": "BF",
    "timezone": "Africa/Ouagadougou",
    "latitude": 12.8,
    "longitude": -2.56667
  },
  {
    "city": "Zolo",
    "city_zh": "Zolo",
    "country": "Burkina Faso",
    "country_zh": "布吉納法索",
    "country_iso_code": "BF",
    "timezone": "Africa/Ouagadougou",
    "latitude": 10.81667,
    "longitude": -3.05
  },
  {
    "city": "Zogoré",
    "city_zh": "Zogoré",
    "country": "Burkina Faso",
    "country_zh": "布吉納法索",
    "country_iso_code": "BF",
    "timezone": "Africa/Ouagadougou",
    "latitude": 13.40169,
    "longitude": -2.59244
  },
  {
    "city": "Zogbéga",
    "city_zh": "Zogbéga",
    "country": "Burkina Faso",
    "country_zh": "布吉納法索",
    "country_iso_code": "BF",
    "timezone": "Africa/Ouagadougou",
    "latitude": 12.86667,
    "longitude": -2.1
  },
  {
    "city": "Zoétgomdé",
    "city_zh": "Zoétgomdé",
    "country": "Burkina Faso",
    "country_zh": "布吉納法索",
    "country_iso_code": "BF",
    "timezone": "Africa/Ouagadougou",
    "latitude": 12.53333,
    "longitude": -2.2
  },
  {
    "city": "Zodoum",
    "city_zh": "Zodoum",
    "country": "Burkina Faso",
    "country_zh": "布吉納法索",
    "country_iso_code": "BF",
    "timezone": "Africa/Ouagadougou",
    "latitude": 10.98333,
    "longitude": -3.03333
  },
  {
    "city": "Zoamba",
    "city_zh": "Zoamba",
    "country": "Burkina Faso",
    "country_zh": "布吉納法索",
    "country_iso_code": "BF",
    "timezone": "Africa/Ouagadougou",
    "latitude": 12.76667,
    "longitude": -0.83333
  },
  {
    "city": "Zoaga",
    "city_zh": "Zoaga",
    "country": "Burkina Faso",
    "country_zh": "布吉納法索",
    "country_iso_code": "BF",
    "timezone": "Africa/Ouagadougou",
    "latitude": 11.03806,
    "longitude": -0.59028
  },
  {
    "city": "Zizon",
    "city_zh": "Zizon",
    "country": "Burkina Faso",
    "country_zh": "布吉納法索",
    "country_iso_code": "BF",
    "timezone": "Africa/Ouagadougou",
    "latitude": 12.8,
    "longitude": -2.26667
  },
  {
    "city": "Zizi",
    "city_zh": "Zizi",
    "country": "Burkina Faso",
    "country_zh": "布吉納法索",
    "country_iso_code": "BF",
    "timezone": "Africa/Ouagadougou",
    "latitude": 12.96667,
    "longitude": -2.93333
  },
  {
    "city": "Zitoessin",
    "city_zh": "Zitoessin",
    "country": "Burkina Faso",
    "country_zh": "布吉納法索",
    "country_iso_code": "BF",
    "timezone": "Africa/Ouagadougou",
    "latitude": 13.07456,
    "longitude": -2.39649
  },
  {
    "city": "Zitenga",
    "city_zh": "Zitenga",
    "country": "Burkina Faso",
    "country_zh": "布吉納法索",
    "country_iso_code": "BF",
    "timezone": "Africa/Ouagadougou",
    "latitude": 12.74846,
    "longitude": -1.30989
  },
  {
    "city": "Zisségré",
    "city_zh": "Zisségré",
    "country": "Burkina Faso",
    "country_zh": "布吉納法索",
    "country_iso_code": "BF",
    "timezone": "Africa/Ouagadougou",
    "latitude": 12.66667,
    "longitude": -0.38333
  },
  {
    "city": "Ziré",
    "city_zh": "Ziré",
    "country": "Burkina Faso",
    "country_zh": "布吉納法索",
    "country_iso_code": "BF",
    "timezone": "Africa/Ouagadougou",
    "latitude": 13.27328,
    "longitude": -2.11149
  },
  {
    "city": "Zipélé",
    "city_zh": "Zipélé",
    "country": "Burkina Faso",
    "country_zh": "布吉納法索",
    "country_iso_code": "BF",
    "timezone": "Africa/Ouagadougou",
    "latitude": 12.77965,
    "longitude": -1.73737
  },
  {
    "city": "Zipélaga",
    "city_zh": "Zipélaga",
    "country": "Burkina Faso",
    "country_zh": "布吉納法索",
    "country_iso_code": "BF",
    "timezone": "Africa/Ouagadougou",
    "latitude": 11.06667,
    "longitude": -0.48333
  },
  {
    "city": "Ziou",
    "city_zh": "Ziou",
    "country": "Burkina Faso",
    "country_zh": "布吉納法索",
    "country_iso_code": "BF",
    "timezone": "Africa/Ouagadougou",
    "latitude": 11.03611,
    "longitude": -0.77917
  },
  {
    "city": "Zio",
    "city_zh": "Zio",
    "country": "Burkina Faso",
    "country_zh": "布吉納法索",
    "country_iso_code": "BF",
    "timezone": "Africa/Ouagadougou",
    "latitude": 11.91667,
    "longitude": -1.7
  },
  {
    "city": "Zinyé",
    "city_zh": "Zinyé",
    "country": "Burkina Faso",
    "country_zh": "布吉納法索",
    "country_iso_code": "BF",
    "timezone": "Africa/Ouagadougou",
    "latitude": 12.25,
    "longitude": -0.6
  },
  {
    "city": "Zintio",
    "city_zh": "Zintio",
    "country": "Burkina Faso",
    "country_zh": "布吉納法索",
    "country_iso_code": "BF",
    "timezone": "Africa/Ouagadougou",
    "latitude": 11.31667,
    "longitude": -3.2
  },
  {
    "city": "Zintenga",
    "city_zh": "Zintenga",
    "country": "Burkina Faso",
    "country_zh": "布吉納法索",
    "country_iso_code": "BF",
    "timezone": "Africa/Ouagadougou",
    "latitude": 11.83333,
    "longitude": -0.76667
  },
  {
    "city": "Zinou",
    "city_zh": "Zinou",
    "country": "Burkina Faso",
    "country_zh": "布吉納法索",
    "country_iso_code": "BF",
    "timezone": "Africa/Ouagadougou",
    "latitude": 11.86667,
    "longitude": -2.28333
  },
  {
    "city": "Zinkui",
    "city_zh": "Zinkui",
    "country": "Burkina Faso",
    "country_zh": "布吉納法索",
    "country_iso_code": "BF",
    "timezone": "Africa/Ouagadougou",
    "latitude": 11.98333,
    "longitude": -3.21667
  },
  {
    "city": "Zinka Folapouo",
    "city_zh": "Zinka Folapouo",
    "country": "Burkina Faso",
    "country_zh": "布吉納法索",
    "country_iso_code": "BF",
    "timezone": "Africa/Ouagadougou",
    "latitude": 10.13333,
    "longitude": -2.91667
  },
  {
    "city": "Zinka",
    "city_zh": "Zinka",
    "country": "Burkina Faso",
    "country_zh": "布吉納法索",
    "country_iso_code": "BF",
    "timezone": "Africa/Ouagadougou",
    "latitude": 10.13333,
    "longitude": -2.91667
  },
  {
    "city": "Ziniguisé",
    "city_zh": "Ziniguisé",
    "country": "Burkina Faso",
    "country_zh": "布吉納法索",
    "country_iso_code": "BF",
    "timezone": "Africa/Ouagadougou",
    "latitude": 12.11667,
    "longitude": -2.11667
  },
  {
    "city": "Zinigma",
    "city_zh": "Zinigma",
    "country": "Burkina Faso",
    "country_zh": "布吉納法索",
    "country_iso_code": "BF",
    "timezone": "Africa/Ouagadougou",
    "latitude": 13.40905,
    "longitude": -1.71803
  },
  {
    "city": "Zinigen",
    "city_zh": "Zinigen",
    "country": "Burkina Faso",
    "country_zh": "布吉納法索",
    "country_iso_code": "BF",
    "timezone": "Africa/Ouagadougou",
    "latitude": 13.0,
    "longitude": -2.28333
  },
  {
    "city": "Zinibéogo",
    "city_zh": "Zinibéogo",
    "country": "Burkina Faso",
    "country_zh": "布吉納法索",
    "country_iso_code": "BF",
    "timezone": "Africa/Ouagadougou",
    "latitude": 13.86623,
    "longitude": -0.73761
  },
  {
    "city": "Ziniaré",
    "city_zh": "Ziniaré",
    "country": "Burkina Faso",
    "country_zh": "布吉納法索",
    "country_iso_code": "BF",
    "timezone": "Africa/Ouagadougou",
    "latitude": 12.58186,
    "longitude": -1.2971
  },
  {
    "city": "Zinguina",
    "city_zh": "Zinguina",
    "country": "Burkina Faso",
    "country_zh": "布吉納法索",
    "country_iso_code": "BF",
    "timezone": "Africa/Ouagadougou",
    "latitude": 11.90347,
    "longitude": -4.96788
  },
  {
    "city": "Zingédagen",
    "city_zh": "Zingédagen",
    "country": "Burkina Faso",
    "country_zh": "布吉納法索",
    "country_iso_code": "BF",
    "timezone": "Africa/Ouagadougou",
    "latitude": 12.18333,
    "longitude": -2.1
  },
  {
    "city": "Zinékwé",
    "city_zh": "Zinékwé",
    "country": "Burkina Faso",
    "country_zh": "布吉納法索",
    "country_iso_code": "BF",
    "timezone": "Africa/Ouagadougou",
    "latitude": 11.91667,
    "longitude": -1.31667
  },
  {
    "city": "Zinedi",
    "city_zh": "Zinedi",
    "country": "Burkina Faso",
    "country_zh": "布吉納法索",
    "country_iso_code": "BF",
    "timezone": "Africa/Ouagadougou",
    "latitude": 9.96667,
    "longitude": -2.8
  },
  {
    "city": "Zindiguessé",
    "city_zh": "Zindiguessé",
    "country": "Burkina Faso",
    "country_zh": "布吉納法索",
    "country_iso_code": "BF",
    "timezone": "Africa/Ouagadougou",
    "latitude": 13.28604,
    "longitude": -2.37295
  },
  {
    "city": "Zinaziélla",
    "city_zh": "Zinaziélla",
    "country": "Burkina Faso",
    "country_zh": "布吉納法索",
    "country_iso_code": "BF",
    "timezone": "Africa/Ouagadougou",
    "latitude": 11.23333,
    "longitude": -0.65
  },
  {
    "city": "Zinado",
    "city_zh": "Zinado",
    "country": "Burkina Faso",
    "country_zh": "布吉納法索",
    "country_iso_code": "BF",
    "timezone": "Africa/Ouagadougou",
    "latitude": 12.18333,
    "longitude": -0.66667
  },
  {
    "city": "Zinab",
    "city_zh": "Zinab",
    "country": "Burkina Faso",
    "country_zh": "布吉納法索",
    "country_iso_code": "BF",
    "timezone": "Africa/Ouagadougou",
    "latitude": 12.78333,
    "longitude": -0.98333
  },
  {
    "city": "Zina",
    "city_zh": "Zina",
    "country": "Burkina Faso",
    "country_zh": "布吉納法索",
    "country_iso_code": "BF",
    "timezone": "Africa/Ouagadougou",
    "latitude": 12.01667,
    "longitude": -3.4
  },
  {
    "city": "Saben",
    "city_zh": "Saben",
    "country": "Burkina Faso",
    "country_zh": "布吉納法索",
    "country_iso_code": "BF",
    "timezone": "Africa/Ouagadougou",
    "latitude": 12.85233,
    "longitude": -1.79751
  },
  {
    "city": "Sabsin",
    "city_zh": "Sabsin",
    "country": "Burkina Faso",
    "country_zh": "布吉納法索",
    "country_iso_code": "BF",
    "timezone": "Africa/Ouagadougou",
    "latitude": 12.10507,
    "longitude": -1.55127
  },
  {
    "city": "Zimsa",
    "city_zh": "Zimsa",
    "country": "Burkina Faso",
    "country_zh": "布吉納法索",
    "country_iso_code": "BF",
    "timezone": "Africa/Ouagadougou",
    "latitude": 13.31084,
    "longitude": -1.09723
  },
  {
    "city": "Zimou",
    "city_zh": "Zimou",
    "country": "Burkina Faso",
    "country_zh": "布吉納法索",
    "country_iso_code": "BF",
    "timezone": "Africa/Ouagadougou",
    "latitude": 13.08537,
    "longitude": -2.9114
  },
  {
    "city": "Zimba",
    "city_zh": "Zimba",
    "country": "Burkina Faso",
    "country_zh": "布吉納法索",
    "country_iso_code": "BF",
    "timezone": "Africa/Ouagadougou",
    "latitude": 13.5048,
    "longitude": -2.43669
  },
  {
    "city": "Zimkouri",
    "city_zh": "Zimkouri",
    "country": "Burkina Faso",
    "country_zh": "布吉納法索",
    "country_iso_code": "BF",
    "timezone": "Africa/Ouagadougou",
    "latitude": 12.85,
    "longitude": -0.51667
  },
  {
    "city": "Zimkorom",
    "city_zh": "Zimkorom",
    "country": "Burkina Faso",
    "country_zh": "布吉納法索",
    "country_iso_code": "BF",
    "timezone": "Africa/Ouagadougou",
    "latitude": 12.4,
    "longitude": -0.16667
  },
  {
    "city": "Zimiouzou",
    "city_zh": "Zimiouzou",
    "country": "Burkina Faso",
    "country_zh": "布吉納法索",
    "country_iso_code": "BF",
    "timezone": "Africa/Ouagadougou",
    "latitude": 12.71667,
    "longitude": -2.2
  },
  {
    "city": "Zimidou",
    "city_zh": "Zimidou",
    "country": "Burkina Faso",
    "country_zh": "布吉納法索",
    "country_iso_code": "BF",
    "timezone": "Africa/Ouagadougou",
    "latitude": 13.18678,
    "longitude": -1.2623
  },
  {
    "city": "Zimidi",
    "city_zh": "Zimidi",
    "country": "Burkina Faso",
    "country_zh": "布吉納法索",
    "country_iso_code": "BF",
    "timezone": "Africa/Ouagadougou",
    "latitude": 12.8,
    "longitude": -2.7
  },
  {
    "city": "Zimidem",
    "city_zh": "Zimidem",
    "country": "Burkina Faso",
    "country_zh": "布吉納法索",
    "country_iso_code": "BF",
    "timezone": "Africa/Ouagadougou",
    "latitude": 12.61667,
    "longitude": -2.16667
  },
  {
    "city": "Zimasso",
    "city_zh": "Zimasso",
    "country": "Burkina Faso",
    "country_zh": "布吉納法索",
    "country_iso_code": "BF",
    "timezone": "Africa/Ouagadougou",
    "latitude": 12.66667,
    "longitude": -3.61667
  },
  {
    "city": "Zilatéoun",
    "city_zh": "Zilatéoun",
    "country": "Burkina Faso",
    "country_zh": "布吉納法索",
    "country_iso_code": "BF",
    "timezone": "Africa/Ouagadougou",
    "latitude": 9.95,
    "longitude": -2.85
  },
  {
    "city": "Zilaoro",
    "city_zh": "Zilaoro",
    "country": "Burkina Faso",
    "country_zh": "布吉納法索",
    "country_iso_code": "BF",
    "timezone": "Africa/Ouagadougou",
    "latitude": 13.03309,
    "longitude": -1.88629
  },
  {
    "city": "Zikomtenga",
    "city_zh": "Zikomtenga",
    "country": "Burkina Faso",
    "country_zh": "布吉納法索",
    "country_iso_code": "BF",
    "timezone": "Africa/Ouagadougou",
    "latitude": 12.2394,
    "longitude": -1.4552
  },
  {
    "city": "Zikiémé",
    "city_zh": "Zikiémé",
    "country": "Burkina Faso",
    "country_zh": "布吉納法索",
    "country_iso_code": "BF",
    "timezone": "Africa/Ouagadougou",
    "latitude": 12.93333,
    "longitude": -0.98333
  },
  {
    "city": "Ziguénoguen",
    "city_zh": "Ziguénoguen",
    "country": "Burkina Faso",
    "country_zh": "布吉納法索",
    "country_iso_code": "BF",
    "timezone": "Africa/Ouagadougou",
    "latitude": 12.33333,
    "longitude": -0.71667
  },
  {
    "city": "Zigo",
    "city_zh": "Zigo",
    "country": "Burkina Faso",
    "country_zh": "布吉納法索",
    "country_iso_code": "BF",
    "timezone": "Africa/Ouagadougou",
    "latitude": 12.39247,
    "longitude": -1.78693
  },
  {
    "city": "Zigla Polosé",
    "city_zh": "Zigla Polosé",
    "country": "Burkina Faso",
    "country_zh": "布吉納法索",
    "country_iso_code": "BF",
    "timezone": "Africa/Ouagadougou",
    "latitude": 11.7,
    "longitude": -0.63333
  },
  {
    "city": "Zigla Pakala",
    "city_zh": "Zigla Pakala",
    "country": "Burkina Faso",
    "country_zh": "布吉納法索",
    "country_iso_code": "BF",
    "timezone": "Africa/Ouagadougou",
    "latitude": 11.75,
    "longitude": -0.58333
  },
  {
    "city": "Zigla Koulpélé",
    "city_zh": "Zigla Koulpélé",
    "country": "Burkina Faso",
    "country_zh": "布吉納法索",
    "country_iso_code": "BF",
    "timezone": "Africa/Ouagadougou",
    "latitude": 11.71667,
    "longitude": -0.63333
  },
  {
    "city": "Zigla",
    "city_zh": "Zigla",
    "country": "Burkina Faso",
    "country_zh": "布吉納法索",
    "country_iso_code": "BF",
    "timezone": "Africa/Ouagadougou",
    "latitude": 11.65,
    "longitude": -1.01667
  },
  {
    "city": "Ziga",
    "city_zh": "Ziga",
    "country": "Burkina Faso",
    "country_zh": "布吉納法索",
    "country_iso_code": "BF",
    "timezone": "Africa/Ouagadougou",
    "latitude": 13.41604,
    "longitude": -2.31252
  },
  {
    "city": "Ziga",
    "city_zh": "Ziga",
    "country": "Burkina Faso",
    "country_zh": "布吉納法索",
    "country_iso_code": "BF",
    "timezone": "Africa/Ouagadougou",
    "latitude": 12.61075,
    "longitude": -0.83311
  },
  {
    "city": "Ziga",
    "city_zh": "Ziga",
    "country": "Burkina Faso",
    "country_zh": "布吉納法索",
    "country_iso_code": "BF",
    "timezone": "Africa/Ouagadougou",
    "latitude": 12.56475,
    "longitude": -1.11204
  },
  {
    "city": "Ziga",
    "city_zh": "Ziga",
    "country": "Burkina Faso",
    "country_zh": "布吉納法索",
    "country_iso_code": "BF",
    "timezone": "Africa/Ouagadougou",
    "latitude": 12.36667,
    "longitude": -3.8
  },
  {
    "city": "Ziédougou",
    "city_zh": "Ziédougou",
    "country": "Burkina Faso",
    "country_zh": "布吉納法索",
    "country_iso_code": "BF",
    "timezone": "Africa/Ouagadougou",
    "latitude": 10.41667,
    "longitude": -5.05
  },
  {
    "city": "Zibtenga",
    "city_zh": "Zibtenga",
    "country": "Burkina Faso",
    "country_zh": "布吉納法索",
    "country_iso_code": "BF",
    "timezone": "Africa/Ouagadougou",
    "latitude": 12.88333,
    "longitude": -0.9
  },
  {
    "city": "Zibri",
    "city_zh": "Zibri",
    "country": "Burkina Faso",
    "country_zh": "布吉納法索",
    "country_iso_code": "BF",
    "timezone": "Africa/Ouagadougou",
    "latitude": 12.62495,
    "longitude": -1.00823
  },
  {
    "city": "Zibako",
    "city_zh": "Zibako",
    "country": "Burkina Faso",
    "country_zh": "布吉納法索",
    "country_iso_code": "BF",
    "timezone": "Africa/Ouagadougou",
    "latitude": 12.55132,
    "longitude": -1.64205
  },
  {
    "city": "Ziasso",
    "city_zh": "Ziasso",
    "country": "Burkina Faso",
    "country_zh": "布吉納法索",
    "country_iso_code": "BF",
    "timezone": "Africa/Ouagadougou",
    "latitude": 12.15,
    "longitude": -3.33333
  },
  {
    "city": "Zambélé",
    "city_zh": "Zambélé",
    "country": "Burkina Faso",
    "country_zh": "布吉納法索",
    "country_iso_code": "BF",
    "timezone": "Africa/Ouagadougou",
    "latitude": 13.01424,
    "longitude": -2.21426
  },
  {
    "city": "Zétonasso",
    "city_zh": "Zétonasso",
    "country": "Burkina Faso",
    "country_zh": "布吉納法索",
    "country_iso_code": "BF",
    "timezone": "Africa/Ouagadougou",
    "latitude": 11.27755,
    "longitude": -5.22688
  },
  {
    "city": "Zétgomdé",
    "city_zh": "Zétgomdé",
    "country": "Burkina Faso",
    "country_zh": "布吉納法索",
    "country_iso_code": "BF",
    "timezone": "Africa/Ouagadougou",
    "latitude": 12.5,
    "longitude": -0.71667
  },
  {
    "city": "Gounghin",
    "city_zh": "Gounghin",
    "country": "Burkina Faso",
    "country_zh": "布吉納法索",
    "country_iso_code": "BF",
    "timezone": "Africa/Ouagadougou",
    "latitude": 12.06677,
    "longitude": -1.42134
  },
  {
    "city": "Zèsa",
    "city_zh": "Zèsa",
    "country": "Burkina Faso",
    "country_zh": "布吉納法索",
    "country_iso_code": "BF",
    "timezone": "Africa/Ouagadougou",
    "latitude": 12.71667,
    "longitude": -2.45
  },
  {
    "city": "Zérounda",
    "city_zh": "Zérounda",
    "country": "Burkina Faso",
    "country_zh": "布吉納法索",
    "country_iso_code": "BF",
    "timezone": "Africa/Ouagadougou",
    "latitude": 12.86985,
    "longitude": -1.93915
  },
  {
    "city": "Zerkoum",
    "city_zh": "Zerkoum",
    "country": "Burkina Faso",
    "country_zh": "布吉納法索",
    "country_iso_code": "BF",
    "timezone": "Africa/Ouagadougou",
    "latitude": 12.38333,
    "longitude": -2.06667
  },
  {
    "city": "Zerkom",
    "city_zh": "Zerkom",
    "country": "Burkina Faso",
    "country_zh": "布吉納法索",
    "country_iso_code": "BF",
    "timezone": "Africa/Ouagadougou",
    "latitude": 12.23616,
    "longitude": -1.95317
  },
  {
    "city": "Zérédéguen",
    "city_zh": "Zérédéguen",
    "country": "Burkina Faso",
    "country_zh": "布吉納法索",
    "country_iso_code": "BF",
    "timezone": "Africa/Ouagadougou",
    "latitude": 13.07382,
    "longitude": -1.14553
  },
  {
    "city": "Zérébougou",
    "city_zh": "Zérébougou",
    "country": "Burkina Faso",
    "country_zh": "布吉納法索",
    "country_iso_code": "BF",
    "timezone": "Africa/Ouagadougou",
    "latitude": 11.0,
    "longitude": -0.58333
  },
  {
    "city": "Zéoulé",
    "city_zh": "Zéoulé",
    "country": "Burkina Faso",
    "country_zh": "布吉納法索",
    "country_iso_code": "BF",
    "timezone": "Africa/Ouagadougou",
    "latitude": 12.26667,
    "longitude": -3.53333
  },
  {
    "city": "Zéoula",
    "city_zh": "Zéoula",
    "country": "Burkina Faso",
    "country_zh": "布吉納法索",
    "country_iso_code": "BF",
    "timezone": "Africa/Ouagadougou",
    "latitude": 12.26667,
    "longitude": -3.48333
  },
  {
    "city": "Zennloua",
    "city_zh": "Zennloua",
    "country": "Burkina Faso",
    "country_zh": "布吉納法索",
    "country_iso_code": "BF",
    "timezone": "Africa/Ouagadougou",
    "latitude": 11.88333,
    "longitude": -1.96667
  },
  {
    "city": "Zénin",
    "city_zh": "Zénin",
    "country": "Burkina Faso",
    "country_zh": "布吉納法索",
    "country_iso_code": "BF",
    "timezone": "Africa/Ouagadougou",
    "latitude": 11.86667,
    "longitude": -2.48333
  },
  {
    "city": "Zénédéré",
    "city_zh": "Zénédéré",
    "country": "Burkina Faso",
    "country_zh": "布吉納法索",
    "country_iso_code": "BF",
    "timezone": "Africa/Ouagadougou",
    "latitude": 12.76667,
    "longitude": -2.2
  },
  {
    "city": "Zemtoéga",
    "city_zh": "Zemtoéga",
    "country": "Burkina Faso",
    "country_zh": "布吉納法索",
    "country_iso_code": "BF",
    "timezone": "Africa/Ouagadougou",
    "latitude": 11.76667,
    "longitude": -1.28333
  },
  {
    "city": "Zèmpasgo",
    "city_zh": "Zèmpasgo",
    "country": "Burkina Faso",
    "country_zh": "布吉納法索",
    "country_iso_code": "BF",
    "timezone": "Africa/Ouagadougou",
    "latitude": 12.25,
    "longitude": -0.73333
  },
  {
    "city": "Zémpana",
    "city_zh": "Zémpana",
    "country": "Burkina Faso",
    "country_zh": "布吉納法索",
    "country_iso_code": "BF",
    "timezone": "Africa/Ouagadougou",
    "latitude": 12.8,
    "longitude": -3.5
  },
  {
    "city": "Zémouapare",
    "city_zh": "Zémouapare",
    "country": "Burkina Faso",
    "country_zh": "布吉納法索",
    "country_iso_code": "BF",
    "timezone": "Africa/Ouagadougou",
    "latitude": 10.21667,
    "longitude": -2.83333
  },
  {
    "city": "Zélougou",
    "city_zh": "Zélougou",
    "country": "Burkina Faso",
    "country_zh": "布吉納法索",
    "country_iso_code": "BF",
    "timezone": "Africa/Ouagadougou",
    "latitude": 11.13333,
    "longitude": -0.63333
  },
  {
    "city": "Zélogo",
    "city_zh": "Zélogo",
    "country": "Burkina Faso",
    "country_zh": "布吉納法索",
    "country_iso_code": "BF",
    "timezone": "Africa/Ouagadougou",
    "latitude": 10.96667,
    "longitude": -0.88333
  },
  {
    "city": "Zélemsondé",
    "city_zh": "Zélemsondé",
    "country": "Burkina Faso",
    "country_zh": "布吉納法索",
    "country_iso_code": "BF",
    "timezone": "Africa/Ouagadougou",
    "latitude": 13.56317,
    "longitude": -0.47425
  },
  {
    "city": "Zélasié",
    "city_zh": "Zélasié",
    "country": "Burkina Faso",
    "country_zh": "布吉納法索",
    "country_iso_code": "BF",
    "timezone": "Africa/Ouagadougou",
    "latitude": 12.45,
    "longitude": -2.8
  },
  {
    "city": "Zila",
    "city_zh": "Zila",
    "country": "Burkina Faso",
    "country_zh": "布吉納法索",
    "country_iso_code": "BF",
    "timezone": "Africa/Ouagadougou",
    "latitude": 12.45774,
    "longitude": -1.79665
  },
  {
    "city": "Zékounga",
    "city_zh": "Zékounga",
    "country": "Burkina Faso",
    "country_zh": "布吉納法索",
    "country_iso_code": "BF",
    "timezone": "Africa/Ouagadougou",
    "latitude": 12.38967,
    "longitude": -1.67532
  },
  {
    "city": "Zéko",
    "city_zh": "Zéko",
    "country": "Burkina Faso",
    "country_zh": "布吉納法索",
    "country_iso_code": "BF",
    "timezone": "Africa/Ouagadougou",
    "latitude": 12.25,
    "longitude": -0.58333
  },
  {
    "city": "Zinkemzougou",
    "city_zh": "Zinkemzougou",
    "country": "Burkina Faso",
    "country_zh": "布吉納法索",
    "country_iso_code": "BF",
    "timezone": "Africa/Ouagadougou",
    "latitude": 12.31501,
    "longitude": -1.91917
  },
  {
    "city": "Zéka",
    "city_zh": "Zéka",
    "country": "Burkina Faso",
    "country_zh": "布吉納法索",
    "country_iso_code": "BF",
    "timezone": "Africa/Ouagadougou",
    "latitude": 13.08212,
    "longitude": -1.305
  },
  {
    "city": "Zéhui",
    "city_zh": "Zéhui",
    "country": "Burkina Faso",
    "country_zh": "布吉納法索",
    "country_iso_code": "BF",
    "timezone": "Africa/Ouagadougou",
    "latitude": 12.9067,
    "longitude": -4.159
  },
  {
    "city": "Zinguédéssé",
    "city_zh": "Zinguédéssé",
    "country": "Burkina Faso",
    "country_zh": "布吉納法索",
    "country_iso_code": "BF",
    "timezone": "Africa/Ouagadougou",
    "latitude": 12.24661,
    "longitude": -1.58402
  },
  {
    "city": "Zengressé",
    "city_zh": "Zengressé",
    "country": "Burkina Faso",
    "country_zh": "布吉納法索",
    "country_iso_code": "BF",
    "timezone": "Africa/Ouagadougou",
    "latitude": 12.2092,
    "longitude": -1.3813
  },
  {
    "city": "Zéguédessé",
    "city_zh": "Zéguédessé",
    "country": "Burkina Faso",
    "country_zh": "布吉納法索",
    "country_iso_code": "BF",
    "timezone": "Africa/Ouagadougou",
    "latitude": 12.00135,
    "longitude": -1.24194
  },
  {
    "city": "Zéguédéguen",
    "city_zh": "Zéguédéguen",
    "country": "Burkina Faso",
    "country_zh": "布吉納法索",
    "country_iso_code": "BF",
    "timezone": "Africa/Ouagadougou",
    "latitude": 12.95735,
    "longitude": -0.45499
  },
  {
    "city": "Zéguédéguin",
    "city_zh": "Zéguédéguin",
    "country": "Burkina Faso",
    "country_zh": "布吉納法索",
    "country_iso_code": "BF",
    "timezone": "Africa/Ouagadougou",
    "latitude": 11.9,
    "longitude": -1.45
  },
  {
    "city": "Zéguédéguen",
    "city_zh": "Zéguédéguen",
    "country": "Burkina Faso",
    "country_zh": "布吉納法索",
    "country_iso_code": "BF",
    "timezone": "Africa/Ouagadougou",
    "latitude": 12.093,
    "longitude": -1.97562
  },
  {
    "city": "Zéguédéga",
    "city_zh": "Zéguédéga",
    "country": "Burkina Faso",
    "country_zh": "布吉納法索",
    "country_iso_code": "BF",
    "timezone": "Africa/Ouagadougou",
    "latitude": 12.3,
    "longitude": -0.53333
  },
  {
    "city": "Zéguédéga",
    "city_zh": "Zéguédéga",
    "country": "Burkina Faso",
    "country_zh": "布吉納法索",
    "country_iso_code": "BF",
    "timezone": "Africa/Ouagadougou",
    "latitude": 11.91667,
    "longitude": -0.38333
  },
  {
    "city": "Zégèdnogo",
    "city_zh": "Zégèdnogo",
    "country": "Burkina Faso",
    "country_zh": "布吉納法索",
    "country_iso_code": "BF",
    "timezone": "Africa/Ouagadougou",
    "latitude": 13.22338,
    "longitude": -1.31584
  },
  {
    "city": "Zéguédéguen",
    "city_zh": "Zéguédéguen",
    "country": "Burkina Faso",
    "country_zh": "布吉納法索",
    "country_iso_code": "BF",
    "timezone": "Africa/Ouagadougou",
    "latitude": 12.97368,
    "longitude": -1.40604
  },
  {
    "city": "Zéguédéguen I",
    "city_zh": "Zéguédéguen I",
    "country": "Burkina Faso",
    "country_zh": "布吉納法索",
    "country_iso_code": "BF",
    "timezone": "Africa/Ouagadougou",
    "latitude": 12.78853,
    "longitude": -1.89159
  },
  {
    "city": "Zéguédéguen II",
    "city_zh": "Zéguédéguen II",
    "country": "Burkina Faso",
    "country_zh": "布吉納法索",
    "country_iso_code": "BF",
    "timezone": "Africa/Ouagadougou",
    "latitude": 12.79176,
    "longitude": -1.73275
  },
  {
    "city": "Zécco",
    "city_zh": "Zécco",
    "country": "Burkina Faso",
    "country_zh": "布吉納法索",
    "country_iso_code": "BF",
    "timezone": "Africa/Ouagadougou",
    "latitude": 11.03333,
    "longitude": -0.85
  },
  {
    "city": "Zébékaha",
    "city_zh": "Zébékaha",
    "country": "Burkina Faso",
    "country_zh": "布吉納法索",
    "country_iso_code": "BF",
    "timezone": "Africa/Ouagadougou",
    "latitude": 10.46667,
    "longitude": -5.35
  },
  {
    "city": "Zaye",
    "city_zh": "Zaye",
    "country": "Burkina Faso",
    "country_zh": "布吉納法索",
    "country_iso_code": "BF",
    "timezone": "Africa/Ouagadougou",
    "latitude": 13.99615,
    "longitude": -2.37326
  },
  {
    "city": "Zawara",
    "city_zh": "Zawara",
    "country": "Burkina Faso",
    "country_zh": "布吉納法索",
    "country_iso_code": "BF",
    "timezone": "Africa/Ouagadougou",
    "latitude": 11.78333,
    "longitude": -2.58333
  },
  {
    "city": "Zawadoro",
    "city_zh": "Zawadoro",
    "country": "Burkina Faso",
    "country_zh": "布吉納法索",
    "country_iso_code": "BF",
    "timezone": "Africa/Ouagadougou",
    "latitude": 12.08333,
    "longitude": -0.25
  },
  {
    "city": "Zavara",
    "city_zh": "Zavara",
    "country": "Burkina Faso",
    "country_zh": "布吉納法索",
    "country_iso_code": "BF",
    "timezone": "Africa/Ouagadougou",
    "latitude": 11.5,
    "longitude": -1.88333
  },
  {
    "city": "Zarsin",
    "city_zh": "Zarsin",
    "country": "Burkina Faso",
    "country_zh": "布吉納法索",
    "country_iso_code": "BF",
    "timezone": "Africa/Ouagadougou",
    "latitude": 12.11009,
    "longitude": -1.31377
  },
  {
    "city": "Zargomé",
    "city_zh": "Zargomé",
    "country": "Burkina Faso",
    "country_zh": "布吉納法索",
    "country_iso_code": "BF",
    "timezone": "Africa/Ouagadougou",
    "latitude": 11.63333,
    "longitude": -0.01667
  },
  {
    "city": "Zargo",
    "city_zh": "Zargo",
    "country": "Burkina Faso",
    "country_zh": "布吉納法索",
    "country_iso_code": "BF",
    "timezone": "Africa/Ouagadougou",
    "latitude": 11.68333,
    "longitude": -0.61667
  },
  {
    "city": "Zarfi",
    "city_zh": "Zarfi",
    "country": "Burkina Faso",
    "country_zh": "布吉納法索",
    "country_iso_code": "BF",
    "timezone": "Africa/Ouagadougou",
    "latitude": 11.16667,
    "longitude": -0.01667
  },
  {
    "city": "Zaren",
    "city_zh": "Zaren",
    "country": "Burkina Faso",
    "country_zh": "布吉納法索",
    "country_iso_code": "BF",
    "timezone": "Africa/Ouagadougou",
    "latitude": 13.19412,
    "longitude": -0.91671
  },
  {
    "city": "Zarayn",
    "city_zh": "Zarayn",
    "country": "Burkina Faso",
    "country_zh": "布吉納法索",
    "country_iso_code": "BF",
    "timezone": "Africa/Ouagadougou",
    "latitude": 12.53333,
    "longitude": -2.11667
  },
  {
    "city": "Zarahougo",
    "city_zh": "Zarahougo",
    "country": "Burkina Faso",
    "country_zh": "布吉納法索",
    "country_iso_code": "BF",
    "timezone": "Africa/Ouagadougou",
    "latitude": 11.88333,
    "longitude": -1.28333
  },
  {
    "city": "Zarabili",
    "city_zh": "Zarabili",
    "country": "Burkina Faso",
    "country_zh": "布吉納法索",
    "country_iso_code": "BF",
    "timezone": "Africa/Ouagadougou",
    "latitude": 11.78333,
    "longitude": -1.21667
  },
  {
    "city": "Zara",
    "city_zh": "Zara",
    "country": "Burkina Faso",
    "country_zh": "布吉納法索",
    "country_iso_code": "BF",
    "timezone": "Africa/Ouagadougou",
    "latitude": 12.73333,
    "longitude": -2.75
  },
  {
    "city": "Zaptinga",
    "city_zh": "Zaptinga",
    "country": "Burkina Faso",
    "country_zh": "布吉納法索",
    "country_iso_code": "BF",
    "timezone": "Africa/Ouagadougou",
    "latitude": 11.71667,
    "longitude": -1.1
  },
  {
    "city": "Zaouna",
    "city_zh": "Zaouna",
    "country": "Burkina Faso",
    "country_zh": "布吉納法索",
    "country_iso_code": "BF",
    "timezone": "Africa/Ouagadougou",
    "latitude": 13.06662,
    "longitude": -1.53887
  },
  {
    "city": "Zaoro",
    "city_zh": "Zaoro",
    "country": "Burkina Faso",
    "country_zh": "布吉納法索",
    "country_iso_code": "BF",
    "timezone": "Africa/Ouagadougou",
    "latitude": 12.15,
    "longitude": -0.28333
  },
  {
    "city": "Zaongo",
    "city_zh": "Zaongo",
    "country": "Burkina Faso",
    "country_zh": "布吉納法索",
    "country_iso_code": "BF",
    "timezone": "Africa/Ouagadougou",
    "latitude": 12.91667,
    "longitude": -0.58333
  },
  {
    "city": "Zaongo",
    "city_zh": "Zaongo",
    "country": "Burkina Faso",
    "country_zh": "布吉納法索",
    "country_iso_code": "BF",
    "timezone": "Africa/Ouagadougou",
    "latitude": 12.21667,
    "longitude": -0.38333
  },
  {
    "city": "Zao",
    "city_zh": "Zao",
    "country": "Burkina Faso",
    "country_zh": "布吉納法索",
    "country_iso_code": "BF",
    "timezone": "Africa/Ouagadougou",
    "latitude": 11.85,
    "longitude": -2.11667
  },
  {
    "city": "Zanzi",
    "city_zh": "Zanzi",
    "country": "Burkina Faso",
    "country_zh": "布吉納法索",
    "country_iso_code": "BF",
    "timezone": "Africa/Ouagadougou",
    "latitude": 13.01473,
    "longitude": -1.20985
  },
  {
    "city": "Zanvi",
    "city_zh": "Zanvi",
    "country": "Burkina Faso",
    "country_zh": "布吉納法索",
    "country_iso_code": "BF",
    "timezone": "Africa/Ouagadougou",
    "latitude": 12.95963,
    "longitude": -1.14586
  },
  {
    "city": "Zanren",
    "city_zh": "Zanren",
    "country": "Burkina Faso",
    "country_zh": "布吉納法索",
    "country_iso_code": "BF",
    "timezone": "Africa/Ouagadougou",
    "latitude": 12.05,
    "longitude": -0.28333
  },
  {
    "city": "Zanré",
    "city_zh": "Zanré",
    "country": "Burkina Faso",
    "country_zh": "布吉納法索",
    "country_iso_code": "BF",
    "timezone": "Africa/Ouagadougou",
    "latitude": 12.06667,
    "longitude": -0.05
  },
  {
    "city": "Zano",
    "city_zh": "Zano",
    "country": "Burkina Faso",
    "country_zh": "布吉納法索",
    "country_iso_code": "BF",
    "timezone": "Africa/Ouagadougou",
    "latitude": 13.67062,
    "longitude": -2.31358
  },
  {
    "city": "Zano",
    "city_zh": "Zano",
    "country": "Burkina Faso",
    "country_zh": "布吉納法索",
    "country_iso_code": "BF",
    "timezone": "Africa/Ouagadougou",
    "latitude": 13.34354,
    "longitude": -1.6983
  },
  {
    "city": "Zanna",
    "city_zh": "Zanna",
    "country": "Burkina Faso",
    "country_zh": "布吉納法索",
    "country_iso_code": "BF",
    "timezone": "Africa/Ouagadougou",
    "latitude": 13.48858,
    "longitude": -2.17542
  },
  {
    "city": "Zankolaga",
    "city_zh": "Zankolaga",
    "country": "Burkina Faso",
    "country_zh": "布吉納法索",
    "country_iso_code": "BF",
    "timezone": "Africa/Ouagadougou",
    "latitude": 13.38232,
    "longitude": -2.41761
  },
  {
    "city": "Zangwi",
    "city_zh": "Zangwi",
    "country": "Burkina Faso",
    "country_zh": "布吉納法索",
    "country_iso_code": "BF",
    "timezone": "Africa/Ouagadougou",
    "latitude": 13.03406,
    "longitude": -1.31351
  },
  {
    "city": "Zangokala",
    "city_zh": "Zangokala",
    "country": "Burkina Faso",
    "country_zh": "布吉納法索",
    "country_iso_code": "BF",
    "timezone": "Africa/Ouagadougou",
    "latitude": 10.85,
    "longitude": -5.28333
  },
  {
    "city": "Zangogo",
    "city_zh": "Zangogo",
    "country": "Burkina Faso",
    "country_zh": "布吉納法索",
    "country_iso_code": "BF",
    "timezone": "Africa/Ouagadougou",
    "latitude": 11.86667,
    "longitude": -1.2
  },
  {
    "city": "Zangogo",
    "city_zh": "Zangogo",
    "country": "Burkina Faso",
    "country_zh": "布吉納法索",
    "country_iso_code": "BF",
    "timezone": "Africa/Ouagadougou",
    "latitude": 11.76667,
    "longitude": -1.38333
  },
  {
    "city": "Zanghindiéssé",
    "city_zh": "Zanghindiéssé",
    "country": "Burkina Faso",
    "country_zh": "布吉納法索",
    "country_iso_code": "BF",
    "timezone": "Africa/Ouagadougou",
    "latitude": 12.36472,
    "longitude": -1.71061
  },
  {
    "city": "Zanguélila",
    "city_zh": "Zanguélila",
    "country": "Burkina Faso",
    "country_zh": "布吉納法索",
    "country_iso_code": "BF",
    "timezone": "Africa/Ouagadougou",
    "latitude": 12.94009,
    "longitude": -1.46801
  },
  {
    "city": "Zangboni",
    "city_zh": "Zangboni",
    "country": "Burkina Faso",
    "country_zh": "布吉納法索",
    "country_iso_code": "BF",
    "timezone": "Africa/Ouagadougou",
    "latitude": 11.36667,
    "longitude": -2.93333
  },
  {
    "city": "Zangbéga",
    "city_zh": "Zangbéga",
    "country": "Burkina Faso",
    "country_zh": "布吉納法索",
    "country_iso_code": "BF",
    "timezone": "Africa/Ouagadougou",
    "latitude": 12.58643,
    "longitude": -1.31636
  },
  {
    "city": "Zangazoni",
    "city_zh": "Zangazoni",
    "country": "Burkina Faso",
    "country_zh": "布吉納法索",
    "country_iso_code": "BF",
    "timezone": "Africa/Ouagadougou",
    "latitude": 11.90484,
    "longitude": -4.70916
  },
  {
    "city": "Zanganyiara",
    "city_zh": "Zanganyiara",
    "country": "Burkina Faso",
    "country_zh": "布吉納法索",
    "country_iso_code": "BF",
    "timezone": "Africa/Ouagadougou",
    "latitude": 10.51667,
    "longitude": -5.36667
  },
  {
    "city": "Zanga",
    "city_zh": "Zanga",
    "country": "Burkina Faso",
    "country_zh": "布吉納法索",
    "country_iso_code": "BF",
    "timezone": "Africa/Ouagadougou",
    "latitude": 10.4,
    "longitude": -5.41667
  },
  {
    "city": "Zanfara",
    "city_zh": "Zanfara",
    "country": "Burkina Faso",
    "country_zh": "布吉納法索",
    "country_iso_code": "BF",
    "timezone": "Africa/Ouagadougou",
    "latitude": 11.75309,
    "longitude": -5.0148
  },
  {
    "city": "Zandouré",
    "city_zh": "Zandouré",
    "country": "Burkina Faso",
    "country_zh": "布吉納法索",
    "country_iso_code": "BF",
    "timezone": "Africa/Ouagadougou",
    "latitude": 12.93333,
    "longitude": -0.53333
  },
  {
    "city": "Zandkom",
    "city_zh": "Zandkom",
    "country": "Burkina Faso",
    "country_zh": "布吉納法索",
    "country_iso_code": "BF",
    "timezone": "Africa/Ouagadougou",
    "latitude": 13.14071,
    "longitude": -1.5526
  },
  {
    "city": "Zandékaha",
    "city_zh": "Zandékaha",
    "country": "Burkina Faso",
    "country_zh": "布吉納法索",
    "country_iso_code": "BF",
    "timezone": "Africa/Ouagadougou",
    "latitude": 10.61667,
    "longitude": -5.2
  },
  {
    "city": "Zanawa",
    "city_zh": "Zanawa",
    "country": "Burkina Faso",
    "country_zh": "布吉納法索",
    "country_iso_code": "BF",
    "timezone": "Africa/Ouagadougou",
    "latitude": 10.98333,
    "longitude": -3.5
  },
  {
    "city": "Zanamogo",
    "city_zh": "Zanamogo",
    "country": "Burkina Faso",
    "country_zh": "布吉納法索",
    "country_iso_code": "BF",
    "timezone": "Africa/Ouagadougou",
    "latitude": 13.75619,
    "longitude": -1.69128
  },
  {
    "city": "Zana",
    "city_zh": "Zana",
    "country": "Burkina Faso",
    "country_zh": "布吉納法索",
    "country_iso_code": "BF",
    "timezone": "Africa/Ouagadougou",
    "latitude": 13.79024,
    "longitude": -1.70029
  },
  {
    "city": "Zan",
    "city_zh": "Zan",
    "country": "Burkina Faso",
    "country_zh": "布吉納法索",
    "country_iso_code": "BF",
    "timezone": "Africa/Ouagadougou",
    "latitude": 11.15,
    "longitude": -0.3
  },
  {
    "city": "Zamren",
    "city_zh": "Zamren",
    "country": "Burkina Faso",
    "country_zh": "布吉納法索",
    "country_iso_code": "BF",
    "timezone": "Africa/Ouagadougou",
    "latitude": 12.20932,
    "longitude": -1.94356
  },
  {
    "city": "Zamsé",
    "city_zh": "Zamsé",
    "country": "Burkina Faso",
    "country_zh": "布吉納法索",
    "country_iso_code": "BF",
    "timezone": "Africa/Ouagadougou",
    "latitude": 12.00246,
    "longitude": -1.29199
  },
  {
    "city": "Zamsé",
    "city_zh": "Zamsé",
    "country": "Burkina Faso",
    "country_zh": "布吉納法索",
    "country_iso_code": "BF",
    "timezone": "Africa/Ouagadougou",
    "latitude": 13.44859,
    "longitude": -1.79485
  },
  {
    "city": "Zamsé",
    "city_zh": "Zamsé",
    "country": "Burkina Faso",
    "country_zh": "布吉納法索",
    "country_iso_code": "BF",
    "timezone": "Africa/Ouagadougou",
    "latitude": 12.53333,
    "longitude": -0.71667
  },
  {
    "city": "Zamsé",
    "city_zh": "Zamsé",
    "country": "Burkina Faso",
    "country_zh": "布吉納法索",
    "country_iso_code": "BF",
    "timezone": "Africa/Ouagadougou",
    "latitude": 12.36667,
    "longitude": -0.36667
  },
  {
    "city": "Zamo",
    "city_zh": "Zamo",
    "country": "Burkina Faso",
    "country_zh": "布吉納法索",
    "country_iso_code": "BF",
    "timezone": "Africa/Ouagadougou",
    "latitude": 12.01667,
    "longitude": -2.71667
  },
  {
    "city": "Zamnongho",
    "city_zh": "Zamnongho",
    "country": "Burkina Faso",
    "country_zh": "布吉納法索",
    "country_iso_code": "BF",
    "timezone": "Africa/Ouagadougou",
    "latitude": 12.20995,
    "longitude": -1.55386
  },
  {
    "city": "Zamné",
    "city_zh": "Zamné",
    "country": "Burkina Faso",
    "country_zh": "布吉納法索",
    "country_iso_code": "BF",
    "timezone": "Africa/Ouagadougou",
    "latitude": 14.1572,
    "longitude": -2.21884
  },
  {
    "city": "Zammsé",
    "city_zh": "Zammsé",
    "country": "Burkina Faso",
    "country_zh": "布吉納法索",
    "country_iso_code": "BF",
    "timezone": "Africa/Ouagadougou",
    "latitude": 11.7,
    "longitude": -1.1
  },
  {
    "city": "Zammsé",
    "city_zh": "Zammsé",
    "country": "Burkina Faso",
    "country_zh": "布吉納法索",
    "country_iso_code": "BF",
    "timezone": "Africa/Ouagadougou",
    "latitude": 11.55,
    "longitude": -1.18333
  },
  {
    "city": "Zamiolo",
    "city_zh": "Zamiolo",
    "country": "Burkina Faso",
    "country_zh": "布吉納法索",
    "country_iso_code": "BF",
    "timezone": "Africa/Ouagadougou",
    "latitude": 13.66367,
    "longitude": -2.4785
  },
  {
    "city": "Zamé",
    "city_zh": "Zamé",
    "country": "Burkina Faso",
    "country_zh": "布吉納法索",
    "country_iso_code": "BF",
    "timezone": "Africa/Ouagadougou",
    "latitude": 11.08333,
    "longitude": -0.56667
  },
  {
    "city": "Zamdogo",
    "city_zh": "Zamdogo",
    "country": "Burkina Faso",
    "country_zh": "布吉納法索",
    "country_iso_code": "BF",
    "timezone": "Africa/Ouagadougou",
    "latitude": 13.0815,
    "longitude": -2.02048
  },
  {
    "city": "Zambo",
    "city_zh": "Zambo",
    "country": "Burkina Faso",
    "country_zh": "布吉納法索",
    "country_iso_code": "BF",
    "timezone": "Africa/Ouagadougou",
    "latitude": 10.81062,
    "longitude": -2.99475
  },
  {
    "city": "Zambanga",
    "city_zh": "Zambanga",
    "country": "Burkina Faso",
    "country_zh": "布吉納法索",
    "country_iso_code": "BF",
    "timezone": "Africa/Ouagadougou",
    "latitude": 12.73333,
    "longitude": -0.56667
  },
  {
    "city": "Zambanaga",
    "city_zh": "Zambanaga",
    "country": "Burkina Faso",
    "country_zh": "布吉納法索",
    "country_iso_code": "BF",
    "timezone": "Africa/Ouagadougou",
    "latitude": 12.23449,
    "longitude": -1.68208
  },
  {
    "city": "Zambalaga",
    "city_zh": "Zambalaga",
    "country": "Burkina Faso",
    "country_zh": "布吉納法索",
    "country_iso_code": "BF",
    "timezone": "Africa/Ouagadougou",
    "latitude": 11.31667,
    "longitude": -0.31667
  },
  {
    "city": "Zambala",
    "city_zh": "Zambala",
    "country": "Burkina Faso",
    "country_zh": "布吉納法索",
    "country_iso_code": "BF",
    "timezone": "Africa/Ouagadougou",
    "latitude": 12.6,
    "longitude": -2.46667
  },
  {
    "city": "Zamakologo",
    "city_zh": "Zamakologo",
    "country": "Burkina Faso",
    "country_zh": "布吉納法索",
    "country_iso_code": "BF",
    "timezone": "Africa/Ouagadougou",
    "latitude": 11.58495,
    "longitude": -4.72232
  },
  {
    "city": "Zam",
    "city_zh": "Zam",
    "country": "Burkina Faso",
    "country_zh": "布吉納法索",
    "country_iso_code": "BF",
    "timezone": "Africa/Ouagadougou",
    "latitude": 12.35,
    "longitude": -0.81667
  },
  {
    "city": "Zam",
    "city_zh": "Zam",
    "country": "Burkina Faso",
    "country_zh": "布吉納法索",
    "country_iso_code": "BF",
    "timezone": "Africa/Ouagadougou",
    "latitude": 12.33959,
    "longitude": -0.83189
  },
  {
    "city": "Zalo",
    "city_zh": "Zalo",
    "country": "Burkina Faso",
    "country_zh": "布吉納法索",
    "country_iso_code": "BF",
    "timezone": "Africa/Ouagadougou",
    "latitude": 11.96667,
    "longitude": -1.9
  },
  {
    "city": "Zalagadé",
    "city_zh": "Zalagadé",
    "country": "Burkina Faso",
    "country_zh": "布吉納法索",
    "country_iso_code": "BF",
    "timezone": "Africa/Ouagadougou",
    "latitude": 11.81667,
    "longitude": -1.2
  },
  {
    "city": "Zakuy",
    "city_zh": "Zakuy",
    "country": "Burkina Faso",
    "country_zh": "布吉納法索",
    "country_iso_code": "BF",
    "timezone": "Africa/Ouagadougou",
    "latitude": 12.53333,
    "longitude": -3.41667
  },
  {
    "city": "Zakui",
    "city_zh": "Zakui",
    "country": "Burkina Faso",
    "country_zh": "布吉納法索",
    "country_iso_code": "BF",
    "timezone": "Africa/Ouagadougou",
    "latitude": 13.0369,
    "longitude": -4.1495
  },
  {
    "city": "Zakui",
    "city_zh": "Zakui",
    "country": "Burkina Faso",
    "country_zh": "布吉納法索",
    "country_iso_code": "BF",
    "timezone": "Africa/Ouagadougou",
    "latitude": 12.28333,
    "longitude": -3.51667
  },
  {
    "city": "Zakouré",
    "city_zh": "Zakouré",
    "country": "Burkina Faso",
    "country_zh": "布吉納法索",
    "country_iso_code": "BF",
    "timezone": "Africa/Ouagadougou",
    "latitude": 12.67512,
    "longitude": -1.56179
  },
  {
    "city": "Zako",
    "city_zh": "Zako",
    "country": "Burkina Faso",
    "country_zh": "布吉納法索",
    "country_iso_code": "BF",
    "timezone": "Africa/Ouagadougou",
    "latitude": 12.03333,
    "longitude": -0.15
  },
  {
    "city": "Zakin",
    "city_zh": "Zakin",
    "country": "Burkina Faso",
    "country_zh": "布吉納法索",
    "country_iso_code": "BF",
    "timezone": "Africa/Ouagadougou",
    "latitude": 12.35793,
    "longitude": -1.3722
  },
  {
    "city": "Zaken",
    "city_zh": "Zaken",
    "country": "Burkina Faso",
    "country_zh": "布吉納法索",
    "country_iso_code": "BF",
    "timezone": "Africa/Ouagadougou",
    "latitude": 12.3,
    "longitude": -2.33333
  },
  {
    "city": "Zaké",
    "city_zh": "Zaké",
    "country": "Burkina Faso",
    "country_zh": "布吉納法索",
    "country_iso_code": "BF",
    "timezone": "Africa/Ouagadougou",
    "latitude": 12.18333,
    "longitude": -2.41667
  },
  {
    "city": "Zakarga",
    "city_zh": "Zakarga",
    "country": "Burkina Faso",
    "country_zh": "布吉納法索",
    "country_iso_code": "BF",
    "timezone": "Africa/Ouagadougou",
    "latitude": 12.31667,
    "longitude": -0.51667
  },
  {
    "city": "Zaka",
    "city_zh": "Zaka",
    "country": "Burkina Faso",
    "country_zh": "布吉納法索",
    "country_iso_code": "BF",
    "timezone": "Africa/Ouagadougou",
    "latitude": 11.96667,
    "longitude": -0.01667
  },
  {
    "city": "Zainzain",
    "city_zh": "Zainzain",
    "country": "Burkina Faso",
    "country_zh": "布吉納法索",
    "country_iso_code": "BF",
    "timezone": "Africa/Ouagadougou",
    "latitude": 11.2,
    "longitude": -0.35
  },
  {
    "city": "Zahatenga",
    "city_zh": "Zahatenga",
    "country": "Burkina Faso",
    "country_zh": "布吉納法索",
    "country_iso_code": "BF",
    "timezone": "Africa/Ouagadougou",
    "latitude": 12.86667,
    "longitude": -0.98333
  },
  {
    "city": "Zagtouli",
    "city_zh": "Zagtouli",
    "country": "Burkina Faso",
    "country_zh": "布吉納法索",
    "country_iso_code": "BF",
    "timezone": "Africa/Ouagadougou",
    "latitude": 12.32924,
    "longitude": -1.62566
  },
  {
    "city": "Zagaltenga",
    "city_zh": "Zagaltenga",
    "country": "Burkina Faso",
    "country_zh": "布吉納法索",
    "country_iso_code": "BF",
    "timezone": "Africa/Ouagadougou",
    "latitude": 12.96548,
    "longitude": -1.45688
  },
  {
    "city": "Zéguédéssen",
    "city_zh": "Zéguédéssen",
    "country": "Burkina Faso",
    "country_zh": "布吉納法索",
    "country_iso_code": "BF",
    "timezone": "Africa/Ouagadougou",
    "latitude": 12.72177,
    "longitude": -1.46086
  },
  {
    "city": "Zaèltenga",
    "city_zh": "Zaèltenga",
    "country": "Burkina Faso",
    "country_zh": "布吉納法索",
    "country_iso_code": "BF",
    "timezone": "Africa/Ouagadougou",
    "latitude": 12.9206,
    "longitude": -1.32066
  },
  {
    "city": "Zado",
    "city_zh": "Zado",
    "country": "Burkina Faso",
    "country_zh": "布吉納法索",
    "country_iso_code": "BF",
    "timezone": "Africa/Ouagadougou",
    "latitude": 12.13333,
    "longitude": -2.66667
  },
  {
    "city": "Zadierla",
    "city_zh": "Zadierla",
    "country": "Burkina Faso",
    "country_zh": "布吉納法索",
    "country_iso_code": "BF",
    "timezone": "Africa/Ouagadougou",
    "latitude": 11.84834,
    "longitude": -5.09608
  },
  {
    "city": "Zabré",
    "city_zh": "Zabré",
    "country": "Burkina Faso",
    "country_zh": "布吉納法索",
    "country_iso_code": "BF",
    "timezone": "Africa/Ouagadougou",
    "latitude": 11.1825,
    "longitude": -0.63222
  },
  {
    "city": "Zabo",
    "city_zh": "Zabo",
    "country": "Burkina Faso",
    "country_zh": "布吉納法索",
    "country_iso_code": "BF",
    "timezone": "Africa/Ouagadougou",
    "latitude": 11.36667,
    "longitude": -3.85
  },
  {
    "city": "Zablou",
    "city_zh": "Zablou",
    "country": "Burkina Faso",
    "country_zh": "布吉納法索",
    "country_iso_code": "BF",
    "timezone": "Africa/Ouagadougou",
    "latitude": 13.14078,
    "longitude": -1.12303
  },
  {
    "city": "Zabga",
    "city_zh": "Zabga",
    "country": "Burkina Faso",
    "country_zh": "布吉納法索",
    "country_iso_code": "BF",
    "timezone": "Africa/Ouagadougou",
    "latitude": 12.85,
    "longitude": -0.53333
  },
  {
    "city": "Zabéadougou",
    "city_zh": "Zabéadougou",
    "country": "Burkina Faso",
    "country_zh": "布吉納法索",
    "country_iso_code": "BF",
    "timezone": "Africa/Ouagadougou",
    "latitude": 10.56667,
    "longitude": -5.36667
  },
  {
    "city": "Zabartanga",
    "city_zh": "Zabartanga",
    "country": "Burkina Faso",
    "country_zh": "布吉納法索",
    "country_iso_code": "BF",
    "timezone": "Africa/Ouagadougou",
    "latitude": 12.8,
    "longitude": -0.93333
  },
  {
    "city": "Zaba",
    "city_zh": "Zaba",
    "country": "Burkina Faso",
    "country_zh": "布吉納法索",
    "country_iso_code": "BF",
    "timezone": "Africa/Ouagadougou",
    "latitude": 12.78333,
    "longitude": -3.2
  },
  {
    "city": "Yoyou",
    "city_zh": "Yoyou",
    "country": "Burkina Faso",
    "country_zh": "布吉納法索",
    "country_iso_code": "BF",
    "timezone": "Africa/Ouagadougou",
    "latitude": 11.73333,
    "longitude": -2.51667
  },
  {
    "city": "Yoyo",
    "city_zh": "Yoyo",
    "country": "Burkina Faso",
    "country_zh": "布吉納法索",
    "country_iso_code": "BF",
    "timezone": "Africa/Ouagadougou",
    "latitude": 11.18333,
    "longitude": -0.01667
  },
  {
    "city": "Yourouna",
    "city_zh": "Yourouna",
    "country": "Burkina Faso",
    "country_zh": "布吉納法索",
    "country_iso_code": "BF",
    "timezone": "Africa/Ouagadougou",
    "latitude": 13.1247,
    "longitude": -4.3111
  },
  {
    "city": "Youngou",
    "city_zh": "Youngou",
    "country": "Burkina Faso",
    "country_zh": "布吉納法索",
    "country_iso_code": "BF",
    "timezone": "Africa/Ouagadougou",
    "latitude": 11.11667,
    "longitude": -0.58333
  },
  {
    "city": "Youmpoura",
    "city_zh": "Youmpoura",
    "country": "Burkina Faso",
    "country_zh": "布吉納法索",
    "country_iso_code": "BF",
    "timezone": "Africa/Ouagadougou",
    "latitude": 10.51667,
    "longitude": -3.3
  },
  {
    "city": "Youmbara",
    "city_zh": "Youmbara",
    "country": "Burkina Faso",
    "country_zh": "布吉納法索",
    "country_iso_code": "BF",
    "timezone": "Africa/Ouagadougou",
    "latitude": 10.51667,
    "longitude": -3.1
  },
  {
    "city": "Youloupo",
    "city_zh": "Youloupo",
    "country": "Burkina Faso",
    "country_zh": "布吉納法索",
    "country_iso_code": "BF",
    "timezone": "Africa/Ouagadougou",
    "latitude": 12.56667,
    "longitude": -2.75
  },
  {
    "city": "Youlou",
    "city_zh": "Youlou",
    "country": "Burkina Faso",
    "country_zh": "布吉納法索",
    "country_iso_code": "BF",
    "timezone": "Africa/Ouagadougou",
    "latitude": 12.28333,
    "longitude": -2.9
  },
  {
    "city": "Youlo",
    "city_zh": "Youlo",
    "country": "Burkina Faso",
    "country_zh": "布吉納法索",
    "country_iso_code": "BF",
    "timezone": "Africa/Ouagadougou",
    "latitude": 10.58333,
    "longitude": -3.08333
  },
  {
    "city": "Youlabako",
    "city_zh": "Youlabako",
    "country": "Burkina Faso",
    "country_zh": "布吉納法索",
    "country_iso_code": "BF",
    "timezone": "Africa/Ouagadougou",
    "latitude": 10.41667,
    "longitude": -3.1
  },
  {
    "city": "Youkouka",
    "city_zh": "Youkouka",
    "country": "Burkina Faso",
    "country_zh": "布吉納法索",
    "country_iso_code": "BF",
    "timezone": "Africa/Ouagadougou",
    "latitude": 11.05,
    "longitude": -0.5
  },
  {
    "city": "Youken",
    "city_zh": "Youken",
    "country": "Burkina Faso",
    "country_zh": "布吉納法索",
    "country_iso_code": "BF",
    "timezone": "Africa/Ouagadougou",
    "latitude": 12.21667,
    "longitude": -0.05
  },
  {
    "city": "Yougui",
    "city_zh": "Yougui",
    "country": "Burkina Faso",
    "country_zh": "布吉納法索",
    "country_iso_code": "BF",
    "timezone": "Africa/Ouagadougou",
    "latitude": 12.66667,
    "longitude": -0.25
  },
  {
    "city": "Yougoupyongou",
    "city_zh": "Yougoupyongou",
    "country": "Burkina Faso",
    "country_zh": "布吉納法索",
    "country_iso_code": "BF",
    "timezone": "Africa/Ouagadougou",
    "latitude": 12.38333,
    "longitude": -0.1
  },
  {
    "city": "Yougoupélé",
    "city_zh": "Yougoupélé",
    "country": "Burkina Faso",
    "country_zh": "布吉納法索",
    "country_iso_code": "BF",
    "timezone": "Africa/Ouagadougou",
    "latitude": 12.04858,
    "longitude": -1.55864
  },
  {
    "city": "Yougounini",
    "city_zh": "Yougounini",
    "country": "Burkina Faso",
    "country_zh": "布吉納法索",
    "country_iso_code": "BF",
    "timezone": "Africa/Ouagadougou",
    "latitude": 13.27595,
    "longitude": -1.64217
  },
  {
    "city": "Yougoul Mandé",
    "city_zh": "Yougoul Mandé",
    "country": "Burkina Faso",
    "country_zh": "布吉納法索",
    "country_iso_code": "BF",
    "timezone": "Africa/Ouagadougou",
    "latitude": 12.3,
    "longitude": -0.71667
  },
  {
    "city": "Youga",
    "city_zh": "Youga",
    "country": "Burkina Faso",
    "country_zh": "布吉納法索",
    "country_iso_code": "BF",
    "timezone": "Africa/Ouagadougou",
    "latitude": 11.06537,
    "longitude": -0.45196
  },
  {
    "city": "Yougtenga",
    "city_zh": "Yougtenga",
    "country": "Burkina Faso",
    "country_zh": "布吉納法索",
    "country_iso_code": "BF",
    "timezone": "Africa/Ouagadougou",
    "latitude": 12.00289,
    "longitude": -1.4148
  },
  {
    "city": "Youbitenga",
    "city_zh": "Youbitenga",
    "country": "Burkina Faso",
    "country_zh": "布吉納法索",
    "country_iso_code": "BF",
    "timezone": "Africa/Ouagadougou",
    "latitude": 12.84423,
    "longitude": -1.45141
  },
  {
    "city": "Youba Naloto",
    "city_zh": "Youba Naloto",
    "country": "Burkina Faso",
    "country_zh": "布吉納法索",
    "country_iso_code": "BF",
    "timezone": "Africa/Ouagadougou",
    "latitude": 12.71667,
    "longitude": -0.95
  },
  {
    "city": "Youbga",
    "city_zh": "Youbga",
    "country": "Burkina Faso",
    "country_zh": "布吉納法索",
    "country_iso_code": "BF",
    "timezone": "Africa/Ouagadougou",
    "latitude": 12.77323,
    "longitude": -1.70144
  },
  {
    "city": "Youba",
    "city_zh": "Youba",
    "country": "Burkina Faso",
    "country_zh": "布吉納法索",
    "country_iso_code": "BF",
    "timezone": "Africa/Ouagadougou",
    "latitude": 13.66783,
    "longitude": -2.37536
  },
  {
    "city": "Youba",
    "city_zh": "Youba",
    "country": "Burkina Faso",
    "country_zh": "布吉納法索",
    "country_iso_code": "BF",
    "timezone": "Africa/Ouagadougou",
    "latitude": 12.73333,
    "longitude": -0.93333
  },
  {
    "city": "You",
    "city_zh": "You",
    "country": "Burkina Faso",
    "country_zh": "布吉納法索",
    "country_iso_code": "BF",
    "timezone": "Africa/Ouagadougou",
    "latitude": 13.70167,
    "longitude": -2.14101
  },
  {
    "city": "Yorogo",
    "city_zh": "Yorogo",
    "country": "Burkina Faso",
    "country_zh": "布吉納法索",
    "country_iso_code": "BF",
    "timezone": "Africa/Ouagadougou",
    "latitude": 11.95,
    "longitude": -1.31667
  },
  {
    "city": "Yoroga",
    "city_zh": "Yoroga",
    "country": "Burkina Faso",
    "country_zh": "布吉納法索",
    "country_iso_code": "BF",
    "timezone": "Africa/Ouagadougou",
    "latitude": 12.71667,
    "longitude": -2.08333
  },
  {
    "city": "Yoro",
    "city_zh": "Yoro",
    "country": "Burkina Faso",
    "country_zh": "布吉納法索",
    "country_iso_code": "BF",
    "timezone": "Africa/Ouagadougou",
    "latitude": 11.06667,
    "longitude": -2.36667
  },
  {
    "city": "Yargo",
    "city_zh": "Yargo",
    "country": "Burkina Faso",
    "country_zh": "布吉納法索",
    "country_iso_code": "BF",
    "timezone": "Africa/Ouagadougou",
    "latitude": 12.30457,
    "longitude": -1.50442
  },
  {
    "city": "Dar Salam",
    "city_zh": "Dar Salam",
    "country": "Burkina Faso",
    "country_zh": "布吉納法索",
    "country_iso_code": "BF",
    "timezone": "Africa/Ouagadougou",
    "latitude": 12.36146,
    "longitude": -1.63909
  },
  {
    "city": "Yorgo",
    "city_zh": "Yorgo",
    "country": "Burkina Faso",
    "country_zh": "布吉納法索",
    "country_iso_code": "BF",
    "timezone": "Africa/Ouagadougou",
    "latitude": 12.0015,
    "longitude": -1.35606
  },
  {
    "city": "Yoren",
    "city_zh": "Yoren",
    "country": "Burkina Faso",
    "country_zh": "布吉納法索",
    "country_iso_code": "BF",
    "timezone": "Africa/Ouagadougou",
    "latitude": 13.06695,
    "longitude": 0.1447
  },
  {
    "city": "Yoréko",
    "city_zh": "Yoréko",
    "country": "Burkina Faso",
    "country_zh": "布吉納法索",
    "country_iso_code": "BF",
    "timezone": "Africa/Ouagadougou",
    "latitude": 11.23333,
    "longitude": -0.55
  },
  {
    "city": "Yonkui",
    "city_zh": "Yonkui",
    "country": "Burkina Faso",
    "country_zh": "布吉納法索",
    "country_iso_code": "BF",
    "timezone": "Africa/Ouagadougou",
    "latitude": 12.6,
    "longitude": -3.45
  },
  {
    "city": "Yona",
    "city_zh": "Yona",
    "country": "Burkina Faso",
    "country_zh": "布吉納法索",
    "country_iso_code": "BF",
    "timezone": "Africa/Ouagadougou",
    "latitude": 12.1,
    "longitude": -3.38333
  },
  {
    "city": "Yona",
    "city_zh": "Yona",
    "country": "Burkina Faso",
    "country_zh": "布吉納法索",
    "country_iso_code": "BF",
    "timezone": "Africa/Ouagadougou",
    "latitude": 11.96667,
    "longitude": -3.38333
  },
  {
    "city": "Yoména",
    "city_zh": "Yoména",
    "country": "Burkina Faso",
    "country_zh": "布吉納法索",
    "country_iso_code": "BF",
    "timezone": "Africa/Ouagadougou",
    "latitude": 9.96667,
    "longitude": -3.15
  },
  {
    "city": "Yolontéra",
    "city_zh": "Yolontéra",
    "country": "Burkina Faso",
    "country_zh": "布吉納法索",
    "country_iso_code": "BF",
    "timezone": "Africa/Ouagadougou",
    "latitude": 10.3,
    "longitude": -2.96667
  },
  {
    "city": "Yolonioro",
    "city_zh": "Yolonioro",
    "country": "Burkina Faso",
    "country_zh": "布吉納法索",
    "country_iso_code": "BF",
    "timezone": "Africa/Ouagadougou",
    "latitude": 10.73333,
    "longitude": -3.4
  },
  {
    "city": "Yolonguira",
    "city_zh": "Yolonguira",
    "country": "Burkina Faso",
    "country_zh": "布吉納法索",
    "country_iso_code": "BF",
    "timezone": "Africa/Ouagadougou",
    "latitude": 10.1,
    "longitude": -3.45
  },
  {
    "city": "Yolga",
    "city_zh": "Yolga",
    "country": "Burkina Faso",
    "country_zh": "布吉納法索",
    "country_iso_code": "BF",
    "timezone": "Africa/Ouagadougou",
    "latitude": 11.51667,
    "longitude": -0.06667
  },
  {
    "city": "Yoldétéoun",
    "city_zh": "Yoldétéoun",
    "country": "Burkina Faso",
    "country_zh": "布吉納法索",
    "country_iso_code": "BF",
    "timezone": "Africa/Ouagadougou",
    "latitude": 9.85,
    "longitude": -2.93333
  },
  {
    "city": "Yokiaré",
    "city_zh": "Yokiaré",
    "country": "Burkina Faso",
    "country_zh": "布吉納法索",
    "country_iso_code": "BF",
    "timezone": "Africa/Ouagadougou",
    "latitude": 10.85,
    "longitude": -3.01667
  },
  {
    "city": "Yoi",
    "city_zh": "Yoi",
    "country": "Burkina Faso",
    "country_zh": "布吉納法索",
    "country_iso_code": "BF",
    "timezone": "Africa/Ouagadougou",
    "latitude": 13.8072,
    "longitude": 0.12317
  },
  {
    "city": "Yoda",
    "city_zh": "Yoda",
    "country": "Burkina Faso",
    "country_zh": "布吉納法索",
    "country_iso_code": "BF",
    "timezone": "Africa/Ouagadougou",
    "latitude": 13.32911,
    "longitude": -0.57536
  },
  {
    "city": "Yobiri",
    "city_zh": "Yobiri",
    "country": "Burkina Faso",
    "country_zh": "布吉納法索",
    "country_iso_code": "BF",
    "timezone": "Africa/Ouagadougou",
    "latitude": 11.76667,
    "longitude": 1.7
  },
  {
    "city": "Yoba",
    "city_zh": "Yoba",
    "country": "Burkina Faso",
    "country_zh": "布吉納法索",
    "country_iso_code": "BF",
    "timezone": "Africa/Ouagadougou",
    "latitude": 13.42537,
    "longitude": -1.81438
  },
  {
    "city": "Yoatenga",
    "city_zh": "Yoatenga",
    "country": "Burkina Faso",
    "country_zh": "布吉納法索",
    "country_iso_code": "BF",
    "timezone": "Africa/Ouagadougou",
    "latitude": 12.33333,
    "longitude": -0.28333
  },
  {
    "city": "Yoada",
    "city_zh": "Yoada",
    "country": "Burkina Faso",
    "country_zh": "布吉納法索",
    "country_iso_code": "BF",
    "timezone": "Africa/Ouagadougou",
    "latitude": 13.73518,
    "longitude": -2.17009
  },
  {
    "city": "Yo",
    "city_zh": "Yo",
    "country": "Burkina Faso",
    "country_zh": "布吉納法索",
    "country_iso_code": "BF",
    "timezone": "Africa/Ouagadougou",
    "latitude": 13.0263,
    "longitude": -3.365
  },
  {
    "city": "Yo",
    "city_zh": "Yo",
    "country": "Burkina Faso",
    "country_zh": "布吉納法索",
    "country_iso_code": "BF",
    "timezone": "Africa/Ouagadougou",
    "latitude": 11.3,
    "longitude": -1.0
  },
  {
    "city": "Yo",
    "city_zh": "Yo",
    "country": "Burkina Faso",
    "country_zh": "布吉納法索",
    "country_iso_code": "BF",
    "timezone": "Africa/Ouagadougou",
    "latitude": 11.25,
    "longitude": -0.96667
  },
  {
    "city": "Yô",
    "city_zh": "Yô",
    "country": "Burkina Faso",
    "country_zh": "布吉納法索",
    "country_iso_code": "BF",
    "timezone": "Africa/Ouagadougou",
    "latitude": 11.05,
    "longitude": -3.05
  },
  {
    "city": "Yitenga",
    "city_zh": "Yitenga",
    "country": "Burkina Faso",
    "country_zh": "布吉納法索",
    "country_iso_code": "BF",
    "timezone": "Africa/Ouagadougou",
    "latitude": 12.93333,
    "longitude": -0.28333
  },
  {
    "city": "Yisèpougo",
    "city_zh": "Yisèpougo",
    "country": "Burkina Faso",
    "country_zh": "布吉納法索",
    "country_iso_code": "BF",
    "timezone": "Africa/Ouagadougou",
    "latitude": 12.71667,
    "longitude": -2.75
  },
  {
    "city": "Yirim",
    "city_zh": "Yirim",
    "country": "Burkina Faso",
    "country_zh": "布吉納法索",
    "country_iso_code": "BF",
    "timezone": "Africa/Ouagadougou",
    "latitude": 13.25199,
    "longitude": -1.7777
  },
  {
    "city": "Yéribou",
    "city_zh": "Yéribou",
    "country": "Burkina Faso",
    "country_zh": "布吉納法索",
    "country_iso_code": "BF",
    "timezone": "Africa/Ouagadougou",
    "latitude": 13.51921,
    "longitude": -2.15078
  },
  {
    "city": "Yirané",
    "city_zh": "Yirané",
    "country": "Burkina Faso",
    "country_zh": "布吉納法索",
    "country_iso_code": "BF",
    "timezone": "Africa/Ouagadougou",
    "latitude": 12.71362,
    "longitude": -1.20893
  },
  {
    "city": "Yinou",
    "city_zh": "Yinou",
    "country": "Burkina Faso",
    "country_zh": "布吉納法索",
    "country_iso_code": "BF",
    "timezone": "Africa/Ouagadougou",
    "latitude": 13.30793,
    "longitude": -1.89422
  },
  {
    "city": "Yinga",
    "city_zh": "Yinga",
    "country": "Burkina Faso",
    "country_zh": "布吉納法索",
    "country_iso_code": "BF",
    "timezone": "Africa/Ouagadougou",
    "latitude": 11.58333,
    "longitude": -2.26667
  },
  {
    "city": "Yimouga",
    "city_zh": "Yimouga",
    "country": "Burkina Faso",
    "country_zh": "布吉納法索",
    "country_iso_code": "BF",
    "timezone": "Africa/Ouagadougou",
    "latitude": 12.68333,
    "longitude": -2.45
  },
  {
    "city": "Yilou",
    "city_zh": "Yilou",
    "country": "Burkina Faso",
    "country_zh": "布吉納法索",
    "country_iso_code": "BF",
    "timezone": "Africa/Ouagadougou",
    "latitude": 13.01128,
    "longitude": -1.54665
  },
  {
    "city": "Yillialé",
    "city_zh": "Yillialé",
    "country": "Burkina Faso",
    "country_zh": "布吉納法索",
    "country_iso_code": "BF",
    "timezone": "Africa/Ouagadougou",
    "latitude": 12.76667,
    "longitude": -2.33333
  },
  {
    "city": "Yilartenga",
    "city_zh": "Yilartenga",
    "country": "Burkina Faso",
    "country_zh": "布吉納法索",
    "country_iso_code": "BF",
    "timezone": "Africa/Ouagadougou",
    "latitude": 12.86953,
    "longitude": -1.28677
  },
  {
    "city": "Yikoudougo",
    "city_zh": "Yikoudougo",
    "country": "Burkina Faso",
    "country_zh": "布吉納法索",
    "country_iso_code": "BF",
    "timezone": "Africa/Ouagadougou",
    "latitude": 12.43333,
    "longitude": -0.71667
  },
  {
    "city": "Yikoudgo",
    "city_zh": "Yikoudgo",
    "country": "Burkina Faso",
    "country_zh": "布吉納法索",
    "country_iso_code": "BF",
    "timezone": "Africa/Ouagadougou",
    "latitude": 13.24475,
    "longitude": -0.95432
  },
  {
    "city": "Yikoudgo",
    "city_zh": "Yikoudgo",
    "country": "Burkina Faso",
    "country_zh": "布吉納法索",
    "country_iso_code": "BF",
    "timezone": "Africa/Ouagadougou",
    "latitude": 13.09762,
    "longitude": -1.49408
  },
  {
    "city": "Yétolo",
    "city_zh": "Yétolo",
    "country": "Burkina Faso",
    "country_zh": "布吉納法索",
    "country_iso_code": "BF",
    "timezone": "Africa/Ouagadougou",
    "latitude": 10.55,
    "longitude": -5.38333
  },
  {
    "city": "Zétégomdé",
    "city_zh": "Zétégomdé",
    "country": "Burkina Faso",
    "country_zh": "布吉納法索",
    "country_iso_code": "BF",
    "timezone": "Africa/Ouagadougou",
    "latitude": 12.95802,
    "longitude": -1.95694
  },
  {
    "city": "Yéssébé",
    "city_zh": "Yéssébé",
    "country": "Burkina Faso",
    "country_zh": "布吉納法索",
    "country_iso_code": "BF",
    "timezone": "Africa/Ouagadougou",
    "latitude": 10.31667,
    "longitude": -4.01667
  },
  {
    "city": "Yérimbou",
    "city_zh": "Yérimbou",
    "country": "Burkina Faso",
    "country_zh": "布吉納法索",
    "country_iso_code": "BF",
    "timezone": "Africa/Ouagadougou",
    "latitude": 12.13606,
    "longitude": 1.46182
  },
  {
    "city": "Yérimbandi",
    "city_zh": "Yérimbandi",
    "country": "Burkina Faso",
    "country_zh": "布吉納法索",
    "country_iso_code": "BF",
    "timezone": "Africa/Ouagadougou",
    "latitude": 12.35222,
    "longitude": 1.40264
  },
  {
    "city": "Yérifoula-Dioula",
    "city_zh": "Yérifoula-Dioula",
    "country": "Burkina Faso",
    "country_zh": "布吉納法索",
    "country_iso_code": "BF",
    "timezone": "Africa/Ouagadougou",
    "latitude": 10.47796,
    "longitude": -3.58353
  },
  {
    "city": "Yéridyon",
    "city_zh": "Yéridyon",
    "country": "Burkina Faso",
    "country_zh": "布吉納法索",
    "country_iso_code": "BF",
    "timezone": "Africa/Ouagadougou",
    "latitude": 12.41667,
    "longitude": -2.68333
  },
  {
    "city": "Yériba",
    "city_zh": "Yériba",
    "country": "Burkina Faso",
    "country_zh": "布吉納法索",
    "country_iso_code": "BF",
    "timezone": "Africa/Ouagadougou",
    "latitude": 11.46667,
    "longitude": -0.63333
  },
  {
    "city": "Yèrgué",
    "city_zh": "Yèrgué",
    "country": "Burkina Faso",
    "country_zh": "布吉納法索",
    "country_iso_code": "BF",
    "timezone": "Africa/Ouagadougou",
    "latitude": 14.08045,
    "longitude": -2.19112
  },
  {
    "city": "Yérégane",
    "city_zh": "Yérégane",
    "country": "Burkina Faso",
    "country_zh": "布吉納法索",
    "country_iso_code": "BF",
    "timezone": "Africa/Ouagadougou",
    "latitude": 11.2,
    "longitude": -3.05
  },
  {
    "city": "Yéréfé",
    "city_zh": "Yéréfé",
    "country": "Burkina Faso",
    "country_zh": "布吉納法索",
    "country_iso_code": "BF",
    "timezone": "Africa/Ouagadougou",
    "latitude": 11.33333,
    "longitude": -3.03333
  },
  {
    "city": "Yéra",
    "city_zh": "Yéra",
    "country": "Burkina Faso",
    "country_zh": "布吉納法索",
    "country_iso_code": "BF",
    "timezone": "Africa/Ouagadougou",
    "latitude": 13.0089,
    "longitude": -3.4421
  },
  {
    "city": "Yépéla",
    "city_zh": "Yépéla",
    "country": "Burkina Faso",
    "country_zh": "布吉納法索",
    "country_iso_code": "BF",
    "timezone": "Africa/Ouagadougou",
    "latitude": 10.65,
    "longitude": -3.01667
  },
  {
    "city": "Yéou",
    "city_zh": "Yéou",
    "country": "Burkina Faso",
    "country_zh": "布吉納法索",
    "country_iso_code": "BF",
    "timezone": "Africa/Ouagadougou",
    "latitude": 13.8449,
    "longitude": -0.58513
  },
  {
    "city": "Yansa Gonion",
    "city_zh": "Yansa Gonion",
    "country": "Burkina Faso",
    "country_zh": "布吉納法索",
    "country_iso_code": "BF",
    "timezone": "Africa/Ouagadougou",
    "latitude": 13.58574,
    "longitude": -2.93422
  },
  {
    "city": "Yansa",
    "city_zh": "Yansa",
    "country": "Burkina Faso",
    "country_zh": "布吉納法索",
    "country_iso_code": "BF",
    "timezone": "Africa/Ouagadougou",
    "latitude": 13.60129,
    "longitude": -2.92804
  },
  {
    "city": "Yenvédougou",
    "city_zh": "Yenvédougou",
    "country": "Burkina Faso",
    "country_zh": "布吉納法索",
    "country_iso_code": "BF",
    "timezone": "Africa/Ouagadougou",
    "latitude": 12.93333,
    "longitude": -3.96667
  },
  {
    "city": "Yèntyaori",
    "city_zh": "Yèntyaori",
    "country": "Burkina Faso",
    "country_zh": "布吉納法索",
    "country_iso_code": "BF",
    "timezone": "Africa/Ouagadougou",
    "latitude": 13.02132,
    "longitude": 0.14237
  },
  {
    "city": "Yèntènga",
    "city_zh": "Yèntènga",
    "country": "Burkina Faso",
    "country_zh": "布吉納法索",
    "country_iso_code": "BF",
    "timezone": "Africa/Ouagadougou",
    "latitude": 12.03333,
    "longitude": -0.06667
  },
  {
    "city": "Yensouti",
    "city_zh": "Yensouti",
    "country": "Burkina Faso",
    "country_zh": "布吉納法索",
    "country_iso_code": "BF",
    "timezone": "Africa/Ouagadougou",
    "latitude": 13.3185,
    "longitude": 0.33545
  },
  {
    "city": "Yènsèndini",
    "city_zh": "Yènsèndini",
    "country": "Burkina Faso",
    "country_zh": "布吉納法索",
    "country_iso_code": "BF",
    "timezone": "Africa/Ouagadougou",
    "latitude": 12.01667,
    "longitude": 0.2
  },
  {
    "city": "Yenkui",
    "city_zh": "Yenkui",
    "country": "Burkina Faso",
    "country_zh": "布吉納法索",
    "country_iso_code": "BF",
    "timezone": "Africa/Ouagadougou",
    "latitude": 12.46667,
    "longitude": -3.85
  },
  {
    "city": "Yèndiboré",
    "city_zh": "Yèndiboré",
    "country": "Burkina Faso",
    "country_zh": "布吉納法索",
    "country_iso_code": "BF",
    "timezone": "Africa/Ouagadougou",
    "latitude": 12.65668,
    "longitude": 1.97469
  },
  {
    "city": "Yendéré",
    "city_zh": "Yendéré",
    "country": "Burkina Faso",
    "country_zh": "布吉納法索",
    "country_iso_code": "BF",
    "timezone": "Africa/Ouagadougou",
    "latitude": 10.2,
    "longitude": -4.96667
  },
  {
    "city": "Yenbiro",
    "city_zh": "Yenbiro",
    "country": "Burkina Faso",
    "country_zh": "布吉納法索",
    "country_iso_code": "BF",
    "timezone": "Africa/Ouagadougou",
    "latitude": 10.18333,
    "longitude": -3.43333
  },
  {
    "city": "Yemsende",
    "city_zh": "Yemsende",
    "country": "Burkina Faso",
    "country_zh": "布吉納法索",
    "country_iso_code": "BF",
    "timezone": "Africa/Ouagadougou",
    "latitude": 13.37566,
    "longitude": -1.86783
  },
  {
    "city": "Yèmbago",
    "city_zh": "Yèmbago",
    "country": "Burkina Faso",
    "country_zh": "布吉納法索",
    "country_iso_code": "BF",
    "timezone": "Africa/Ouagadougou",
    "latitude": 9.68333,
    "longitude": -2.93333
  },
  {
    "city": "Yélou",
    "city_zh": "Yélou",
    "country": "Burkina Faso",
    "country_zh": "布吉納法索",
    "country_iso_code": "BF",
    "timezone": "Africa/Ouagadougou",
    "latitude": 12.06722,
    "longitude": -1.72681
  },
  {
    "city": "Yelmanarlé",
    "city_zh": "Yelmanarlé",
    "country": "Burkina Faso",
    "country_zh": "布吉納法索",
    "country_iso_code": "BF",
    "timezone": "Africa/Ouagadougou",
    "latitude": 12.78333,
    "longitude": -2.45
  },
  {
    "city": "Yelkoto",
    "city_zh": "Yelkoto",
    "country": "Burkina Faso",
    "country_zh": "布吉納法索",
    "country_iso_code": "BF",
    "timezone": "Africa/Ouagadougou",
    "latitude": 13.32727,
    "longitude": -1.71744
  },
  {
    "city": "Yélintara",
    "city_zh": "Yélintara",
    "country": "Burkina Faso",
    "country_zh": "布吉納法索",
    "country_iso_code": "BF",
    "timezone": "Africa/Ouagadougou",
    "latitude": 9.98333,
    "longitude": -3.41667
  },
  {
    "city": "Yélimbiri",
    "city_zh": "Yélimbiri",
    "country": "Burkina Faso",
    "country_zh": "布吉納法索",
    "country_iso_code": "BF",
    "timezone": "Africa/Ouagadougou",
    "latitude": 13.42105,
    "longitude": 0.44131
  },
  {
    "city": "Yéli",
    "city_zh": "Yéli",
    "country": "Burkina Faso",
    "country_zh": "布吉納法索",
    "country_iso_code": "BF",
    "timezone": "Africa/Ouagadougou",
    "latitude": 12.6,
    "longitude": -2.08333
  },
  {
    "city": "Yélenbidou",
    "city_zh": "Yélenbidou",
    "country": "Burkina Faso",
    "country_zh": "布吉納法索",
    "country_iso_code": "BF",
    "timezone": "Africa/Ouagadougou",
    "latitude": 12.81667,
    "longitude": -0.21667
  },
  {
    "city": "Yelémbassé",
    "city_zh": "Yelémbassé",
    "country": "Burkina Faso",
    "country_zh": "布吉納法索",
    "country_iso_code": "BF",
    "timezone": "Africa/Ouagadougou",
    "latitude": 12.35,
    "longitude": -0.28333
  },
  {
    "city": "Yelbissi",
    "city_zh": "Yelbissi",
    "country": "Burkina Faso",
    "country_zh": "布吉納法索",
    "country_iso_code": "BF",
    "timezone": "Africa/Ouagadougou",
    "latitude": 11.0,
    "longitude": -0.76667
  },
  {
    "city": "Yéhon",
    "city_zh": "Yéhon",
    "country": "Burkina Faso",
    "country_zh": "布吉納法索",
    "country_iso_code": "BF",
    "timezone": "Africa/Ouagadougou",
    "latitude": 11.3,
    "longitude": -3.4
  },
  {
    "city": "Yéguéresso",
    "city_zh": "Yéguéresso",
    "country": "Burkina Faso",
    "country_zh": "布吉納法索",
    "country_iso_code": "BF",
    "timezone": "Africa/Ouagadougou",
    "latitude": 11.155,
    "longitude": -4.15622
  },
  {
    "city": "Yégueré",
    "city_zh": "Yégueré",
    "country": "Burkina Faso",
    "country_zh": "布吉納法索",
    "country_iso_code": "BF",
    "timezone": "Africa/Ouagadougou",
    "latitude": 10.98406,
    "longitude": -4.10242
  },
  {
    "city": "Yébél Bakolanga",
    "city_zh": "Yébél Bakolanga",
    "country": "Burkina Faso",
    "country_zh": "布吉納法索",
    "country_iso_code": "BF",
    "timezone": "Africa/Ouagadougou",
    "latitude": 14.0323,
    "longitude": 0.22534
  },
  {
    "city": "Yébélala",
    "city_zh": "Yébélala",
    "country": "Burkina Faso",
    "country_zh": "布吉納法索",
    "country_iso_code": "BF",
    "timezone": "Africa/Ouagadougou",
    "latitude": 10.73333,
    "longitude": -3.21667
  },
  {
    "city": "Yéaïri",
    "city_zh": "Yéaïri",
    "country": "Burkina Faso",
    "country_zh": "布吉納法索",
    "country_iso_code": "BF",
    "timezone": "Africa/Ouagadougou",
    "latitude": 13.44161,
    "longitude": -2.9597
  },
  {
    "city": "Yé",
    "city_zh": "Yé",
    "country": "Burkina Faso",
    "country_zh": "布吉納法索",
    "country_iso_code": "BF",
    "timezone": "Africa/Ouagadougou",
    "latitude": 12.6,
    "longitude": -3.11667
  },
  {
    "city": "Yazougou",
    "city_zh": "Yazougou",
    "country": "Burkina Faso",
    "country_zh": "布吉納法索",
    "country_iso_code": "BF",
    "timezone": "Africa/Ouagadougou",
    "latitude": 13.33411,
    "longitude": -0.09023
  },
  {
    "city": "Yaya",
    "city_zh": "Yaya",
    "country": "Burkina Faso",
    "country_zh": "布吉納法索",
    "country_iso_code": "BF",
    "timezone": "Africa/Ouagadougou",
    "latitude": 12.71667,
    "longitude": -2.78333
  },
  {
    "city": "Yatako",
    "city_zh": "Yatako",
    "country": "Burkina Faso",
    "country_zh": "布吉納法索",
    "country_iso_code": "BF",
    "timezone": "Africa/Ouagadougou",
    "latitude": 14.05143,
    "longitude": 0.35711
  },
  {
    "city": "Yasso",
    "city_zh": "Yasso",
    "country": "Burkina Faso",
    "country_zh": "布吉納法索",
    "country_iso_code": "BF",
    "timezone": "Africa/Ouagadougou",
    "latitude": 12.36338,
    "longitude": -4.02918
  },
  {
    "city": "Yartenga",
    "city_zh": "Yartenga",
    "country": "Burkina Faso",
    "country_zh": "布吉納法索",
    "country_iso_code": "BF",
    "timezone": "Africa/Ouagadougou",
    "latitude": 11.71667,
    "longitude": -0.15
  },
  {
    "city": "Yarsi",
    "city_zh": "Yarsi",
    "country": "Burkina Faso",
    "country_zh": "布吉納法索",
    "country_iso_code": "BF",
    "timezone": "Africa/Ouagadougou",
    "latitude": 12.86667,
    "longitude": -2.06667
  },
  {
    "city": "Yarséyi",
    "city_zh": "Yarséyi",
    "country": "Burkina Faso",
    "country_zh": "布吉納法索",
    "country_iso_code": "BF",
    "timezone": "Africa/Ouagadougou",
    "latitude": 12.21667,
    "longitude": -2.05
  },
  {
    "city": "Yarsin",
    "city_zh": "Yarsin",
    "country": "Burkina Faso",
    "country_zh": "布吉納法索",
    "country_iso_code": "BF",
    "timezone": "Africa/Ouagadougou",
    "latitude": 12.74756,
    "longitude": -1.77147
  },
  {
    "city": "Yarsé",
    "city_zh": "Yarsé",
    "country": "Burkina Faso",
    "country_zh": "布吉納法索",
    "country_iso_code": "BF",
    "timezone": "Africa/Ouagadougou",
    "latitude": 13.61511,
    "longitude": -0.88421
  },
  {
    "city": "Yarsé",
    "city_zh": "Yarsé",
    "country": "Burkina Faso",
    "country_zh": "布吉納法索",
    "country_iso_code": "BF",
    "timezone": "Africa/Ouagadougou",
    "latitude": 12.6587,
    "longitude": -1.00911
  },
  {
    "city": "Yargo",
    "city_zh": "Yargo",
    "country": "Burkina Faso",
    "country_zh": "布吉納法索",
    "country_iso_code": "BF",
    "timezone": "Africa/Ouagadougou",
    "latitude": 12.96415,
    "longitude": -1.91783
  },
  {
    "city": "Yarogo",
    "city_zh": "Yarogo",
    "country": "Burkina Faso",
    "country_zh": "布吉納法索",
    "country_iso_code": "BF",
    "timezone": "Africa/Ouagadougou",
    "latitude": 12.88333,
    "longitude": -2.46667
  },
  {
    "city": "Toubré",
    "city_zh": "Toubré",
    "country": "Burkina Faso",
    "country_zh": "布吉納法索",
    "country_iso_code": "BF",
    "timezone": "Africa/Ouagadougou",
    "latitude": 12.84161,
    "longitude": -1.5353
  },
  {
    "city": "Yarogo",
    "city_zh": "Yarogo",
    "country": "Burkina Faso",
    "country_zh": "布吉納法索",
    "country_iso_code": "BF",
    "timezone": "Africa/Ouagadougou",
    "latitude": 12.71411,
    "longitude": -1.7213
  },
  {
    "city": "Yarogo",
    "city_zh": "Yarogo",
    "country": "Burkina Faso",
    "country_zh": "布吉納法索",
    "country_iso_code": "BF",
    "timezone": "Africa/Ouagadougou",
    "latitude": 11.81667,
    "longitude": -1.28333
  },
  {
    "city": "Yaroguin",
    "city_zh": "Yaroguin",
    "country": "Burkina Faso",
    "country_zh": "布吉納法索",
    "country_iso_code": "BF",
    "timezone": "Africa/Ouagadougou",
    "latitude": 12.39389,
    "longitude": -1.98386
  },
  {
    "city": "Yarobadé",
    "city_zh": "Yarobadé",
    "country": "Burkina Faso",
    "country_zh": "布吉納法索",
    "country_iso_code": "BF",
    "timezone": "Africa/Ouagadougou",
    "latitude": 12.98333,
    "longitude": 0.08333
  },
  {
    "city": "Yaro",
    "city_zh": "Yaro",
    "country": "Burkina Faso",
    "country_zh": "布吉納法索",
    "country_iso_code": "BF",
    "timezone": "Africa/Ouagadougou",
    "latitude": 11.25,
    "longitude": -1.2
  },
  {
    "city": "Yarkaré",
    "city_zh": "Yarkaré",
    "country": "Burkina Faso",
    "country_zh": "布吉納法索",
    "country_iso_code": "BF",
    "timezone": "Africa/Ouagadougou",
    "latitude": 12.2,
    "longitude": -0.13333
  },
  {
    "city": "Yalka",
    "city_zh": "Yalka",
    "country": "Burkina Faso",
    "country_zh": "布吉納法索",
    "country_iso_code": "BF",
    "timezone": "Africa/Ouagadougou",
    "latitude": 13.44244,
    "longitude": -2.49931
  },
  {
    "city": "Yargou",
    "city_zh": "Yargou",
    "country": "Burkina Faso",
    "country_zh": "布吉納法索",
    "country_iso_code": "BF",
    "timezone": "Africa/Ouagadougou",
    "latitude": 12.68333,
    "longitude": 0.48333
  },
  {
    "city": "Yargo",
    "city_zh": "Yargo",
    "country": "Burkina Faso",
    "country_zh": "布吉納法索",
    "country_iso_code": "BF",
    "timezone": "Africa/Ouagadougou",
    "latitude": 13.63115,
    "longitude": -2.64266
  },
  {
    "city": "Yargo",
    "city_zh": "Yargo",
    "country": "Burkina Faso",
    "country_zh": "布吉納法索",
    "country_iso_code": "BF",
    "timezone": "Africa/Ouagadougou",
    "latitude": 13.46735,
    "longitude": -1.55519
  },
  {
    "city": "Yargo",
    "city_zh": "Yargo",
    "country": "Burkina Faso",
    "country_zh": "布吉納法索",
    "country_iso_code": "BF",
    "timezone": "Africa/Ouagadougou",
    "latitude": 13.39885,
    "longitude": -2.60429
  },
  {
    "city": "Yargo",
    "city_zh": "Yargo",
    "country": "Burkina Faso",
    "country_zh": "布吉納法索",
    "country_iso_code": "BF",
    "timezone": "Africa/Ouagadougou",
    "latitude": 13.1723,
    "longitude": -1.85608
  },
  {
    "city": "Yargo",
    "city_zh": "Yargo",
    "country": "Burkina Faso",
    "country_zh": "布吉納法索",
    "country_iso_code": "BF",
    "timezone": "Africa/Ouagadougou",
    "latitude": 13.05097,
    "longitude": -1.37497
  },
  {
    "city": "Yargo",
    "city_zh": "Yargo",
    "country": "Burkina Faso",
    "country_zh": "布吉納法索",
    "country_iso_code": "BF",
    "timezone": "Africa/Ouagadougou",
    "latitude": 12.7376,
    "longitude": -1.29865
  },
  {
    "city": "Yargo",
    "city_zh": "Yargo",
    "country": "Burkina Faso",
    "country_zh": "布吉納法索",
    "country_iso_code": "BF",
    "timezone": "Africa/Ouagadougou",
    "latitude": 12.65,
    "longitude": -0.58333
  },
  {
    "city": "Yargo",
    "city_zh": "Yargo",
    "country": "Burkina Faso",
    "country_zh": "布吉納法索",
    "country_iso_code": "BF",
    "timezone": "Africa/Ouagadougou",
    "latitude": 12.36667,
    "longitude": -0.86667
  },
  {
    "city": "Yargo",
    "city_zh": "Yargo",
    "country": "Burkina Faso",
    "country_zh": "布吉納法索",
    "country_iso_code": "BF",
    "timezone": "Africa/Ouagadougou",
    "latitude": 12.31667,
    "longitude": -0.51667
  },
  {
    "city": "Yargo",
    "city_zh": "Yargo",
    "country": "Burkina Faso",
    "country_zh": "布吉納法索",
    "country_iso_code": "BF",
    "timezone": "Africa/Ouagadougou",
    "latitude": 12.26667,
    "longitude": -0.43333
  },
  {
    "city": "Yargo",
    "city_zh": "Yargo",
    "country": "Burkina Faso",
    "country_zh": "布吉納法索",
    "country_iso_code": "BF",
    "timezone": "Africa/Ouagadougou",
    "latitude": 12.23333,
    "longitude": -0.36667
  },
  {
    "city": "Yargo",
    "city_zh": "Yargo",
    "country": "Burkina Faso",
    "country_zh": "布吉納法索",
    "country_iso_code": "BF",
    "timezone": "Africa/Ouagadougou",
    "latitude": 12.21667,
    "longitude": -2.08333
  },
  {
    "city": "Yargo",
    "city_zh": "Yargo",
    "country": "Burkina Faso",
    "country_zh": "布吉納法索",
    "country_iso_code": "BF",
    "timezone": "Africa/Ouagadougou",
    "latitude": 12.18333,
    "longitude": -2.18333
  },
  {
    "city": "Yargo",
    "city_zh": "Yargo",
    "country": "Burkina Faso",
    "country_zh": "布吉納法索",
    "country_iso_code": "BF",
    "timezone": "Africa/Ouagadougou",
    "latitude": 12.06667,
    "longitude": -0.28333
  },
  {
    "city": "Yargo",
    "city_zh": "Yargo",
    "country": "Burkina Faso",
    "country_zh": "布吉納法索",
    "country_iso_code": "BF",
    "timezone": "Africa/Ouagadougou",
    "latitude": 11.81667,
    "longitude": -1.15
  },
  {
    "city": "Yargatenga",
    "city_zh": "Yargatenga",
    "country": "Burkina Faso",
    "country_zh": "布吉納法索",
    "country_iso_code": "BF",
    "timezone": "Africa/Ouagadougou",
    "latitude": 11.2125,
    "longitude": 0.00528
  },
  {
    "city": "Yarga",
    "city_zh": "Yarga",
    "country": "Burkina Faso",
    "country_zh": "布吉納法索",
    "country_iso_code": "BF",
    "timezone": "Africa/Ouagadougou",
    "latitude": 13.22768,
    "longitude": -0.03164
  },
  {
    "city": "Yaréyoumé",
    "city_zh": "Yaréyoumé",
    "country": "Burkina Faso",
    "country_zh": "布吉納法索",
    "country_iso_code": "BF",
    "timezone": "Africa/Ouagadougou",
    "latitude": 12.3,
    "longitude": -0.06667
  },
  {
    "city": "Yarébila",
    "city_zh": "Yarébila",
    "country": "Burkina Faso",
    "country_zh": "布吉納法索",
    "country_iso_code": "BF",
    "timezone": "Africa/Ouagadougou",
    "latitude": 12.81667,
    "longitude": -2.0
  },
  {
    "city": "Yarayé",
    "city_zh": "Yarayé",
    "country": "Burkina Faso",
    "country_zh": "布吉納法索",
    "country_iso_code": "BF",
    "timezone": "Africa/Ouagadougou",
    "latitude": 13.2123,
    "longitude": -4.2199
  },
  {
    "city": "Yaran",
    "city_zh": "Yaran",
    "country": "Burkina Faso",
    "country_zh": "布吉納法索",
    "country_iso_code": "BF",
    "timezone": "Africa/Ouagadougou",
    "latitude": 13.428,
    "longitude": -4.0018
  },
  {
    "city": "Yaran",
    "city_zh": "Yaran",
    "country": "Burkina Faso",
    "country_zh": "布吉納法索",
    "country_iso_code": "BF",
    "timezone": "Africa/Ouagadougou",
    "latitude": 12.96667,
    "longitude": -3.45
  },
  {
    "city": "Yaramou",
    "city_zh": "Yaramou",
    "country": "Burkina Faso",
    "country_zh": "布吉納法索",
    "country_iso_code": "BF",
    "timezone": "Africa/Ouagadougou",
    "latitude": 10.26667,
    "longitude": -5.01667
  },
  {
    "city": "Yaramoko",
    "city_zh": "Yaramoko",
    "country": "Burkina Faso",
    "country_zh": "布吉納法索",
    "country_iso_code": "BF",
    "timezone": "Africa/Ouagadougou",
    "latitude": 11.78823,
    "longitude": -3.29249
  },
  {
    "city": "Yapala",
    "city_zh": "Yapala",
    "country": "Burkina Faso",
    "country_zh": "布吉納法索",
    "country_iso_code": "BF",
    "timezone": "Africa/Ouagadougou",
    "latitude": 11.08333,
    "longitude": -0.48333
  },
  {
    "city": "Yaouren",
    "city_zh": "Yaouren",
    "country": "Burkina Faso",
    "country_zh": "布吉納法索",
    "country_iso_code": "BF",
    "timezone": "Africa/Ouagadougou",
    "latitude": 12.56667,
    "longitude": -0.75
  },
  {
    "city": "Yaongo",
    "city_zh": "Yaongo",
    "country": "Burkina Faso",
    "country_zh": "布吉納法索",
    "country_iso_code": "BF",
    "timezone": "Africa/Ouagadougou",
    "latitude": 12.62182,
    "longitude": -0.26469
  },