[
  {
    "city": "Zumbí",
    "city_zh": "Zumbí",
    "country": "Dominican Republic",
    "country_zh": "多明尼加共和國",
    "country_iso_code": "DO",
    "timezone": "America/Santo_Domingo",
    "latitude": 18.5,
    "longitude": -70.26667
  },
  {
    "city": "Zumbador",
    "city_zh": "Zumbador",
    "country": "Dominican Republic",
    "country_zh": "多明尼加共和國",
    "country_iso_code": "DO",
    "timezone": "America/Santo_Domingo",
    "latitude": 19.07763,
    "longitude": -70.73835
  },
  {
    "city": "Zumbador",
    "city_zh": "Zumbador",
    "country": "Dominican Republic",
    "country_zh": "多明尼加共和國",
    "country_iso_code": "DO",
    "timezone": "America/Santo_Domingo",
    "latitude": 18.76942,
    "longitude": -70.32178
  },
  {
    "city": "Zumba",
    "city_zh": "Zumba",
    "country": "Dominican Republic",
    "country_zh": "多明尼加共和國",
    "country_iso_code": "DO",
    "timezone": "America/Santo_Domingo",
    "latitude": 19.20478,
    "longitude": -69.87492
  },
  {
    "city": "Zayas",
    "city_zh": "Zayas",
    "country": "Dominican Republic",
    "country_zh": "多明尼加共和國",
    "country_iso_code": "DO",
    "timezone": "America/Santo_Domingo",
    "latitude": 18.78696,
    "longitude": -70.15853
  },
  {
    "city": "Zarzal",
    "city_zh": "Zarzal",
    "country": "Dominican Republic",
    "country_zh": "多明尼加共和國",
    "country_iso_code": "DO",
    "timezone": "America/Santo_Domingo",
    "latitude": 18.88207,
    "longitude": -70.41096
  },
  {
    "city": "Zanjón",
    "city_zh": "Zanjón",
    "country": "Dominican Republic",
    "country_zh": "多明尼加共和國",
    "country_iso_code": "DO",
    "timezone": "America/Santo_Domingo",
    "latitude": 19.28592,
    "longitude": -70.73255
  },
  {
    "city": "Zambrana Arriba",
    "city_zh": "Zambrana Arriba",
    "country": "Dominican Republic",
    "country_zh": "多明尼加共和國",
    "country_iso_code": "DO",
    "timezone": "America/Santo_Domingo",
    "latitude": 18.93944,
    "longitude": -70.1219
  },
  {
    "city": "Zambrana Abajo",
    "city_zh": "Zambrana Abajo",
    "country": "Dominican Republic",
    "country_zh": "多明尼加共和國",
    "country_iso_code": "DO",
    "timezone": "America/Santo_Domingo",
    "latitude": 18.96747,
    "longitude": -70.12835
  },
  {
    "city": "Zamba Arriba",
    "city_zh": "Zamba Arriba",
    "country": "Dominican Republic",
    "country_zh": "多明尼加共和國",
    "country_iso_code": "DO",
    "timezone": "America/Santo_Domingo",
    "latitude": 19.52867,
    "longitude": -71.3164
  },
  {
    "city": "Zamba",
    "city_zh": "Zamba",
    "country": "Dominican Republic",
    "country_zh": "多明尼加共和國",
    "country_iso_code": "DO",
    "timezone": "America/Santo_Domingo",
    "latitude": 19.53836,
    "longitude": -71.32689
  },
  {
    "city": "Zalaya",
    "city_zh": "Zalaya",
    "country": "Dominican Republic",
    "country_zh": "多明尼加共和國",
    "country_iso_code": "DO",
    "timezone": "America/Santo_Domingo",
    "latitude": 19.38798,
    "longitude": -70.73664
  },
  {
    "city": "Zalaya",
    "city_zh": "Zalaya",
    "country": "Dominican Republic",
    "country_zh": "多明尼加共和國",
    "country_iso_code": "DO",
    "timezone": "America/Santo_Domingo",
    "latitude": 19.3631,
    "longitude": -70.77647
  },
  {
    "city": "Zafarraya",
    "city_zh": "Zafarraya",
    "country": "Dominican Republic",
    "country_zh": "多明尼加共和國",
    "country_iso_code": "DO",
    "timezone": "America/Santo_Domingo",
    "latitude": 19.36373,
    "longitude": -70.48534
  },
  {
    "city": "Yuvina",
    "city_zh": "Yuvina",
    "country": "Dominican Republic",
    "country_zh": "多明尼加共和國",
    "country_iso_code": "DO",
    "timezone": "America/Santo_Domingo",
    "latitude": 18.76249,
    "longitude": -69.54028
  },
  {
    "city": "Yunita",
    "city_zh": "Yunita",
    "country": "Dominican Republic",
    "country_zh": "多明尼加共和國",
    "country_iso_code": "DO",
    "timezone": "America/Santo_Domingo",
    "latitude": 19.07296,
    "longitude": -69.95996
  },
  {
    "city": "Yujo Abajo",
    "city_zh": "Yujo Abajo",
    "country": "Dominican Republic",
    "country_zh": "多明尼加共和國",
    "country_iso_code": "DO",
    "timezone": "America/Santo_Domingo",
    "latitude": 18.96354,
    "longitude": -70.31065
  },
  {
    "city": "Yogo Yogo",
    "city_zh": "Yogo Yogo",
    "country": "Dominican Republic",
    "country_zh": "多明尼加共和國",
    "country_iso_code": "DO",
    "timezone": "America/Santo_Domingo",
    "latitude": 18.39595,
    "longitude": -70.05101
  },
  {
    "city": "Yeso",
    "city_zh": "Yeso",
    "country": "Dominican Republic",
    "country_zh": "多明尼加共和國",
    "country_iso_code": "DO",
    "timezone": "America/Santo_Domingo",
    "latitude": 18.35,
    "longitude": -71.41667
  },
  {
    "city": "Yerba de Guinea",
    "city_zh": "Yerba de Guinea",
    "country": "Dominican Republic",
    "country_zh": "多明尼加共和國",
    "country_iso_code": "DO",
    "timezone": "America/Santo_Domingo",
    "latitude": 19.58333,
    "longitude": -71.05
  },
  {
    "city": "Yerba de Culebra",
    "city_zh": "Yerba de Culebra",
    "country": "Dominican Republic",
    "country_zh": "多明尼加共和國",
    "country_iso_code": "DO",
    "timezone": "America/Santo_Domingo",
    "latitude": 19.30269,
    "longitude": -70.73172
  },
  {
    "city": "Yerba Buena",
    "city_zh": "Yerba Buena",
    "country": "Dominican Republic",
    "country_zh": "多明尼加共和國",
    "country_iso_code": "DO",
    "timezone": "America/Santo_Domingo",
    "latitude": 19.31667,
    "longitude": -70.98333
  },
  {
    "city": "Yerbabuena",
    "city_zh": "Yerbabuena",
    "country": "Dominican Republic",
    "country_zh": "多明尼加共和國",
    "country_iso_code": "DO",
    "timezone": "America/Santo_Domingo",
    "latitude": 18.77834,
    "longitude": -69.3182
  },
  {
    "city": "Yerba Buena",
    "city_zh": "Yerba Buena",
    "country": "Dominican Republic",
    "country_zh": "多明尼加共和國",
    "country_iso_code": "DO",
    "timezone": "America/Santo_Domingo",
    "latitude": 18.70112,
    "longitude": -71.76493
  },
  {
    "city": "Yerba Buena",
    "city_zh": "Yerba Buena",
    "country": "Dominican Republic",
    "country_zh": "多明尼加共和國",
    "country_iso_code": "DO",
    "timezone": "America/Santo_Domingo",
    "latitude": 18.6653,
    "longitude": -70.49994
  },
  {
    "city": "Yerba Buena",
    "city_zh": "Yerba Buena",
    "country": "Dominican Republic",
    "country_zh": "多明尼加共和國",
    "country_iso_code": "DO",
    "timezone": "America/Santo_Domingo",
    "latitude": 18.4625,
    "longitude": -70.11198
  },
  {
    "city": "Yayas de Viajama",
    "city_zh": "Yayas de Viajama",
    "country": "Dominican Republic",
    "country_zh": "多明尼加共和國",
    "country_iso_code": "DO",
    "timezone": "America/Santo_Domingo",
    "latitude": 18.6071,
    "longitude": -70.92753
  },
  {
    "city": "Yaya Picada",
    "city_zh": "Yaya Picada",
    "country": "Dominican Republic",
    "country_zh": "多明尼加共和國",
    "country_iso_code": "DO",
    "timezone": "America/Santo_Domingo",
    "latitude": 19.33716,
    "longitude": -71.48104
  },
  {
    "city": "Yaya Clara",
    "city_zh": "Yaya Clara",
    "country": "Dominican Republic",
    "country_zh": "多明尼加共和國",
    "country_iso_code": "DO",
    "timezone": "America/Santo_Domingo",
    "latitude": 18.79876,
    "longitude": -69.29114
  },
  {
    "city": "Yaví",
    "city_zh": "Yaví",
    "country": "Dominican Republic",
    "country_zh": "多明尼加共和國",
    "country_iso_code": "DO",
    "timezone": "America/Santo_Domingo",
    "latitude": 18.69785,
    "longitude": -69.73462
  },
  {
    "city": "Yaso",
    "city_zh": "Yaso",
    "country": "Dominican Republic",
    "country_zh": "多明尼加共和國",
    "country_iso_code": "DO",
    "timezone": "America/Santo_Domingo",
    "latitude": 18.95178,
    "longitude": -70.43393
  },
  {
    "city": "Yasiquita",
    "city_zh": "Yasiquita",
    "country": "Dominican Republic",
    "country_zh": "多明尼加共和國",
    "country_iso_code": "DO",
    "timezone": "America/Santo_Domingo",
    "latitude": 19.6269,
    "longitude": -70.58376
  },
  {
    "city": "Yásica Arriba",
    "city_zh": "Yásica Arriba",
    "country": "Dominican Republic",
    "country_zh": "多明尼加共和國",
    "country_iso_code": "DO",
    "timezone": "America/Santo_Domingo",
    "latitude": 19.63958,
    "longitude": -70.59695
  },
  {
    "city": "Yásica Abajo",
    "city_zh": "Yásica Abajo",
    "country": "Dominican Republic",
    "country_zh": "多明尼加共和國",
    "country_iso_code": "DO",
    "timezone": "America/Santo_Domingo",
    "latitude": 19.63054,
    "longitude": -70.59219
  },
  {
    "city": "Yaroa Abajo",
    "city_zh": "Yaroa Abajo",
    "country": "Dominican Republic",
    "country_zh": "多明尼加共和國",
    "country_iso_code": "DO",
    "timezone": "America/Santo_Domingo",
    "latitude": 19.58925,
    "longitude": -70.58866
  },
  {
    "city": "Yaroa",
    "city_zh": "Yaroa",
    "country": "Dominican Republic",
    "country_zh": "多明尼加共和國",
    "country_iso_code": "DO",
    "timezone": "America/Santo_Domingo",
    "latitude": 19.60445,
    "longitude": -70.59124
  },
  {
    "city": "Yarajima",
    "city_zh": "Yarajima",
    "country": "Dominican Republic",
    "country_zh": "多明尼加共和國",
    "country_iso_code": "DO",
    "timezone": "America/Santo_Domingo",
    "latitude": 19.58801,
    "longitude": -71.32354
  },
  {
    "city": "Yaque Arriba",
    "city_zh": "Yaque Arriba",
    "country": "Dominican Republic",
    "country_zh": "多明尼加共和國",
    "country_iso_code": "DO",
    "timezone": "America/Santo_Domingo",
    "latitude": 19.26667,
    "longitude": -70.7
  },
  {
    "city": "Yaque Abajo",
    "city_zh": "Yaque Abajo",
    "country": "Dominican Republic",
    "country_zh": "多明尼加共和國",
    "country_iso_code": "DO",
    "timezone": "America/Santo_Domingo",
    "latitude": 19.28333,
    "longitude": -70.71667
  },
  {
    "city": "Yaque",
    "city_zh": "Yaque",
    "country": "Dominican Republic",
    "country_zh": "多明尼加共和國",
    "country_iso_code": "DO",
    "timezone": "America/Santo_Domingo",
    "latitude": 19.1,
    "longitude": -70.65
  },
  {
    "city": "Yaque",
    "city_zh": "Yaque",
    "country": "Dominican Republic",
    "country_zh": "多明尼加共和國",
    "country_iso_code": "DO",
    "timezone": "America/Santo_Domingo",
    "latitude": 18.93333,
    "longitude": -70.93333
  },
  {
    "city": "Yanigua",
    "city_zh": "Yanigua",
    "country": "Dominican Republic",
    "country_zh": "多明尼加共和國",
    "country_iso_code": "DO",
    "timezone": "America/Santo_Domingo",
    "latitude": 18.97571,
    "longitude": -69.43395
  },
  {
    "city": "Yanabo",
    "city_zh": "Yanabo",
    "country": "Dominican Republic",
    "country_zh": "多明尼加共和國",
    "country_iso_code": "DO",
    "timezone": "America/Santo_Domingo",
    "latitude": 19.21667,
    "longitude": -69.98333
  },
  {
    "city": "Yamí",
    "city_zh": "Yamí",
    "country": "Dominican Republic",
    "country_zh": "多明尼加共和國",
    "country_iso_code": "DO",
    "timezone": "America/Santo_Domingo",
    "latitude": 19.22674,
    "longitude": -70.58943
  },
  {
    "city": "Yamasá",
    "city_zh": "Yamasá",
    "country": "Dominican Republic",
    "country_zh": "多明尼加共和國",
    "country_iso_code": "DO",
    "timezone": "America/Santo_Domingo",
    "latitude": 18.77315,
    "longitude": -70.02583
  },
  {
    "city": "Yaiba Arriba",
    "city_zh": "Yaiba Arriba",
    "country": "Dominican Republic",
    "country_zh": "多明尼加共和國",
    "country_iso_code": "DO",
    "timezone": "America/Santo_Domingo",
    "latitude": 19.21667,
    "longitude": -69.98333
  },
  {
    "city": "Yaiba Abajo",
    "city_zh": "Yaiba Abajo",
    "country": "Dominican Republic",
    "country_zh": "多明尼加共和國",
    "country_iso_code": "DO",
    "timezone": "America/Santo_Domingo",
    "latitude": 19.20482,
    "longitude": -70.0046
  },
  {
    "city": "Yaiba",
    "city_zh": "Yaiba",
    "country": "Dominican Republic",
    "country_zh": "多明尼加共和國",
    "country_iso_code": "DO",
    "timezone": "America/Santo_Domingo",
    "latitude": 19.16667,
    "longitude": -69.96667
  },
  {
    "city": "Yaguaza",
    "city_zh": "Yaguaza",
    "country": "Dominican Republic",
    "country_zh": "多明尼加共和國",
    "country_iso_code": "DO",
    "timezone": "America/Santo_Domingo",
    "latitude": 18.55,
    "longitude": -69.95
  },
  {
    "city": "Yaguate Arriba",
    "city_zh": "Yaguate Arriba",
    "country": "Dominican Republic",
    "country_zh": "多明尼加共和國",
    "country_iso_code": "DO",
    "timezone": "America/Santo_Domingo",
    "latitude": 18.33732,
    "longitude": -70.19155
  },
  {
    "city": "Yaguate",
    "city_zh": "Yaguate",
    "country": "Dominican Republic",
    "country_zh": "多明尼加共和國",
    "country_iso_code": "DO",
    "timezone": "America/Santo_Domingo",
    "latitude": 18.3353,
    "longitude": -70.18113
  },
  {
    "city": "Yaguarizo",
    "city_zh": "Yaguarizo",
    "country": "Dominican Republic",
    "country_zh": "多明尼加共和國",
    "country_iso_code": "DO",
    "timezone": "America/Santo_Domingo",
    "latitude": 19.71235,
    "longitude": -71.52113
  },
  {
    "city": "Yacó",
    "city_zh": "Yacó",
    "country": "Dominican Republic",
    "country_zh": "多明尼加共和國",
    "country_iso_code": "DO",
    "timezone": "America/Santo_Domingo",
    "latitude": 18.57619,
    "longitude": -70.02956
  },
  {
    "city": "Yacahueque",
    "city_zh": "Yacahueque",
    "country": "Dominican Republic",
    "country_zh": "多明尼加共和國",
    "country_iso_code": "DO",
    "timezone": "America/Santo_Domingo",
    "latitude": 19.09619,
    "longitude": -71.45564
  },
  {
    "city": "Yacahueque",
    "city_zh": "Yacahueque",
    "country": "Dominican Republic",
    "country_zh": "多明尼加共和國",
    "country_iso_code": "DO",
    "timezone": "America/Santo_Domingo",
    "latitude": 19.0,
    "longitude": -71.46667
  },
  {
    "city": "Yacahueque",
    "city_zh": "Yacahueque",
    "country": "Dominican Republic",
    "country_zh": "多明尼加共和國",
    "country_iso_code": "DO",
    "timezone": "America/Santo_Domingo",
    "latitude": 18.93333,
    "longitude": -71.51667
  },
  {
    "city": "Yabonico",
    "city_zh": "Yabonico",
    "country": "Dominican Republic",
    "country_zh": "多明尼加共和國",
    "country_iso_code": "DO",
    "timezone": "America/Santo_Domingo",
    "latitude": 18.95601,
    "longitude": -71.4193
  },
  {
    "city": "Yabón",
    "city_zh": "Yabón",
    "country": "Dominican Republic",
    "country_zh": "多明尼加共和國",
    "country_iso_code": "DO",
    "timezone": "America/Santo_Domingo",
    "latitude": 18.89675,
    "longitude": -69.19799
  },
  {
    "city": "Yábano",
    "city_zh": "Yábano",
    "country": "Dominican Republic",
    "country_zh": "多明尼加共和國",
    "country_iso_code": "DO",
    "timezone": "America/Santo_Domingo",
    "latitude": 18.7698,
    "longitude": -69.37184
  },
  {
    "city": "Yabanal",
    "city_zh": "Yabanal",
    "country": "Dominican Republic",
    "country_zh": "多明尼加共和國",
    "country_iso_code": "DO",
    "timezone": "America/Santo_Domingo",
    "latitude": 19.36281,
    "longitude": -70.63295
  },
  {
    "city": "Yabacoa",
    "city_zh": "Yabacoa",
    "country": "Dominican Republic",
    "country_zh": "多明尼加共和國",
    "country_iso_code": "DO",
    "timezone": "America/Santo_Domingo",
    "latitude": 19.21587,
    "longitude": -69.86283
  },
  {
    "city": "Yabacoa",
    "city_zh": "Yabacoa",
    "country": "Dominican Republic",
    "country_zh": "多明尼加共和國",
    "country_iso_code": "DO",
    "timezone": "America/Santo_Domingo",
    "latitude": 19.1471,
    "longitude": -70.73574
  },
  {
    "city": "Yabacao Arriba",
    "city_zh": "Yabacao Arriba",
    "country": "Dominican Republic",
    "country_zh": "多明尼加共和國",
    "country_iso_code": "DO",
    "timezone": "America/Santo_Domingo",
    "latitude": 18.65,
    "longitude": -69.73333
  },
  {
    "city": "Yabacao Abajo",
    "city_zh": "Yabacao Abajo",
    "country": "Dominican Republic",
    "country_zh": "多明尼加共和國",
    "country_iso_code": "DO",
    "timezone": "America/Santo_Domingo",
    "latitude": 18.58723,
    "longitude": -69.78887
  },
  {
    "city": "Yabacao",
    "city_zh": "Yabacao",
    "country": "Dominican Republic",
    "country_zh": "多明尼加共和國",
    "country_iso_code": "DO",
    "timezone": "America/Santo_Domingo",
    "latitude": 18.71667,
    "longitude": -69.51667
  },
  {
    "city": "Washington",
    "city_zh": "Washington",
    "country": "Dominican Republic",
    "country_zh": "多明尼加共和國",
    "country_iso_code": "DO",
    "timezone": "America/Santo_Domingo",
    "latitude": 18.75713,
    "longitude": -69.72725
  },
  {
    "city": "Vuelta Larga",
    "city_zh": "Vuelta Larga",
    "country": "Dominican Republic",
    "country_zh": "多明尼加共和國",
    "country_iso_code": "DO",
    "timezone": "America/Santo_Domingo",
    "latitude": 19.79881,
    "longitude": -70.87518
  },
  {
    "city": "Vuelta Larga",
    "city_zh": "Vuelta Larga",
    "country": "Dominican Republic",
    "country_zh": "多明尼加共和國",
    "country_iso_code": "DO",
    "timezone": "America/Santo_Domingo",
    "latitude": 19.73929,
    "longitude": -71.5055
  },
  {
    "city": "Vuelta Larga",
    "city_zh": "Vuelta Larga",
    "country": "Dominican Republic",
    "country_zh": "多明尼加共和國",
    "country_iso_code": "DO",
    "timezone": "America/Santo_Domingo",
    "latitude": 19.57964,
    "longitude": -70.82596
  },
  {
    "city": "Vuelta Grande",
    "city_zh": "Vuelta Grande",
    "country": "Dominican Republic",
    "country_zh": "多明尼加共和國",
    "country_iso_code": "DO",
    "timezone": "America/Santo_Domingo",
    "latitude": 18.68333,
    "longitude": -70.45
  },
  {
    "city": "Vuelta Grande",
    "city_zh": "Vuelta Grande",
    "country": "Dominican Republic",
    "country_zh": "多明尼加共和國",
    "country_iso_code": "DO",
    "timezone": "America/Santo_Domingo",
    "latitude": 18.58333,
    "longitude": -69.75
  },
  {
    "city": "Vuelta Grande",
    "city_zh": "Vuelta Grande",
    "country": "Dominican Republic",
    "country_zh": "多明尼加共和國",
    "country_iso_code": "DO",
    "timezone": "America/Santo_Domingo",
    "latitude": 18.53333,
    "longitude": -71.03333
  },
  {
    "city": "Vuelta Grande",
    "city_zh": "Vuelta Grande",
    "country": "Dominican Republic",
    "country_zh": "多明尼加共和國",
    "country_iso_code": "DO",
    "timezone": "America/Santo_Domingo",
    "latitude": 18.51,
    "longitude": -71.05295
  },
  {
    "city": "Vuelta de La Barranca",
    "city_zh": "Vuelta de La Barranca",
    "country": "Dominican Republic",
    "country_zh": "多明尼加共和國",
    "country_iso_code": "DO",
    "timezone": "America/Santo_Domingo",
    "latitude": 18.31667,
    "longitude": -70.3
  },
  {
    "city": "Vista Linda",
    "city_zh": "Vista Linda",
    "country": "Dominican Republic",
    "country_zh": "多明尼加共和國",
    "country_iso_code": "DO",
    "timezone": "America/Santo_Domingo",
    "latitude": 19.53002,
    "longitude": -69.91537
  },
  {
    "city": "Vista Alegre",
    "city_zh": "Vista Alegre",
    "country": "Dominican Republic",
    "country_zh": "多明尼加共和國",
    "country_iso_code": "DO",
    "timezone": "America/Santo_Domingo",
    "latitude": 19.72183,
    "longitude": -70.96352
  },
  {
    "city": "Vista Alegre",
    "city_zh": "Vista Alegre",
    "country": "Dominican Republic",
    "country_zh": "多明尼加共和國",
    "country_iso_code": "DO",
    "timezone": "America/Santo_Domingo",
    "latitude": 18.73512,
    "longitude": -70.33886
  },
  {
    "city": "Vista Alegre",
    "city_zh": "Vista Alegre",
    "country": "Dominican Republic",
    "country_zh": "多明尼加共和國",
    "country_iso_code": "DO",
    "timezone": "America/Santo_Domingo",
    "latitude": 18.7353,
    "longitude": -68.6555
  },
  {
    "city": "Virgencita",
    "city_zh": "Virgencita",
    "country": "Dominican Republic",
    "country_zh": "多明尼加共和國",
    "country_iso_code": "DO",
    "timezone": "America/Santo_Domingo",
    "latitude": 18.55351,
    "longitude": -69.45482
  },
  {
    "city": "Villila",
    "city_zh": "Villila",
    "country": "Dominican Republic",
    "country_zh": "多明尼加共和國",
    "country_iso_code": "DO",
    "timezone": "America/Santo_Domingo",
    "latitude": 18.81612,
    "longitude": -69.37447
  },
  {
    "city": "Villega",
    "city_zh": "Villega",
    "country": "Dominican Republic",
    "country_zh": "多明尼加共和國",
    "country_iso_code": "DO",
    "timezone": "America/Santo_Domingo",
    "latitude": 18.45541,
    "longitude": -70.14625
  },
  {
    "city": "Villa Verde",
    "city_zh": "Villa Verde",
    "country": "Dominican Republic",
    "country_zh": "多明尼加共和國",
    "country_iso_code": "DO",
    "timezone": "America/Santo_Domingo",
    "latitude": 18.43333,
    "longitude": -68.98333
  },
  {
    "city": "Villa Vásquez",
    "city_zh": "Villa Vásquez",
    "country": "Dominican Republic",
    "country_zh": "多明尼加共和國",
    "country_iso_code": "DO",
    "timezone": "America/Santo_Domingo",
    "latitude": 19.7411,
    "longitude": -71.4464
  },
  {
    "city": "Villa Turey",
    "city_zh": "Villa Turey",
    "country": "Dominican Republic",
    "country_zh": "多明尼加共和國",
    "country_iso_code": "DO",
    "timezone": "America/Santo_Domingo",
    "latitude": 19.21667,
    "longitude": -70.53333
  },
  {
    "city": "Villa Tapia",
    "city_zh": "Villa Tapia",
    "country": "Dominican Republic",
    "country_zh": "多明尼加共和國",
    "country_iso_code": "DO",
    "timezone": "America/Santo_Domingo",
    "latitude": 19.30084,
    "longitude": -70.42199
  },
  {
    "city": "Villa Sinda",
    "city_zh": "Villa Sinda",
    "country": "Dominican Republic",
    "country_zh": "多明尼加共和國",
    "country_iso_code": "DO",
    "timezone": "America/Santo_Domingo",
    "latitude": 19.72226,
    "longitude": -71.40201
  },
  {
    "city": "Villas del Mar",
    "city_zh": "Villas del Mar",
    "country": "Dominican Republic",
    "country_zh": "多明尼加共和國",
    "country_iso_code": "DO",
    "timezone": "America/Santo_Domingo",
    "latitude": 18.42704,
    "longitude": -69.39279
  },
  {
    "city": "Villas Agrícolas Número Uno",
    "city_zh": "Villas Agrícolas Número Uno",
    "country": "Dominican Republic",
    "country_zh": "多明尼加共和國",
    "country_iso_code": "DO",
    "timezone": "America/Santo_Domingo",
    "latitude": 18.5,
    "longitude": -69.91667
  },
  {
    "city": "Villas Agrícolas Número Dos",
    "city_zh": "Villas Agrícolas Número Dos",
    "country": "Dominican Republic",
    "country_zh": "多明尼加共和國",
    "country_iso_code": "DO",
    "timezone": "America/Santo_Domingo",
    "latitude": 18.48333,
    "longitude": -69.95
  },
  {
    "city": "Villarpando",
    "city_zh": "Villarpando",
    "country": "Dominican Republic",
    "country_zh": "多明尼加共和國",
    "country_iso_code": "DO",
    "timezone": "America/Santo_Domingo",
    "latitude": 18.6586,
    "longitude": -71.03916
  },
  {
    "city": "Villa Rosa",
    "city_zh": "Villa Rosa",
    "country": "Dominican Republic",
    "country_zh": "多明尼加共和國",
    "country_iso_code": "DO",
    "timezone": "America/Santo_Domingo",
    "latitude": 19.02203,
    "longitude": -70.10514
  },
  {
    "city": "Villa Riva",
    "city_zh": "Villa Riva",
    "country": "Dominican Republic",
    "country_zh": "多明尼加共和國",
    "country_iso_code": "DO",
    "timezone": "America/Santo_Domingo",
    "latitude": 19.18069,
    "longitude": -69.91319
  },
  {
    "city": "Villa Pión",
    "city_zh": "Villa Pión",
    "country": "Dominican Republic",
    "country_zh": "多明尼加共和國",
    "country_iso_code": "DO",
    "timezone": "America/Santo_Domingo",
    "latitude": 18.72737,
    "longitude": -68.65
  },
  {
    "city": "Villa Nueva",
    "city_zh": "Villa Nueva",
    "country": "Dominican Republic",
    "country_zh": "多明尼加共和國",
    "country_iso_code": "DO",
    "timezone": "America/Santo_Domingo",
    "latitude": 19.68888,
    "longitude": -71.43584
  },
  {
    "city": "Villa Nizao",
    "city_zh": "Villa Nizao",
    "country": "Dominican Republic",
    "country_zh": "多明尼加共和國",
    "country_iso_code": "DO",
    "timezone": "America/Santo_Domingo",
    "latitude": 18.01667,
    "longitude": -71.18333
  },
  {
    "city": "Villa Mella",
    "city_zh": "梅拉镇",
    "country": "Dominican Republic",
    "country_zh": "多明尼加共和國",
    "country_iso_code": "DO",
    "timezone": "America/Santo_Domingo",
    "latitude": 18.55082,
    "longitude": -69.9012
  },
  {
    "city": "Villa María",
    "city_zh": "Villa María",
    "country": "Dominican Republic",
    "country_zh": "多明尼加共和國",
    "country_iso_code": "DO",
    "timezone": "America/Santo_Domingo",
    "latitude": 18.48333,
    "longitude": -69.9
  },
  {
    "city": "Villa Luisa",
    "city_zh": "Villa Luisa",
    "country": "Dominican Republic",
    "country_zh": "多明尼加共和國",
    "country_iso_code": "DO",
    "timezone": "America/Santo_Domingo",
    "latitude": 18.48333,
    "longitude": -69.83333
  },
  {
    "city": "Villa Lobos Abajo",
    "city_zh": "Villa Lobos Abajo",
    "country": "Dominican Republic",
    "country_zh": "多明尼加共和國",
    "country_iso_code": "DO",
    "timezone": "America/Santo_Domingo",
    "latitude": 19.69347,
    "longitude": -71.29681
  },
  {
    "city": "Villa Lobos",
    "city_zh": "Villa Lobos",
    "country": "Dominican Republic",
    "country_zh": "多明尼加共和國",
    "country_iso_code": "DO",
    "timezone": "America/Santo_Domingo",
    "latitude": 19.67766,
    "longitude": -71.28298
  },
  {
    "city": "Villa Jaragua",
    "city_zh": "Villa Jaragua",
    "country": "Dominican Republic",
    "country_zh": "多明尼加共和國",
    "country_iso_code": "DO",
    "timezone": "America/Santo_Domingo",
    "latitude": 18.49077,
    "longitude": -71.48377
  },
  {
    "city": "Villa Isabela",
    "city_zh": "Villa Isabela",
    "country": "Dominican Republic",
    "country_zh": "多明尼加共和國",
    "country_iso_code": "DO",
    "timezone": "America/Santo_Domingo",
    "latitude": 19.81564,
    "longitude": -71.06056
  },
  {
    "city": "Villa Isabel",
    "city_zh": "Villa Isabel",
    "country": "Dominican Republic",
    "country_zh": "多明尼加共和國",
    "country_iso_code": "DO",
    "timezone": "America/Santo_Domingo",
    "latitude": 19.35,
    "longitude": -69.86667
  },
  {
    "city": "Villa Hortensia",
    "city_zh": "Villa Hortensia",
    "country": "Dominican Republic",
    "country_zh": "多明尼加共和國",
    "country_iso_code": "DO",
    "timezone": "America/Santo_Domingo",
    "latitude": 18.20206,
    "longitude": -71.15718
  },
  {
    "city": "Villa Hollywood",
    "city_zh": "Villa Hollywood",
    "country": "Dominican Republic",
    "country_zh": "多明尼加共和國",
    "country_iso_code": "DO",
    "timezone": "America/Santo_Domingo",
    "latitude": 19.21667,
    "longitude": -70.53333
  },
  {
    "city": "Villa Hermosa",
    "city_zh": "Villa Hermosa",
    "country": "Dominican Republic",
    "country_zh": "多明尼加共和國",
    "country_iso_code": "DO",
    "timezone": "America/Santo_Domingo",
    "latitude": 19.6,
    "longitude": -70.25
  },
  {
    "city": "Villa Güera",
    "city_zh": "Villa Güera",
    "country": "Dominican Republic",
    "country_zh": "多明尼加共和國",
    "country_iso_code": "DO",
    "timezone": "America/Santo_Domingo",
    "latitude": 18.31601,
    "longitude": -70.34279
  },
  {
    "city": "Villa González",
    "city_zh": "Villa González",
    "country": "Dominican Republic",
    "country_zh": "多明尼加共和國",
    "country_iso_code": "DO",
    "timezone": "America/Santo_Domingo",
    "latitude": 19.54057,
    "longitude": -70.78853
  },
  {
    "city": "Villa García",
    "city_zh": "Villa García",
    "country": "Dominican Republic",
    "country_zh": "多明尼加共和國",
    "country_iso_code": "DO",
    "timezone": "America/Santo_Domingo",
    "latitude": 19.76758,
    "longitude": -71.49679
  },
  {
    "city": "Villa Francisca",
    "city_zh": "Villa Francisca",
    "country": "Dominican Republic",
    "country_zh": "多明尼加共和國",
    "country_iso_code": "DO",
    "timezone": "America/Santo_Domingo",
    "latitude": 18.48278,
    "longitude": -69.88914
  },
  {
    "city": "Villa Esperanza",
    "city_zh": "Villa Esperanza",
    "country": "Dominican Republic",
    "country_zh": "多明尼加共和國",
    "country_iso_code": "DO",
    "timezone": "America/Santo_Domingo",
    "latitude": 19.38215,
    "longitude": -71.64454
  },
  {
    "city": "Villa Elisa",
    "city_zh": "Villa Elisa",
    "country": "Dominican Republic",
    "country_zh": "多明尼加共和國",
    "country_iso_code": "DO",
    "timezone": "America/Santo_Domingo",
    "latitude": 19.6856,
    "longitude": -71.27007
  },
  {
    "city": "Villa Duarte",
    "city_zh": "Villa Duarte",
    "country": "Dominican Republic",
    "country_zh": "多明尼加共和國",
    "country_iso_code": "DO",
    "timezone": "America/Santo_Domingo",
    "latitude": 18.4805,
    "longitude": -69.87685
  },
  {
    "city": "Villa Copa",
    "city_zh": "Villa Copa",
    "country": "Dominican Republic",
    "country_zh": "多明尼加共和國",
    "country_iso_code": "DO",
    "timezone": "America/Santo_Domingo",
    "latitude": 19.75052,
    "longitude": -71.47542
  },
  {
    "city": "Villa Consuelo",
    "city_zh": "Villa Consuelo",
    "country": "Dominican Republic",
    "country_zh": "多明尼加共和國",
    "country_iso_code": "DO",
    "timezone": "America/Santo_Domingo",
    "latitude": 18.48333,
    "longitude": -69.9
  },
  {
    "city": "Villa Clara",
    "city_zh": "Villa Clara",
    "country": "Dominican Republic",
    "country_zh": "多明尼加共和國",
    "country_iso_code": "DO",
    "timezone": "America/Santo_Domingo",
    "latitude": 19.19915,
    "longitude": -69.3082
  },
  {
    "city": "Villa Bisonó",
    "city_zh": "Villa Bisonó",
    "country": "Dominican Republic",
    "country_zh": "多明尼加共和國",
    "country_iso_code": "DO",
    "timezone": "America/Santo_Domingo",
    "latitude": 19.56378,
    "longitude": -70.87582
  },
  {
    "city": "Villa Bao",
    "city_zh": "Villa Bao",
    "country": "Dominican Republic",
    "country_zh": "多明尼加共和國",
    "country_iso_code": "DO",
    "timezone": "America/Santo_Domingo",
    "latitude": 19.44176,
    "longitude": -70.81075
  },
  {
    "city": "Villa Báez",
    "city_zh": "Villa Báez",
    "country": "Dominican Republic",
    "country_zh": "多明尼加共和國",
    "country_iso_code": "DO",
    "timezone": "America/Santo_Domingo",
    "latitude": 19.38333,
    "longitude": -70.38333
  },
  {
    "city": "Villa Anacaona",
    "city_zh": "Villa Anacaona",
    "country": "Dominican Republic",
    "country_zh": "多明尼加共和國",
    "country_iso_code": "DO",
    "timezone": "America/Santo_Domingo",
    "latitude": 19.24401,
    "longitude": -71.68576
  },
  {
    "city": "Villa Altagracia",
    "city_zh": "Villa Altagracia",
    "country": "Dominican Republic",
    "country_zh": "多明尼加共和國",
    "country_iso_code": "DO",
    "timezone": "America/Santo_Domingo",
    "latitude": 18.67297,
    "longitude": -70.17095
  },
  {
    "city": "Villa Alegre",
    "city_zh": "Villa Alegre",
    "country": "Dominican Republic",
    "country_zh": "多明尼加共和國",
    "country_iso_code": "DO",
    "timezone": "America/Santo_Domingo",
    "latitude": 19.43401,
    "longitude": -69.92694
  },
  {
    "city": "Vidal Pichardo",
    "city_zh": "Vidal Pichardo",
    "country": "Dominican Republic",
    "country_zh": "多明尼加共和國",
    "country_iso_code": "DO",
    "timezone": "America/Santo_Domingo",
    "latitude": 19.39924,
    "longitude": -70.94177
  },
  {
    "city": "Victorino",
    "city_zh": "Victorino",
    "country": "Dominican Republic",
    "country_zh": "多明尼加共和國",
    "country_iso_code": "DO",
    "timezone": "America/Santo_Domingo",
    "latitude": 18.58916,
    "longitude": -70.09393
  },
  {
    "city": "Vicentillo",
    "city_zh": "Vicentillo",
    "country": "Dominican Republic",
    "country_zh": "多明尼加共和國",
    "country_iso_code": "DO",
    "timezone": "America/Santo_Domingo",
    "latitude": 18.88384,
    "longitude": -69.20488
  },
  {
    "city": "Vicente Noble",
    "city_zh": "Vicente Noble",
    "country": "Dominican Republic",
    "country_zh": "多明尼加共和國",
    "country_iso_code": "DO",
    "timezone": "America/Santo_Domingo",
    "latitude": 18.38443,
    "longitude": -71.18009
  },
  {
    "city": "Viajama",
    "city_zh": "Viajama",
    "country": "Dominican Republic",
    "country_zh": "多明尼加共和國",
    "country_iso_code": "DO",
    "timezone": "America/Santo_Domingo",
    "latitude": 18.64122,
    "longitude": -70.8805
  },
  {
    "city": "Viajaca",
    "city_zh": "Viajaca",
    "country": "Dominican Republic",
    "country_zh": "多明尼加共和國",
    "country_iso_code": "DO",
    "timezone": "America/Santo_Domingo",
    "latitude": 19.0171,
    "longitude": -71.5749
  },
  {
    "city": "Verraco",
    "city_zh": "Verraco",
    "country": "Dominican Republic",
    "country_zh": "多明尼加共和國",
    "country_iso_code": "DO",
    "timezone": "America/Santo_Domingo",
    "latitude": 19.75296,
    "longitude": -70.99607
  },
  {
    "city": "Verraco",
    "city_zh": "Verraco",
    "country": "Dominican Republic",
    "country_zh": "多明尼加共和國",
    "country_iso_code": "DO",
    "timezone": "America/Santo_Domingo",
    "latitude": 19.43333,
    "longitude": -70.28333
  },
  {
    "city": "Vereda al Medio",
    "city_zh": "Vereda al Medio",
    "country": "Dominican Republic",
    "country_zh": "多明尼加共和國",
    "country_iso_code": "DO",
    "timezone": "America/Santo_Domingo",
    "latitude": 19.6099,
    "longitude": -70.19385
  },
  {
    "city": "Verbena",
    "city_zh": "Verbena",
    "country": "Dominican Republic",
    "country_zh": "多明尼加共和國",
    "country_iso_code": "DO",
    "timezone": "America/Santo_Domingo",
    "latitude": 19.32669,
    "longitude": -71.40886
  },
  {
    "city": "Veragua Arriba",
    "city_zh": "Veragua Arriba",
    "country": "Dominican Republic",
    "country_zh": "多明尼加共和國",
    "country_iso_code": "DO",
    "timezone": "America/Santo_Domingo",
    "latitude": 19.58333,
    "longitude": -70.33333
  },
  {
    "city": "Veragua Abajo",
    "city_zh": "Veragua Abajo",
    "country": "Dominican Republic",
    "country_zh": "多明尼加共和國",
    "country_iso_code": "DO",
    "timezone": "America/Santo_Domingo",
    "latitude": 19.65,
    "longitude": -70.33333
  },
  {
    "city": "Vera de Yuna",
    "city_zh": "Vera de Yuna",
    "country": "Dominican Republic",
    "country_zh": "多明尼加共和國",
    "country_iso_code": "DO",
    "timezone": "America/Santo_Domingo",
    "latitude": 19.07599,
    "longitude": -70.18833
  },
  {
    "city": "Vera de Amina",
    "city_zh": "Vera de Amina",
    "country": "Dominican Republic",
    "country_zh": "多明尼加共和國",
    "country_iso_code": "DO",
    "timezone": "America/Santo_Domingo",
    "latitude": 19.35766,
    "longitude": -70.98983
  },
  {
    "city": "Venú",
    "city_zh": "Venú",
    "country": "Dominican Republic",
    "country_zh": "多明尼加共和國",
    "country_iso_code": "DO",
    "timezone": "America/Santo_Domingo",
    "latitude": 19.49468,
    "longitude": -70.21579
  },
  {
    "city": "Vengan a Ver",
    "city_zh": "Vengan a Ver",
    "country": "Dominican Republic",
    "country_zh": "多明尼加共和國",
    "country_iso_code": "DO",
    "timezone": "America/Santo_Domingo",
    "latitude": 18.55,
    "longitude": -71.73333
  },
  {
    "city": "Vengan a Ver",
    "city_zh": "Vengan a Ver",
    "country": "Dominican Republic",
    "country_zh": "多明尼加共和國",
    "country_iso_code": "DO",
    "timezone": "America/Santo_Domingo",
    "latitude": 18.38931,
    "longitude": -71.54854
  },
  {
    "city": "Velázquez",
    "city_zh": "Velázquez",
    "country": "Dominican Republic",
    "country_zh": "多明尼加共和國",
    "country_iso_code": "DO",
    "timezone": "America/Santo_Domingo",
    "latitude": 18.43333,
    "longitude": -70.13333
  },
  {
    "city": "Vasca",
    "city_zh": "Vasca",
    "country": "Dominican Republic",
    "country_zh": "多明尼加共和國",
    "country_iso_code": "DO",
    "timezone": "America/Santo_Domingo",
    "latitude": 18.60475,
    "longitude": -69.2164
  },
  {
    "city": "Varo Díaz",
    "city_zh": "Varo Díaz",
    "country": "Dominican Republic",
    "country_zh": "多明尼加共和國",
    "country_iso_code": "DO",
    "timezone": "America/Santo_Domingo",
    "latitude": 18.95,
    "longitude": -71.51667
  },
  {
    "city": "Varía",
    "city_zh": "Varía",
    "country": "Dominican Republic",
    "country_zh": "多明尼加共和國",
    "country_iso_code": "DO",
    "timezone": "America/Santo_Domingo",
    "latitude": 18.50464,
    "longitude": -70.03208
  },
  {
    "city": "Vara de Vaca",
    "city_zh": "Vara de Vaca",
    "country": "Dominican Republic",
    "country_zh": "多明尼加共和國",
    "country_iso_code": "DO",
    "timezone": "America/Santo_Domingo",
    "latitude": 19.35666,
    "longitude": -71.69776
  },
  {
    "city": "Vara de Capá",
    "city_zh": "Vara de Capá",
    "country": "Dominican Republic",
    "country_zh": "多明尼加共和國",
    "country_iso_code": "DO",
    "timezone": "America/Santo_Domingo",
    "latitude": 18.90549,
    "longitude": -69.74459
  },
  {
    "city": "Valle Simón",
    "city_zh": "Valle Simón",
    "country": "Dominican Republic",
    "country_zh": "多明尼加共和國",
    "country_iso_code": "DO",
    "timezone": "America/Santo_Domingo",
    "latitude": 19.3191,
    "longitude": -71.71501
  },
  {
    "city": "Valle Nuevo",
    "city_zh": "Valle Nuevo",
    "country": "Dominican Republic",
    "country_zh": "多明尼加共和國",
    "country_iso_code": "DO",
    "timezone": "America/Santo_Domingo",
    "latitude": 19.32941,
    "longitude": -71.71794
  },
  {
    "city": "Valle Nuevo",
    "city_zh": "Valle Nuevo",
    "country": "Dominican Republic",
    "country_zh": "多明尼加共和國",
    "country_iso_code": "DO",
    "timezone": "America/Santo_Domingo",
    "latitude": 18.8,
    "longitude": -70.6823
  },
  {
    "city": "Vallejuelo",
    "city_zh": "Vallejuelo",
    "country": "Dominican Republic",
    "country_zh": "多明尼加共和國",
    "country_iso_code": "DO",
    "timezone": "America/Santo_Domingo",
    "latitude": 18.65354,
    "longitude": -71.33431
  },
  {
    "city": "Vallejo",
    "city_zh": "Vallejo",
    "country": "Dominican Republic",
    "country_zh": "多明尼加共和國",
    "country_iso_code": "DO",
    "timezone": "America/Santo_Domingo",
    "latitude": 18.57409,
    "longitude": -70.32568
  },
  {
    "city": "Valle Jina",
    "city_zh": "Valle Jina",
    "country": "Dominican Republic",
    "country_zh": "多明尼加共和國",
    "country_iso_code": "DO",
    "timezone": "America/Santo_Domingo",
    "latitude": 18.64472,
    "longitude": -68.54563
  },
  {
    "city": "Valle Grande",
    "city_zh": "Valle Grande",
    "country": "Dominican Republic",
    "country_zh": "多明尼加共和國",
    "country_iso_code": "DO",
    "timezone": "America/Santo_Domingo",
    "latitude": 19.06954,
    "longitude": -70.10971
  },
  {
    "city": "Valle Grande",
    "city_zh": "Valle Grande",
    "country": "Dominican Republic",
    "country_zh": "多明尼加共和國",
    "country_iso_code": "DO",
    "timezone": "America/Santo_Domingo",
    "latitude": 19.03858,
    "longitude": -69.9319
  },
  {
    "city": "Valle Grande",
    "city_zh": "Valle Grande",
    "country": "Dominican Republic",
    "country_zh": "多明尼加共和國",
    "country_iso_code": "DO",
    "timezone": "America/Santo_Domingo",
    "latitude": 18.87079,
    "longitude": -69.56838
  },
  {
    "city": "Valle de la Piedra de Manuel",
    "city_zh": "Valle de la Piedra de Manuel",
    "country": "Dominican Republic",
    "country_zh": "多明尼加共和國",
    "country_iso_code": "DO",
    "timezone": "America/Santo_Domingo",
    "latitude": 18.81667,
    "longitude": -70.63333
  },
  {
    "city": "Vallecito Lechugilla",
    "city_zh": "Vallecito Lechugilla",
    "country": "Dominican Republic",
    "country_zh": "多明尼加共和國",
    "country_iso_code": "DO",
    "timezone": "America/Santo_Domingo",
    "latitude": 18.78333,
    "longitude": -70.68333
  },
  {
    "city": "Vallecito",
    "city_zh": "Vallecito",
    "country": "Dominican Republic",
    "country_zh": "多明尼加共和國",
    "country_iso_code": "DO",
    "timezone": "America/Santo_Domingo",
    "latitude": 19.45891,
    "longitude": -71.54378
  },
  {
    "city": "Vallecito",
    "city_zh": "Vallecito",
    "country": "Dominican Republic",
    "country_zh": "多明尼加共和國",
    "country_iso_code": "DO",
    "timezone": "America/Santo_Domingo",
    "latitude": 18.88333,
    "longitude": -70.91667
  },
  {
    "city": "Valiente",
    "city_zh": "Valiente",
    "country": "Dominican Republic",
    "country_zh": "多明尼加共和國",
    "country_iso_code": "DO",
    "timezone": "America/Santo_Domingo",
    "latitude": 18.45888,
    "longitude": -69.71392
  },
  {
    "city": "Valerio",
    "city_zh": "Valerio",
    "country": "Dominican Republic",
    "country_zh": "多明尼加共和國",
    "country_iso_code": "DO",
    "timezone": "America/Santo_Domingo",
    "latitude": 18.92457,
    "longitude": -70.46287
  },
  {
    "city": "Valentín",
    "city_zh": "Valentín",
    "country": "Dominican Republic",
    "country_zh": "多明尼加共和國",
    "country_iso_code": "DO",
    "timezone": "America/Santo_Domingo",
    "latitude": 19.15073,
    "longitude": -71.48597
  },
  {
    "city": "Valentín",
    "city_zh": "Valentín",
    "country": "Dominican Republic",
    "country_zh": "多明尼加共和國",
    "country_iso_code": "DO",
    "timezone": "America/Santo_Domingo",
    "latitude": 18.6148,
    "longitude": -69.65887
  },
  {
    "city": "Valentín",
    "city_zh": "Valentín",
    "country": "Dominican Republic",
    "country_zh": "多明尼加共和國",
    "country_iso_code": "DO",
    "timezone": "America/Santo_Domingo",
    "latitude": 18.57407,
    "longitude": -70.4281
  },
  {
    "city": "Valentín",
    "city_zh": "Valentín",
    "country": "Dominican Republic",
    "country_zh": "多明尼加共和國",
    "country_iso_code": "DO",
    "timezone": "America/Santo_Domingo",
    "latitude": 18.47578,
    "longitude": -70.26877
  },
  {
    "city": "Valdesia",
    "city_zh": "Valdesia",
    "country": "Dominican Republic",
    "country_zh": "多明尼加共和國",
    "country_iso_code": "DO",
    "timezone": "America/Santo_Domingo",
    "latitude": 18.41411,
    "longitude": -70.27911
  },
  {
    "city": "Vaca Vieja",
    "city_zh": "Vaca Vieja",
    "country": "Dominican Republic",
    "country_zh": "多明尼加共和國",
    "country_iso_code": "DO",
    "timezone": "America/Santo_Domingo",
    "latitude": 19.5605,
    "longitude": -71.46507
  },
  {
    "city": "Vaca Gorda",
    "city_zh": "Vaca Gorda",
    "country": "Dominican Republic",
    "country_zh": "多明尼加共和國",
    "country_iso_code": "DO",
    "timezone": "America/Santo_Domingo",
    "latitude": 19.5,
    "longitude": -71.55
  },
  {
    "city": "Vaca Gorda",
    "city_zh": "Vaca Gorda",
    "country": "Dominican Republic",
    "country_zh": "多明尼加共和國",
    "country_iso_code": "DO",
    "timezone": "America/Santo_Domingo",
    "latitude": 19.45968,
    "longitude": -71.51412
  },
  {
    "city": "Uvero Alto",
    "city_zh": "Uvero Alto",
    "country": "Dominican Republic",
    "country_zh": "多明尼加共和國",
    "country_iso_code": "DO",
    "timezone": "America/Santo_Domingo",
    "latitude": 18.8109,
    "longitude": -68.57947
  },
  {
    "city": "Uveral",
    "city_zh": "Uveral",
    "country": "Dominican Republic",
    "country_zh": "多明尼加共和國",
    "country_iso_code": "DO",
    "timezone": "America/Santo_Domingo",
    "latitude": 19.41667,
    "longitude": -70.61667
  },
  {
    "city": "Unijica",
    "city_zh": "Unijica",
    "country": "Dominican Republic",
    "country_zh": "多明尼加共和國",
    "country_iso_code": "DO",
    "timezone": "America/Santo_Domingo",
    "latitude": 19.77945,
    "longitude": -71.03611
  },
  {
    "city": "Tuningo",
    "city_zh": "Tuningo",
    "country": "Dominican Republic",
    "country_zh": "多明尼加共和國",
    "country_iso_code": "DO",
    "timezone": "America/Santo_Domingo",
    "latitude": 18.91337,
    "longitude": -69.45712
  },
  {
    "city": "Tumbacoco",
    "city_zh": "Tumbacoco",
    "country": "Dominican Republic",
    "country_zh": "多明尼加共和國",
    "country_iso_code": "DO",
    "timezone": "America/Santo_Domingo",
    "latitude": 18.85477,
    "longitude": -71.52193
  },
  {
    "city": "Tumbaca",
    "city_zh": "Tumbaca",
    "country": "Dominican Republic",
    "country_zh": "多明尼加共和國",
    "country_iso_code": "DO",
    "timezone": "America/Santo_Domingo",
    "latitude": 18.53333,
    "longitude": -70.48333
  },
  {
    "city": "Tu Lo Verás",
    "city_zh": "Tu Lo Verás",
    "country": "Dominican Republic",
    "country_zh": "多明尼加共和國",
    "country_iso_code": "DO",
    "timezone": "America/Santo_Domingo",
    "latitude": 19.10537,
    "longitude": -69.84847
  },
  {
    "city": "Tubagua",
    "city_zh": "Tubagua",
    "country": "Dominican Republic",
    "country_zh": "多明尼加共和國",
    "country_iso_code": "DO",
    "timezone": "America/Santo_Domingo",
    "latitude": 19.66667,
    "longitude": -70.61667
  },
  {
    "city": "Tu Arena",
    "city_zh": "Tu Arena",
    "country": "Dominican Republic",
    "country_zh": "多明尼加共和國",
    "country_iso_code": "DO",
    "timezone": "America/Santo_Domingo",
    "latitude": 19.49039,
    "longitude": -70.04398
  },
  {
    "city": "Trujillo del Yuna",
    "city_zh": "Trujillo del Yuna",
    "country": "Dominican Republic",
    "country_zh": "多明尼加共和國",
    "country_iso_code": "DO",
    "timezone": "America/Santo_Domingo",
    "latitude": 19.15,
    "longitude": -69.69999
  },
  {
    "city": "Triple San Pedro",
    "city_zh": "Triple San Pedro",
    "country": "Dominican Republic",
    "country_zh": "多明尼加共和國",
    "country_iso_code": "DO",
    "timezone": "America/Santo_Domingo",
    "latitude": 18.9143,
    "longitude": -69.94007
  },
  {
    "city": "Triple Ozama",
    "city_zh": "Triple Ozama",
    "country": "Dominican Republic",
    "country_zh": "多明尼加共和國",
    "country_iso_code": "DO",
    "timezone": "America/Santo_Domingo",
    "latitude": 18.80977,
    "longitude": -69.94071
  },
  {
    "city": "Trinitaria",
    "city_zh": "Trinitaria",
    "country": "Dominican Republic",
    "country_zh": "多明尼加共和國",
    "country_iso_code": "DO",
    "timezone": "America/Santo_Domingo",
    "latitude": 19.35105,
    "longitude": -71.73274
  },
  {
    "city": "Trinidad",
    "city_zh": "Trinidad",
    "country": "Dominican Republic",
    "country_zh": "多明尼加共和國",
    "country_iso_code": "DO",
    "timezone": "America/Santo_Domingo",
    "latitude": 18.82934,
    "longitude": -69.50961
  },
  {
    "city": "Trifurcación",
    "city_zh": "Trifurcación",
    "country": "Dominican Republic",
    "country_zh": "多明尼加共和國",
    "country_iso_code": "DO",
    "timezone": "America/Santo_Domingo",
    "latitude": 19.08218,
    "longitude": -70.20046
  },
  {
    "city": "Tres Piezas",
    "city_zh": "Tres Piezas",
    "country": "Dominican Republic",
    "country_zh": "多明尼加共和國",
    "country_iso_code": "DO",
    "timezone": "America/Santo_Domingo",
    "latitude": 18.71237,
    "longitude": -68.52617
  },
  {
    "city": "Tres Pies",
    "city_zh": "Tres Pies",
    "country": "Dominican Republic",
    "country_zh": "多明尼加共和國",
    "country_iso_code": "DO",
    "timezone": "America/Santo_Domingo",
    "latitude": 19.4376,
    "longitude": -70.2223
  },
  {
    "city": "Tres Mangas",
    "city_zh": "Tres Mangas",
    "country": "Dominican Republic",
    "country_zh": "多明尼加共和國",
    "country_iso_code": "DO",
    "timezone": "America/Santo_Domingo",
    "latitude": 18.91667,
    "longitude": -71.45
  },
  {
    "city": "Tres Hermanos",
    "city_zh": "Tres Hermanos",
    "country": "Dominican Republic",
    "country_zh": "多明尼加共和國",
    "country_iso_code": "DO",
    "timezone": "America/Santo_Domingo",
    "latitude": 18.25143,
    "longitude": -68.76772
  },
  {
    "city": "Tres Ceibas",
    "city_zh": "Tres Ceibas",
    "country": "Dominican Republic",
    "country_zh": "多明尼加共和國",
    "country_iso_code": "DO",
    "timezone": "America/Santo_Domingo",
    "latitude": 19.59823,
    "longitude": -70.11141
  },
  {
    "city": "Trepada Alta",
    "city_zh": "Trepada Alta",
    "country": "Dominican Republic",
    "country_zh": "多明尼加共和國",
    "country_iso_code": "DO",
    "timezone": "America/Santo_Domingo",
    "latitude": 18.99656,
    "longitude": -69.49123
  },
  {
    "city": "Trapiche",
    "city_zh": "Trapiche",
    "country": "Dominican Republic",
    "country_zh": "多明尼加共和國",
    "country_iso_code": "DO",
    "timezone": "America/Santo_Domingo",
    "latitude": 18.56667,
    "longitude": -70.38333
  },
  {
    "city": "Trampa Legal",
    "city_zh": "Trampa Legal",
    "country": "Dominican Republic",
    "country_zh": "多明尼加共和國",
    "country_iso_code": "DO",
    "timezone": "America/Santo_Domingo",
    "latitude": 18.58166,
    "longitude": -69.22516
  },
  {
    "city": "Trabajo",
    "city_zh": "Trabajo",
    "country": "Dominican Republic",
    "country_zh": "多明尼加共和國",
    "country_iso_code": "DO",
    "timezone": "America/Santo_Domingo",
    "latitude": 18.86671,
    "longitude": -70.42002
  },
  {
    "city": "Totoñoso",
    "city_zh": "Totoñoso",
    "country": "Dominican Republic",
    "country_zh": "多明尼加共和國",
    "country_iso_code": "DO",
    "timezone": "America/Santo_Domingo",
    "latitude": 18.41667,
    "longitude": -70.23333
  },
  {
    "city": "Tosa",
    "city_zh": "Tosa",
    "country": "Dominican Republic",
    "country_zh": "多明尼加共和國",
    "country_iso_code": "DO",
    "timezone": "America/Santo_Domingo",
    "latitude": 18.56667,
    "longitude": -69.83333
  },
  {
    "city": "Toro Cenizo",
    "city_zh": "Toro Cenizo",
    "country": "Dominican Republic",
    "country_zh": "多明尼加共和國",
    "country_iso_code": "DO",
    "timezone": "America/Santo_Domingo",
    "latitude": 19.26667,
    "longitude": -70.41667
  },
  {
    "city": "Toro",
    "city_zh": "Toro",
    "country": "Dominican Republic",
    "country_zh": "多明尼加共和國",
    "country_iso_code": "DO",
    "timezone": "America/Santo_Domingo",
    "latitude": 18.42969,
    "longitude": -70.14101
  },
  {
    "city": "Toribio",
    "city_zh": "Toribio",
    "country": "Dominican Republic",
    "country_zh": "多明尼加共和國",
    "country_iso_code": "DO",
    "timezone": "America/Santo_Domingo",
    "latitude": 19.30579,
    "longitude": -71.34849
  },
  {
    "city": "Tomines",
    "city_zh": "Tomines",
    "country": "Dominican Republic",
    "country_zh": "多明尼加共和國",
    "country_iso_code": "DO",
    "timezone": "America/Santo_Domingo",
    "latitude": 19.48243,
    "longitude": -71.30955
  },
  {
    "city": "Toma",
    "city_zh": "Toma",
    "country": "Dominican Republic",
    "country_zh": "多明尼加共和國",
    "country_iso_code": "DO",
    "timezone": "America/Santo_Domingo",
    "latitude": 19.34481,
    "longitude": -71.29552
  },
  {
    "city": "Tollín",
    "city_zh": "Tollín",
    "country": "Dominican Republic",
    "country_zh": "多明尼加共和國",
    "country_iso_code": "DO",
    "timezone": "America/Santo_Domingo",
    "latitude": 18.81667,
    "longitude": -68.96667
  },
  {
    "city": "Tolentino",
    "city_zh": "Tolentino",
    "country": "Dominican Republic",
    "country_zh": "多明尼加共和國",
    "country_iso_code": "DO",
    "timezone": "America/Santo_Domingo",
    "latitude": 18.69588,
    "longitude": -69.59471
  },
  {
    "city": "Tojín",
    "city_zh": "Tojín",
    "country": "Dominican Republic",
    "country_zh": "多明尼加共和國",
    "country_iso_code": "DO",
    "timezone": "America/Santo_Domingo",
    "latitude": 18.94443,
    "longitude": -70.09316
  },
  {
    "city": "Tocoa",
    "city_zh": "Tocoa",
    "country": "Dominican Republic",
    "country_zh": "多明尼加共和國",
    "country_iso_code": "DO",
    "timezone": "America/Santo_Domingo",
    "latitude": 18.9,
    "longitude": -70.2
  },
  {
    "city": "Tocino",
    "city_zh": "Tocino",
    "country": "Dominican Republic",
    "country_zh": "多明尼加共和國",
    "country_iso_code": "DO",
    "timezone": "America/Santo_Domingo",
    "latitude": 19.0886,
    "longitude": -71.53082
  },
  {
    "city": "Tocino",
    "city_zh": "Tocino",
    "country": "Dominican Republic",
    "country_zh": "多明尼加共和國",
    "country_iso_code": "DO",
    "timezone": "America/Santo_Domingo",
    "latitude": 19.05,
    "longitude": -71.7
  },
  {
    "city": "Titomina",
    "city_zh": "Titomina",
    "country": "Dominican Republic",
    "country_zh": "多明尼加共和國",
    "country_iso_code": "DO",
    "timezone": "America/Santo_Domingo",
    "latitude": 18.54566,
    "longitude": -70.72826
  },
  {
    "city": "Tireo Arriba",
    "city_zh": "Tireo Arriba",
    "country": "Dominican Republic",
    "country_zh": "多明尼加共和國",
    "country_iso_code": "DO",
    "timezone": "America/Santo_Domingo",
    "latitude": 18.93537,
    "longitude": -70.6885
  },
  {
    "city": "Tireo al Medio",
    "city_zh": "Tireo al Medio",
    "country": "Dominican Republic",
    "country_zh": "多明尼加共和國",
    "country_iso_code": "DO",
    "timezone": "America/Santo_Domingo",
    "latitude": 18.93412,
    "longitude": -70.68818
  },
  {
    "city": "Tireo Abajo",
    "city_zh": "Tireo Abajo",
    "country": "Dominican Republic",
    "country_zh": "多明尼加共和國",
    "country_iso_code": "DO",
    "timezone": "America/Santo_Domingo",
    "latitude": 18.93333,
    "longitude": -70.66667
  },
  {
    "city": "Tío Pepe",
    "city_zh": "Tío Pepe",
    "country": "Dominican Republic",
    "country_zh": "多明尼加共和國",
    "country_iso_code": "DO",
    "timezone": "America/Santo_Domingo",
    "latitude": 19.00899,
    "longitude": -69.43164
  },
  {
    "city": "Tío Pedro",
    "city_zh": "Tío Pedro",
    "country": "Dominican Republic",
    "country_zh": "多明尼加共和國",
    "country_iso_code": "DO",
    "timezone": "America/Santo_Domingo",
    "latitude": 18.80494,
    "longitude": -69.01808
  },
  {
    "city": "Timbeque",
    "city_zh": "Timbeque",
    "country": "Dominican Republic",
    "country_zh": "多明尼加共和國",
    "country_iso_code": "DO",
    "timezone": "America/Santo_Domingo",
    "latitude": 18.48333,
    "longitude": -69.88333
  },
  {
    "city": "Tierra Virgen",
    "city_zh": "Tierra Virgen",
    "country": "Dominican Republic",
    "country_zh": "多明尼加共和國",
    "country_iso_code": "DO",
    "timezone": "America/Santo_Domingo",
    "latitude": 18.62375,
    "longitude": -71.87822
  },
  {
    "city": "Tierra Sucia",
    "city_zh": "Tierra Sucia",
    "country": "Dominican Republic",
    "country_zh": "多明尼加共和國",
    "country_iso_code": "DO",
    "timezone": "America/Santo_Domingo",
    "latitude": 19.33268,
    "longitude": -71.69182
  },
  {
    "city": "Tierra Sucia",
    "city_zh": "Tierra Sucia",
    "country": "Dominican Republic",
    "country_zh": "多明尼加共和國",
    "country_iso_code": "DO",
    "timezone": "America/Santo_Domingo",
    "latitude": 19.3,
    "longitude": -71.65
  },
  {
    "city": "Tierra Nueva",
    "city_zh": "Tierra Nueva",
    "country": "Dominican Republic",
    "country_zh": "多明尼加共和國",
    "country_iso_code": "DO",
    "timezone": "America/Santo_Domingo",
    "latitude": 18.58972,
    "longitude": -71.91097
  },
  {
    "city": "Tierra Morada",
    "city_zh": "Tierra Morada",
    "country": "Dominican Republic",
    "country_zh": "多明尼加共和國",
    "country_iso_code": "DO",
    "timezone": "America/Santo_Domingo",
    "latitude": 18.82039,
    "longitude": -69.47022
  },
  {
    "city": "Tierra Mala",
    "city_zh": "Tierra Mala",
    "country": "Dominican Republic",
    "country_zh": "多明尼加共和國",
    "country_iso_code": "DO",
    "timezone": "America/Santo_Domingo",
    "latitude": 18.81415,
    "longitude": -70.04039
  },
  {
    "city": "Tierra Llana",
    "city_zh": "Tierra Llana",
    "country": "Dominican Republic",
    "country_zh": "多明尼加共和國",
    "country_iso_code": "DO",
    "timezone": "America/Santo_Domingo",
    "latitude": 18.11055,
    "longitude": -71.13322
  },
  {
    "city": "Tierra Hundida",
    "city_zh": "Tierra Hundida",
    "country": "Dominican Republic",
    "country_zh": "多明尼加共和國",
    "country_iso_code": "DO",
    "timezone": "America/Santo_Domingo",
    "latitude": 18.98341,
    "longitude": -71.71133
  },
  {
    "city": "Tierra Hundida",
    "city_zh": "Tierra Hundida",
    "country": "Dominican Republic",
    "country_zh": "多明尼加共和國",
    "country_iso_code": "DO",
    "timezone": "America/Santo_Domingo",
    "latitude": 18.72358,
    "longitude": -71.53523
  },
  {
    "city": "Tierra Fría",
    "city_zh": "Tierra Fría",
    "country": "Dominican Republic",
    "country_zh": "多明尼加共和國",
    "country_iso_code": "DO",
    "timezone": "America/Santo_Domingo",
    "latitude": 19.54144,
    "longitude": -70.96887
  },
  {
    "city": "Tierra Dura",
    "city_zh": "Tierra Dura",
    "country": "Dominican Republic",
    "country_zh": "多明尼加共和國",
    "country_iso_code": "DO",
    "timezone": "America/Santo_Domingo",
    "latitude": 19.37943,
    "longitude": -70.57648
  },
  {
    "city": "Tierra Colorada",
    "city_zh": "Tierra Colorada",
    "country": "Dominican Republic",
    "country_zh": "多明尼加共和國",
    "country_iso_code": "DO",
    "timezone": "America/Santo_Domingo",
    "latitude": 19.24858,
    "longitude": -70.96551
  },
  {
    "city": "Tierra Colorada",
    "city_zh": "Tierra Colorada",
    "country": "Dominican Republic",
    "country_zh": "多明尼加共和國",
    "country_iso_code": "DO",
    "timezone": "America/Santo_Domingo",
    "latitude": 18.65118,
    "longitude": -71.79821
  },
  {
    "city": "Tierra Blanca",
    "city_zh": "Tierra Blanca",
    "country": "Dominican Republic",
    "country_zh": "多明尼加共和國",
    "country_iso_code": "DO",
    "timezone": "America/Santo_Domingo",
    "latitude": 19.58333,
    "longitude": -70.11667
  },
  {
    "city": "Tierra Blanca",
    "city_zh": "Tierra Blanca",
    "country": "Dominican Republic",
    "country_zh": "多明尼加共和國",
    "country_iso_code": "DO",
    "timezone": "America/Santo_Domingo",
    "latitude": 18.58996,
    "longitude": -69.67673
  },
  {
    "city": "Tierra Blanca",
    "city_zh": "Tierra Blanca",
    "country": "Dominican Republic",
    "country_zh": "多明尼加共和國",
    "country_iso_code": "DO",
    "timezone": "America/Santo_Domingo",
    "latitude": 18.25,
    "longitude": -71.21667
  },
  {
    "city": "Tibursio",
    "city_zh": "Tibursio",
    "country": "Dominican Republic",
    "country_zh": "多明尼加共和國",
    "country_iso_code": "DO",
    "timezone": "America/Santo_Domingo",
    "latitude": 18.94229,
    "longitude": -70.72879
  },
  {
    "city": "Tiburcio",
    "city_zh": "Tiburcio",
    "country": "Dominican Republic",
    "country_zh": "多明尼加共和國",
    "country_iso_code": "DO",
    "timezone": "America/Santo_Domingo",
    "latitude": 19.80479,
    "longitude": -71.22732
  },
  {
    "city": "Tetén",
    "city_zh": "Tetén",
    "country": "Dominican Republic",
    "country_zh": "多明尼加共和國",
    "country_iso_code": "DO",
    "timezone": "America/Santo_Domingo",
    "latitude": 19.64992,
    "longitude": -69.91978
  },
  {
    "city": "Terrero",
    "city_zh": "Terrero",
    "country": "Dominican Republic",
    "country_zh": "多明尼加共和國",
    "country_iso_code": "DO",
    "timezone": "America/Santo_Domingo",
    "latitude": 19.19063,
    "longitude": -70.52664
  },
  {
    "city": "Terrero",
    "city_zh": "Terrero",
    "country": "Dominican Republic",
    "country_zh": "多明尼加共和國",
    "country_iso_code": "DO",
    "timezone": "America/Santo_Domingo",
    "latitude": 18.84493,
    "longitude": -69.75393
  },
  {
    "city": "Teresandón",
    "city_zh": "Teresandón",
    "country": "Dominican Republic",
    "country_zh": "多明尼加共和國",
    "country_iso_code": "DO",
    "timezone": "America/Santo_Domingo",
    "latitude": 18.45785,
    "longitude": -70.04154
  },
  {
    "city": "Tentación",
    "city_zh": "Tentación",
    "country": "Dominican Republic",
    "country_zh": "多明尼加共和國",
    "country_iso_code": "DO",
    "timezone": "America/Santo_Domingo",
    "latitude": 18.52854,
    "longitude": -69.61454
  },
  {
    "city": "Tenares",
    "city_zh": "Tenares",
    "country": "Dominican Republic",
    "country_zh": "多明尼加共和國",
    "country_iso_code": "DO",
    "timezone": "America/Santo_Domingo",
    "latitude": 19.37439,
    "longitude": -70.35087
  },
  {
    "city": "Telanza",
    "city_zh": "Telanza",
    "country": "Dominican Republic",
    "country_zh": "多明尼加共和國",
    "country_iso_code": "DO",
    "timezone": "America/Santo_Domingo",
    "latitude": 19.33056,
    "longitude": -69.87529
  },
  {
    "city": "Tedeche",
    "city_zh": "Tedeche",
    "country": "Dominican Republic",
    "country_zh": "多明尼加共和國",
    "country_iso_code": "DO",
    "timezone": "America/Santo_Domingo",
    "latitude": 18.94427,
    "longitude": -69.24286
  },
  {
    "city": "Tavera Arriba",
    "city_zh": "Tavera Arriba",
    "country": "Dominican Republic",
    "country_zh": "多明尼加共和國",
    "country_iso_code": "DO",
    "timezone": "America/Santo_Domingo",
    "latitude": 19.28333,
    "longitude": -70.65
  },
  {
    "city": "Tavera Abajo",
    "city_zh": "Tavera Abajo",
    "country": "Dominican Republic",
    "country_zh": "多明尼加共和國",
    "country_iso_code": "DO",
    "timezone": "America/Santo_Domingo",
    "latitude": 19.26629,
    "longitude": -70.67152
  },
  {
    "city": "Tatón",
    "city_zh": "Tatón",
    "country": "Dominican Republic",
    "country_zh": "多明尼加共和國",
    "country_iso_code": "DO",
    "timezone": "America/Santo_Domingo",
    "latitude": 18.55,
    "longitude": -70.43333
  },
  {
    "city": "Tasajera",
    "city_zh": "Tasajera",
    "country": "Dominican Republic",
    "country_zh": "多明尼加共和國",
    "country_iso_code": "DO",
    "timezone": "America/Santo_Domingo",
    "latitude": 19.83728,
    "longitude": -70.98867
  },
  {
    "city": "Tasajera",
    "city_zh": "Tasajera",
    "country": "Dominican Republic",
    "country_zh": "多明尼加共和國",
    "country_iso_code": "DO",
    "timezone": "America/Santo_Domingo",
    "latitude": 18.73333,
    "longitude": -70.75
  },
  {
    "city": "Taranal",
    "city_zh": "Taranal",
    "country": "Dominican Republic",
    "country_zh": "多明尼加共和國",
    "country_iso_code": "DO",
    "timezone": "America/Santo_Domingo",
    "latitude": 19.05,
    "longitude": -69.98333
  },
  {
    "city": "Tamboril",
    "city_zh": "Tamboril",
    "country": "Dominican Republic",
    "country_zh": "多明尼加共和國",
    "country_iso_code": "DO",
    "timezone": "America/Santo_Domingo",
    "latitude": 19.48538,
    "longitude": -70.61104
  },
  {
    "city": "Tamayo",
    "city_zh": "Tamayo",
    "country": "Dominican Republic",
    "country_zh": "多明尼加共和國",
    "country_iso_code": "DO",
    "timezone": "America/Santo_Domingo",
    "latitude": 18.3947,
    "longitude": -71.2029
  },
  {
    "city": "Tamarindo del Norte",
    "city_zh": "Tamarindo del Norte",
    "country": "Dominican Republic",
    "country_zh": "多明尼加共和國",
    "country_iso_code": "DO",
    "timezone": "America/Santo_Domingo",
    "latitude": 18.52684,
    "longitude": -69.82975
  },
  {
    "city": "Tamares",
    "city_zh": "Tamares",
    "country": "Dominican Republic",
    "country_zh": "多明尼加共和國",
    "country_iso_code": "DO",
    "timezone": "America/Santo_Domingo",
    "latitude": 19.8,
    "longitude": -71.15
  },
  {
    "city": "Tallota",
    "city_zh": "Tallota",
    "country": "Dominican Republic",
    "country_zh": "多明尼加共和國",
    "country_iso_code": "DO",
    "timezone": "America/Santo_Domingo",
    "latitude": 18.45,
    "longitude": -70.38333
  },
  {
    "city": "Talanquera",
    "city_zh": "Talanquera",
    "country": "Dominican Republic",
    "country_zh": "多明尼加共和國",
    "country_iso_code": "DO",
    "timezone": "America/Santo_Domingo",
    "latitude": 19.57321,
    "longitude": -71.5243
  },
  {
    "city": "Tabique",
    "city_zh": "Tabique",
    "country": "Dominican Republic",
    "country_zh": "多明尼加共和國",
    "country_iso_code": "DO",
    "timezone": "America/Santo_Domingo",
    "latitude": 19.54148,
    "longitude": -71.54055
  },
  {
    "city": "Tabique",
    "city_zh": "Tabique",
    "country": "Dominican Republic",
    "country_zh": "多明尼加共和國",
    "country_iso_code": "DO",
    "timezone": "America/Santo_Domingo",
    "latitude": 19.52184,
    "longitude": -71.54234
  },
  {
    "city": "Tábila",
    "city_zh": "Tábila",
    "country": "Dominican Republic",
    "country_zh": "多明尼加共和國",
    "country_iso_code": "DO",
    "timezone": "America/Santo_Domingo",
    "latitude": 18.65,
    "longitude": -69.41667
  },
  {
    "city": "Tábara Arriba",
    "city_zh": "Tábara Arriba",
    "country": "Dominican Republic",
    "country_zh": "多明尼加共和國",
    "country_iso_code": "DO",
    "timezone": "America/Santo_Domingo",
    "latitude": 18.56999,
    "longitude": -70.87978
  },
  {
    "city": "Tábara Abajo",
    "city_zh": "Tábara Abajo",
    "country": "Dominican Republic",
    "country_zh": "多明尼加共和國",
    "country_iso_code": "DO",
    "timezone": "America/Santo_Domingo",
    "latitude": 18.47165,
    "longitude": -70.89634
  },
  {
    "city": "Suriel",
    "city_zh": "Suriel",
    "country": "Dominican Republic",
    "country_zh": "多明尼加共和國",
    "country_iso_code": "DO",
    "timezone": "America/Santo_Domingo",
    "latitude": 18.96817,
    "longitude": -70.70075
  },
  {
    "city": "Suiza",
    "city_zh": "Suiza",
    "country": "Dominican Republic",
    "country_zh": "多明尼加共和國",
    "country_iso_code": "DO",
    "timezone": "America/Santo_Domingo",
    "latitude": 18.44,
    "longitude": -70.12679
  },
  {
    "city": "Suero",
    "city_zh": "Suero",
    "country": "Dominican Republic",
    "country_zh": "多明尼加共和國",
    "country_iso_code": "DO",
    "timezone": "America/Santo_Domingo",
    "latitude": 18.51399,
    "longitude": -68.42712
  },
  {
    "city": "Subida del Puerto",
    "city_zh": "Subida del Puerto",
    "country": "Dominican Republic",
    "country_zh": "多明尼加共和國",
    "country_iso_code": "DO",
    "timezone": "America/Santo_Domingo",
    "latitude": 19.83252,
    "longitude": -70.96367
  },
  {
    "city": "Subida del Puerto",
    "city_zh": "Subida del Puerto",
    "country": "Dominican Republic",
    "country_zh": "多明尼加共和國",
    "country_iso_code": "DO",
    "timezone": "America/Santo_Domingo",
    "latitude": 19.00277,
    "longitude": -71.63632
  },
  {
    "city": "Subida de los Muertos",
    "city_zh": "Subida de los Muertos",
    "country": "Dominican Republic",
    "country_zh": "多明尼加共和國",
    "country_iso_code": "DO",
    "timezone": "America/Santo_Domingo",
    "latitude": 19.81295,
    "longitude": -70.95642
  },
  {
    "city": "Suárez",
    "city_zh": "Suárez",
    "country": "Dominican Republic",
    "country_zh": "多明尼加共和國",
    "country_iso_code": "DO",
    "timezone": "America/Santo_Domingo",
    "latitude": 19.28656,
    "longitude": -70.57272
  },
  {
    "city": "Suárez",
    "city_zh": "Suárez",
    "country": "Dominican Republic",
    "country_zh": "多明尼加共和國",
    "country_iso_code": "DO",
    "timezone": "America/Santo_Domingo",
    "latitude": 18.78333,
    "longitude": -71.28333
  },
  {
    "city": "Suardí",
    "city_zh": "Suardí",
    "country": "Dominican Republic",
    "country_zh": "多明尼加共和國",
    "country_iso_code": "DO",
    "timezone": "America/Santo_Domingo",
    "latitude": 18.71845,
    "longitude": -70.38601
  },
  {
    "city": "Soufflet Grande",
    "city_zh": "Soufflet Grande",
    "country": "Dominican Republic",
    "country_zh": "多明尼加共和國",
    "country_iso_code": "DO",
    "timezone": "America/Santo_Domingo",
    "latitude": 19.85701,
    "longitude": -70.88884
  },
  {
    "city": "Soto y La Pocilga",
    "city_zh": "Soto y La Pocilga",
    "country": "Dominican Republic",
    "country_zh": "多明尼加共和國",
    "country_iso_code": "DO",
    "timezone": "America/Santo_Domingo",
    "latitude": 19.24668,
    "longitude": -70.52257
  },
  {
    "city": "Sosúa Abajo",
    "city_zh": "Sosúa Abajo",
    "country": "Dominican Republic",
    "country_zh": "多明尼加共和國",
    "country_iso_code": "DO",
    "timezone": "America/Santo_Domingo",
    "latitude": 19.74035,
    "longitude": -70.51584
  },
  {
    "city": "El Batey",
    "city_zh": "El Batey",
    "country": "Dominican Republic",
    "country_zh": "多明尼加共和國",
    "country_iso_code": "DO",
    "timezone": "America/Santo_Domingo",
    "latitude": 19.76667,
    "longitude": -70.51667
  },
  {
    "city": "Sosúa",
    "city_zh": "Sosúa",
    "country": "Dominican Republic",
    "country_zh": "多明尼加共和國",
    "country_iso_code": "DO",
    "timezone": "America/Santo_Domingo",
    "latitude": 19.7522,
    "longitude": -70.51995
  },
  {
    "city": "Sosa",
    "city_zh": "Sosa",
    "country": "Dominican Republic",
    "country_zh": "多明尼加共和國",
    "country_iso_code": "DO",
    "timezone": "America/Santo_Domingo",
    "latitude": 18.86667,
    "longitude": -71.13333
  },
  {
    "city": "Sopaipo",
    "city_zh": "Sopaipo",
    "country": "Dominican Republic",
    "country_zh": "多明尼加共和國",
    "country_iso_code": "DO",
    "timezone": "America/Santo_Domingo",
    "latitude": 18.78793,
    "longitude": -69.11076
  },
  {
    "city": "Sonadorcito",
    "city_zh": "Sonadorcito",
    "country": "Dominican Republic",
    "country_zh": "多明尼加共和國",
    "country_iso_code": "DO",
    "timezone": "America/Santo_Domingo",
    "latitude": 18.82384,
    "longitude": -70.38922
  },
  {
    "city": "Sonador",
    "city_zh": "Sonador",
    "country": "Dominican Republic",
    "country_zh": "多明尼加共和國",
    "country_iso_code": "DO",
    "timezone": "America/Santo_Domingo",
    "latitude": 19.6,
    "longitude": -70.61667
  },
  {
    "city": "Sonador",
    "city_zh": "Sonador",
    "country": "Dominican Republic",
    "country_zh": "多明尼加共和國",
    "country_iso_code": "DO",
    "timezone": "America/Santo_Domingo",
    "latitude": 19.37013,
    "longitude": -70.24665
  },
  {
    "city": "Sonador",
    "city_zh": "Sonador",
    "country": "Dominican Republic",
    "country_zh": "多明尼加共和國",
    "country_iso_code": "DO",
    "timezone": "America/Santo_Domingo",
    "latitude": 19.33231,
    "longitude": -69.94804
  },
  {
    "city": "Sonador",
    "city_zh": "Sonador",
    "country": "Dominican Republic",
    "country_zh": "多明尼加共和國",
    "country_iso_code": "DO",
    "timezone": "America/Santo_Domingo",
    "latitude": 19.28241,
    "longitude": -71.24167
  },
  {
    "city": "Sonador",
    "city_zh": "Sonador",
    "country": "Dominican Republic",
    "country_zh": "多明尼加共和國",
    "country_iso_code": "DO",
    "timezone": "America/Santo_Domingo",
    "latitude": 18.97861,
    "longitude": -69.99388
  },
  {
    "city": "Sonador",
    "city_zh": "Sonador",
    "country": "Dominican Republic",
    "country_zh": "多明尼加共和國",
    "country_iso_code": "DO",
    "timezone": "America/Santo_Domingo",
    "latitude": 18.87259,
    "longitude": -70.36301
  },
  {
    "city": "Sonador",
    "city_zh": "Sonador",
    "country": "Dominican Republic",
    "country_zh": "多明尼加共和國",
    "country_iso_code": "DO",
    "timezone": "America/Santo_Domingo",
    "latitude": 18.70117,
    "longitude": -71.57935
  },
  {
    "city": "Sonador",
    "city_zh": "Sonador",
    "country": "Dominican Republic",
    "country_zh": "多明尼加共和國",
    "country_iso_code": "DO",
    "timezone": "America/Santo_Domingo",
    "latitude": 18.58333,
    "longitude": -70.78333
  },
  {
    "city": "Sonador",
    "city_zh": "Sonador",
    "country": "Dominican Republic",
    "country_zh": "多明尼加共和國",
    "country_iso_code": "DO",
    "timezone": "America/Santo_Domingo",
    "latitude": 18.44297,
    "longitude": -70.31155
  },
  {
    "city": "Sombrero",
    "city_zh": "Sombrero",
    "country": "Dominican Republic",
    "country_zh": "多明尼加共和國",
    "country_iso_code": "DO",
    "timezone": "America/Santo_Domingo",
    "latitude": 19.18333,
    "longitude": -71.63333
  },
  {
    "city": "Sombrero",
    "city_zh": "Sombrero",
    "country": "Dominican Republic",
    "country_zh": "多明尼加共和國",
    "country_iso_code": "DO",
    "timezone": "America/Santo_Domingo",
    "latitude": 18.2569,
    "longitude": -70.36363
  },
  {
    "city": "Solorín",
    "city_zh": "Solorín",
    "country": "Dominican Republic",
    "country_zh": "多明尼加共和國",
    "country_iso_code": "DO",
    "timezone": "America/Santo_Domingo",
    "latitude": 18.82237,
    "longitude": -71.21483
  },
  {
    "city": "Soledad",
    "city_zh": "Soledad",
    "country": "Dominican Republic",
    "country_zh": "多明尼加共和國",
    "country_iso_code": "DO",
    "timezone": "America/Santo_Domingo",
    "latitude": 19.10666,
    "longitude": -70.14995
  },
  {
    "city": "Soledad",
    "city_zh": "Soledad",
    "country": "Dominican Republic",
    "country_zh": "多明尼加共和國",
    "country_iso_code": "DO",
    "timezone": "America/Santo_Domingo",
    "latitude": 18.79312,
    "longitude": -69.69776
  },
  {
    "city": "Solanito",
    "city_zh": "Solanito",
    "country": "Dominican Republic",
    "country_zh": "多明尼加共和國",
    "country_iso_code": "DO",
    "timezone": "America/Santo_Domingo",
    "latitude": 18.63333,
    "longitude": -69.16667
  },
  {
    "city": "Socoa",
    "city_zh": "Socoa",
    "country": "Dominican Republic",
    "country_zh": "多明尼加共和國",
    "country_iso_code": "DO",
    "timezone": "America/Santo_Domingo",
    "latitude": 18.80483,
    "longitude": -69.74201
  },
  {
    "city": "Sinasal",
    "city_zh": "Sinasal",
    "country": "Dominican Republic",
    "country_zh": "多明尼加共和國",
    "country_iso_code": "DO",
    "timezone": "America/Santo_Domingo",
    "latitude": 18.39288,
    "longitude": -70.80368
  },
  {
    "city": "Simonico",
    "city_zh": "Simonico",
    "country": "Dominican Republic",
    "country_zh": "多明尼加共和國",
    "country_iso_code": "DO",
    "timezone": "America/Santo_Domingo",
    "latitude": 18.48212,
    "longitude": -69.87273
  },
  {
    "city": "Simón Bolivar",
    "city_zh": "Simón Bolivar",
    "country": "Dominican Republic",
    "country_zh": "多明尼加共和國",
    "country_iso_code": "DO",
    "timezone": "America/Santo_Domingo",
    "latitude": 18.5,
    "longitude": -69.9
  },
  {
    "city": "Sillón del Palacio",
    "city_zh": "Sillón del Palacio",
    "country": "Dominican Republic",
    "country_zh": "多明尼加共和國",
    "country_iso_code": "DO",
    "timezone": "America/Santo_Domingo",
    "latitude": 19.30173,
    "longitude": -71.11548
  },
  {
    "city": "Silloncito",
    "city_zh": "Silloncito",
    "country": "Dominican Republic",
    "country_zh": "多明尼加共和國",
    "country_iso_code": "DO",
    "timezone": "America/Santo_Domingo",
    "latitude": 18.55,
    "longitude": -70.36667
  },
  {
    "city": "Silgueral",
    "city_zh": "Silgueral",
    "country": "Dominican Republic",
    "country_zh": "多明尼加共和國",
    "country_iso_code": "DO",
    "timezone": "America/Santo_Domingo",
    "latitude": 19.05758,
    "longitude": -71.30288
  },
  {
    "city": "Siete Puertas",
    "city_zh": "Siete Puertas",
    "country": "Dominican Republic",
    "country_zh": "多明尼加共和國",
    "country_iso_code": "DO",
    "timezone": "America/Santo_Domingo",
    "latitude": 18.53198,
    "longitude": -68.80558
  },
  {
    "city": "Sierrecita",
    "city_zh": "Sierrecita",
    "country": "Dominican Republic",
    "country_zh": "多明尼加共和國",
    "country_iso_code": "DO",
    "timezone": "America/Santo_Domingo",
    "latitude": 19.42237,
    "longitude": -70.87768
  },
  {
    "city": "Sierra Prieta",
    "city_zh": "Sierra Prieta",
    "country": "Dominican Republic",
    "country_zh": "多明尼加共和國",
    "country_iso_code": "DO",
    "timezone": "America/Santo_Domingo",
    "latitude": 19.07443,
    "longitude": -70.33747
  },
  {
    "city": "Sierra Prieta",
    "city_zh": "Sierra Prieta",
    "country": "Dominican Republic",
    "country_zh": "多明尼加共和國",
    "country_iso_code": "DO",
    "timezone": "America/Santo_Domingo",
    "latitude": 18.65417,
    "longitude": -69.96278
  },
  {
    "city": "Sierra Mocha",
    "city_zh": "Sierra Mocha",
    "country": "Dominican Republic",
    "country_zh": "多明尼加共和國",
    "country_iso_code": "DO",
    "timezone": "America/Santo_Domingo",
    "latitude": 19.17069,
    "longitude": -71.37322
  },
  {
    "city": "Sierra del Guano",
    "city_zh": "Sierra del Guano",
    "country": "Dominican Republic",
    "country_zh": "多明尼加共和國",
    "country_iso_code": "DO",
    "timezone": "America/Santo_Domingo",
    "latitude": 19.38921,
    "longitude": -70.82305
  },
  {
    "city": "Sierra de Agua",
    "city_zh": "Sierra de Agua",
    "country": "Dominican Republic",
    "country_zh": "多明尼加共和國",
    "country_iso_code": "DO",
    "timezone": "America/Santo_Domingo",
    "latitude": 18.84787,
    "longitude": -69.5971
  },
  {
    "city": "Siembra Vieja",
    "city_zh": "Siembra Vieja",
    "country": "Dominican Republic",
    "country_zh": "多明尼加共和國",
    "country_iso_code": "DO",
    "timezone": "America/Santo_Domingo",
    "latitude": 18.71667,
    "longitude": -71.5
  },
  {
    "city": "Sibila",
    "city_zh": "Sibila",
    "country": "Dominican Republic",
    "country_zh": "多明尼加共和國",
    "country_iso_code": "DO",
    "timezone": "America/Santo_Domingo",
    "latitude": 19.53333,
    "longitude": -71.08333
  },
  {
    "city": "Sesteadero del Toro",
    "city_zh": "Sesteadero del Toro",
    "country": "Dominican Republic",
    "country_zh": "多明尼加共和國",
    "country_iso_code": "DO",
    "timezone": "America/Santo_Domingo",
    "latitude": 18.47244,
    "longitude": -70.30773
  },
  {
    "city": "Serrallés",
    "city_zh": "Serrallés",
    "country": "Dominican Republic",
    "country_zh": "多明尼加共和國",
    "country_iso_code": "DO",
    "timezone": "America/Santo_Domingo",
    "latitude": 18.82074,
    "longitude": -70.09922
  },
  {
    "city": "Semana Santa",
    "city_zh": "Semana Santa",
    "country": "Dominican Republic",
    "country_zh": "多明尼加共和國",
    "country_iso_code": "DO",
    "timezone": "America/Santo_Domingo",
    "latitude": 18.33995,
    "longitude": -70.23659
  },
  {
    "city": "Semana Santa",
    "city_zh": "Semana Santa",
    "country": "Dominican Republic",
    "country_zh": "多明尼加共和國",
    "country_iso_code": "DO",
    "timezone": "America/Santo_Domingo",
    "latitude": 18.2,
    "longitude": -71.15
  },
  {
    "city": "Seboruco",
    "city_zh": "Seboruco",
    "country": "Dominican Republic",
    "country_zh": "多明尼加共和國",
    "country_iso_code": "DO",
    "timezone": "America/Santo_Domingo",
    "latitude": 18.9928,
    "longitude": -71.3003
  },
  {
    "city": "Sebastián",
    "city_zh": "Sebastián",
    "country": "Dominican Republic",
    "country_zh": "多明尼加共和國",
    "country_iso_code": "DO",
    "timezone": "America/Santo_Domingo",
    "latitude": 19.50773,
    "longitude": -71.43556
  },
  {
    "city": "Sávita",
    "city_zh": "Sávita",
    "country": "Dominican Republic",
    "country_zh": "多明尼加共和國",
    "country_iso_code": "DO",
    "timezone": "America/Santo_Domingo",
    "latitude": 18.8,
    "longitude": -69.83333
  },
  {
    "city": "Saviñón",
    "city_zh": "Saviñón",
    "country": "Dominican Republic",
    "country_zh": "多明尼加共和國",
    "country_iso_code": "DO",
    "timezone": "America/Santo_Domingo",
    "latitude": 18.45065,
    "longitude": -70.47102
  },
  {
    "city": "Sauldí",
    "city_zh": "Sauldí",
    "country": "Dominican Republic",
    "country_zh": "多明尼加共和國",
    "country_iso_code": "DO",
    "timezone": "America/Santo_Domingo",
    "latitude": 18.71845,
    "longitude": -70.39512
  },
  {
    "city": "Sapoten",
    "city_zh": "Sapoten",
    "country": "Dominican Republic",
    "country_zh": "多明尼加共和國",
    "country_iso_code": "DO",
    "timezone": "America/Santo_Domingo",
    "latitude": 18.31667,
    "longitude": -71.7
  },
  {
    "city": "San Víctor Arriba",
    "city_zh": "San Víctor Arriba",
    "country": "Dominican Republic",
    "country_zh": "多明尼加共和國",
    "country_iso_code": "DO",
    "timezone": "America/Santo_Domingo",
    "latitude": 19.47741,
    "longitude": -70.53585
  },
  {
    "city": "San Víctor Abajo",
    "city_zh": "San Víctor Abajo",
    "country": "Dominican Republic",
    "country_zh": "多明尼加共和國",
    "country_iso_code": "DO",
    "timezone": "America/Santo_Domingo",
    "latitude": 19.45709,
    "longitude": -70.54335
  },
  {
    "city": "San Valerio",
    "city_zh": "San Valerio",
    "country": "Dominican Republic",
    "country_zh": "多明尼加共和國",
    "country_iso_code": "DO",
    "timezone": "America/Santo_Domingo",
    "latitude": 18.7607,
    "longitude": -69.21803
  },
  {
    "city": "Santo Tomás de Jánico",
    "city_zh": "Santo Tomás de Jánico",
    "country": "Dominican Republic",
    "country_zh": "多明尼加共和國",
    "country_iso_code": "DO",
    "timezone": "America/Santo_Domingo",
    "latitude": 19.3244,
    "longitude": -70.81556
  },
  {
    "city": "Santomé",
    "city_zh": "Santomé",
    "country": "Dominican Republic",
    "country_zh": "多明尼加共和國",
    "country_iso_code": "DO",
    "timezone": "America/Santo_Domingo",
    "latitude": 18.81667,
    "longitude": -71.25
  },
  {
    "city": "Santo Espíritu",
    "city_zh": "Santo Espíritu",
    "country": "Dominican Republic",
    "country_zh": "多明尼加共和國",
    "country_iso_code": "DO",
    "timezone": "America/Santo_Domingo",
    "latitude": 18.8,
    "longitude": -69.01667
  },
  {
    "city": "Santo Espíritu",
    "city_zh": "Santo Espíritu",
    "country": "Dominican Republic",
    "country_zh": "多明尼加共和國",
    "country_iso_code": "DO",
    "timezone": "America/Santo_Domingo",
    "latitude": 18.78333,
    "longitude": -69.0
  },
  {
    "city": "Santo Domingo",
    "city_zh": "聖多明哥",
    "country": "Dominican Republic",
    "country_zh": "多明尼加共和國",
    "country_iso_code": "DO",
    "timezone": "America/Santo_Domingo",
    "latitude": 18.47186,
    "longitude": -69.89232
  },
  {
    "city": "Santo Cerro",
    "city_zh": "Santo Cerro",
    "country": "Dominican Republic",
    "country_zh": "多明尼加共和國",
    "country_iso_code": "DO",
    "timezone": "America/Santo_Domingo",
    "latitude": 19.27977,
    "longitude": -70.55383
  },
  {
    "city": "Santo Ángel",
    "city_zh": "Santo Ángel",
    "country": "Dominican Republic",
    "country_zh": "多明尼加共和國",
    "country_iso_code": "DO",
    "timezone": "America/Santo_Domingo",
    "latitude": 18.54062,
    "longitude": -69.23781
  },
  {
    "city": "Santiago de los Caballeros",
    "city_zh": "聖地牙哥",
    "country": "Dominican Republic",
    "country_zh": "多明尼加共和國",
    "country_iso_code": "DO",
    "timezone": "America/Santo_Domingo",
    "latitude": 19.45036,
    "longitude": -70.69085
  },
  {
    "city": "Santiago de La Cruz",
    "city_zh": "Santiago de La Cruz",
    "country": "Dominican Republic",
    "country_zh": "多明尼加共和國",
    "country_iso_code": "DO",
    "timezone": "America/Santo_Domingo",
    "latitude": 19.48009,
    "longitude": -71.62764
  },
  {
    "city": "Santa Teresa",
    "city_zh": "Santa Teresa",
    "country": "Dominican Republic",
    "country_zh": "多明尼加共和國",
    "country_iso_code": "DO",
    "timezone": "America/Santo_Domingo",
    "latitude": 18.75,
    "longitude": -69.01667
  },
  {
    "city": "Santa Rosa",
    "city_zh": "Santa Rosa",
    "country": "Dominican Republic",
    "country_zh": "多明尼加共和國",
    "country_iso_code": "DO",
    "timezone": "America/Santo_Domingo",
    "latitude": 19.37009,
    "longitude": -70.54905
  },
  {
    "city": "Santa Rosa",
    "city_zh": "Santa Rosa",
    "country": "Dominican Republic",
    "country_zh": "多明尼加共和國",
    "country_iso_code": "DO",
    "timezone": "America/Santo_Domingo",
    "latitude": 18.71611,
    "longitude": -69.30076
  },
  {
    "city": "Santa Rosa",
    "city_zh": "Santa Rosa",
    "country": "Dominican Republic",
    "country_zh": "多明尼加共和國",
    "country_iso_code": "DO",
    "timezone": "America/Santo_Domingo",
    "latitude": 18.57503,
    "longitude": -68.91943
  },
  {
    "city": "Santa Rosa",
    "city_zh": "Santa Rosa",
    "country": "Dominican Republic",
    "country_zh": "多明尼加共和國",
    "country_iso_code": "DO",
    "timezone": "America/Santo_Domingo",
    "latitude": 18.53333,
    "longitude": -70.06667
  },
  {
    "city": "Santa Rita",
    "city_zh": "Santa Rita",
    "country": "Dominican Republic",
    "country_zh": "多明尼加共和國",
    "country_iso_code": "DO",
    "timezone": "America/Santo_Domingo",
    "latitude": 18.68333,
    "longitude": -68.93333
  },
  {
    "city": "Santana",
    "city_zh": "Santana",
    "country": "Dominican Republic",
    "country_zh": "多明尼加共和國",
    "country_iso_code": "DO",
    "timezone": "America/Santo_Domingo",
    "latitude": 18.8016,
    "longitude": -69.47385
  },
  {
    "city": "Santana",
    "city_zh": "Santana",
    "country": "Dominican Republic",
    "country_zh": "多明尼加共和國",
    "country_iso_code": "DO",
    "timezone": "America/Santo_Domingo",
    "latitude": 18.80088,
    "longitude": -69.22068
  },
  {
    "city": "Santana",
    "city_zh": "Santana",
    "country": "Dominican Republic",
    "country_zh": "多明尼加共和國",
    "country_iso_code": "DO",
    "timezone": "America/Santo_Domingo",
    "latitude": 18.63006,
    "longitude": -68.77248
  },
  {
    "city": "Santana",
    "city_zh": "Santana",
    "country": "Dominican Republic",
    "country_zh": "多明尼加共和國",
    "country_iso_code": "DO",
    "timezone": "America/Santo_Domingo",
    "latitude": 18.61895,
    "longitude": -69.83783
  },
  {
    "city": "Santana",
    "city_zh": "Santana",
    "country": "Dominican Republic",
    "country_zh": "多明尼加共和國",
    "country_iso_code": "DO",
    "timezone": "America/Santo_Domingo",
    "latitude": 18.6,
    "longitude": -70.35
  },
  {
    "city": "Santana",
    "city_zh": "Santana",
    "country": "Dominican Republic",
    "country_zh": "多明尼加共和國",
    "country_iso_code": "DO",
    "timezone": "America/Santo_Domingo",
    "latitude": 18.61854,
    "longitude": -70.358
  },
  {
    "city": "Santana",
    "city_zh": "Santana",
    "country": "Dominican Republic",
    "country_zh": "多明尼加共和國",
    "country_iso_code": "DO",
    "timezone": "America/Santo_Domingo",
    "latitude": 18.55,
    "longitude": -70.41667
  },
  {
    "city": "Santana",
    "city_zh": "Santana",
    "country": "Dominican Republic",
    "country_zh": "多明尼加共和國",
    "country_iso_code": "DO",
    "timezone": "America/Santo_Domingo",
    "latitude": 18.42227,
    "longitude": -71.19604
  },
  {
    "city": "Santana",
    "city_zh": "Santana",
    "country": "Dominican Republic",
    "country_zh": "多明尼加共和國",
    "country_iso_code": "DO",
    "timezone": "America/Santo_Domingo",
    "latitude": 18.41667,
    "longitude": -71.18333
  },
  {
    "city": "Santana",
    "city_zh": "Santana",
    "country": "Dominican Republic",
    "country_zh": "多明尼加共和國",
    "country_iso_code": "DO",
    "timezone": "America/Santo_Domingo",
    "latitude": 18.2778,
    "longitude": -70.21493
  },
  {
    "city": "Santa María",
    "city_zh": "Santa María",
    "country": "Dominican Republic",
    "country_zh": "多明尼加共和國",
    "country_iso_code": "DO",
    "timezone": "America/Santo_Domingo",
    "latitude": 19.67955,
    "longitude": -71.60044
  },
  {
    "city": "Santa María",
    "city_zh": "Santa María",
    "country": "Dominican Republic",
    "country_zh": "多明尼加共和國",
    "country_iso_code": "DO",
    "timezone": "America/Santo_Domingo",
    "latitude": 19.65798,
    "longitude": -71.59692
  },
  {
    "city": "Santa María",
    "city_zh": "Santa María",
    "country": "Dominican Republic",
    "country_zh": "多明尼加共和國",
    "country_iso_code": "DO",
    "timezone": "America/Santo_Domingo",
    "latitude": 19.55273,
    "longitude": -69.99045
  },
  {
    "city": "Santa María",
    "city_zh": "Santa María",
    "country": "Dominican Republic",
    "country_zh": "多明尼加共和國",
    "country_iso_code": "DO",
    "timezone": "America/Santo_Domingo",
    "latitude": 18.46036,
    "longitude": -70.10631
  },
  {
    "city": "Santa María",
    "city_zh": "Santa María",
    "country": "Dominican Republic",
    "country_zh": "多明尼加共和國",
    "country_iso_code": "DO",
    "timezone": "America/Santo_Domingo",
    "latitude": 18.39121,
    "longitude": -71.22441
  },
  {
    "city": "Santa Lucía de Camba",
    "city_zh": "Santa Lucía de Camba",
    "country": "Dominican Republic",
    "country_zh": "多明尼加共和國",
    "country_iso_code": "DO",
    "timezone": "America/Santo_Domingo",
    "latitude": 18.37923,
    "longitude": -70.16173
  },
  {
    "city": "Santa Lucía",
    "city_zh": "Santa Lucía",
    "country": "Dominican Republic",
    "country_zh": "多明尼加共和國",
    "country_iso_code": "DO",
    "timezone": "America/Santo_Domingo",
    "latitude": 19.51183,
    "longitude": -71.46922
  },
  {
    "city": "Santa Lucía",
    "city_zh": "Santa Lucía",
    "country": "Dominican Republic",
    "country_zh": "多明尼加共和國",
    "country_iso_code": "DO",
    "timezone": "America/Santo_Domingo",
    "latitude": 19.28333,
    "longitude": -70.21667
  },
  {
    "city": "Santa Lucía",
    "city_zh": "Santa Lucía",
    "country": "Dominican Republic",
    "country_zh": "多明尼加共和國",
    "country_iso_code": "DO",
    "timezone": "America/Santo_Domingo",
    "latitude": 18.76008,
    "longitude": -69.00857
  },
  {
    "city": "Santa Lucía",
    "city_zh": "Santa Lucía",
    "country": "Dominican Republic",
    "country_zh": "多明尼加共和國",
    "country_iso_code": "DO",
    "timezone": "America/Santo_Domingo",
    "latitude": 18.73412,
    "longitude": -68.9672
  },
  {
    "city": "Santa Lucía",
    "city_zh": "Santa Lucía",
    "country": "Dominican Republic",
    "country_zh": "多明尼加共和國",
    "country_iso_code": "DO",
    "timezone": "America/Santo_Domingo",
    "latitude": 18.68157,
    "longitude": -68.93963
  },
  {
    "city": "Santa Elena",
    "city_zh": "Santa Elena",
    "country": "Dominican Republic",
    "country_zh": "多明尼加共和國",
    "country_iso_code": "DO",
    "timezone": "America/Santo_Domingo",
    "latitude": 18.16127,
    "longitude": -71.12801
  },
  {
    "city": "Santa Cruz de Gato",
    "city_zh": "Santa Cruz de Gato",
    "country": "Dominican Republic",
    "country_zh": "多明尼加共和國",
    "country_iso_code": "DO",
    "timezone": "America/Santo_Domingo",
    "latitude": 18.46301,
    "longitude": -68.87052
  },
  {
    "city": "Santa Cruz de El Seibo",
    "city_zh": "Santa Cruz de El Seibo",
    "country": "Dominican Republic",
    "country_zh": "多明尼加共和國",
    "country_iso_code": "DO",
    "timezone": "America/Santo_Domingo",
    "latitude": 18.76484,
    "longitude": -69.03991
  },
  {
    "city": "Santa Cruz de Barahona",
    "city_zh": "Santa Cruz de Barahona",
    "country": "Dominican Republic",
    "country_zh": "多明尼加共和國",
    "country_iso_code": "DO",
    "timezone": "America/Santo_Domingo",
    "latitude": 18.20861,
    "longitude": -71.10068
  },
  {
    "city": "Santa Cruz",
    "city_zh": "Santa Cruz",
    "country": "Dominican Republic",
    "country_zh": "多明尼加共和國",
    "country_iso_code": "DO",
    "timezone": "America/Santo_Domingo",
    "latitude": 18.54911,
    "longitude": -69.90167
  },
  {
    "city": "Santa Cruz",
    "city_zh": "Santa Cruz",
    "country": "Dominican Republic",
    "country_zh": "多明尼加共和國",
    "country_iso_code": "DO",
    "timezone": "America/Santo_Domingo",
    "latitude": 19.63575,
    "longitude": -71.51045
  },
  {
    "city": "Santa Cruz",
    "city_zh": "Santa Cruz",
    "country": "Dominican Republic",
    "country_zh": "多明尼加共和國",
    "country_iso_code": "DO",
    "timezone": "America/Santo_Domingo",
    "latitude": 18.783,
    "longitude": -69.60525
  },
  {
    "city": "Santa Cruz",
    "city_zh": "Santa Cruz",
    "country": "Dominican Republic",
    "country_zh": "多明尼加共和國",
    "country_iso_code": "DO",
    "timezone": "America/Santo_Domingo",
    "latitude": 18.54643,
    "longitude": -70.1147
  },
  {
    "city": "Santa Clara",
    "city_zh": "Santa Clara",
    "country": "Dominican Republic",
    "country_zh": "多明尼加共和國",
    "country_iso_code": "DO",
    "timezone": "America/Santo_Domingo",
    "latitude": 18.60797,
    "longitude": -68.75951
  },
  {
    "city": "Santa Capuza",
    "city_zh": "Santa Capuza",
    "country": "Dominican Republic",
    "country_zh": "多明尼加共和國",
    "country_iso_code": "DO",
    "timezone": "America/Santo_Domingo",
    "latitude": 19.22581,
    "longitude": -69.55306
  },
  {
    "city": "Samaná",
    "city_zh": "Samaná",
    "country": "Dominican Republic",
    "country_zh": "多明尼加共和國",
    "country_iso_code": "DO",
    "timezone": "America/Santo_Domingo",
    "latitude": 19.20404,
    "longitude": -69.33407
  },
  {
    "city": "Santa Bárbara",
    "city_zh": "Santa Bárbara",
    "country": "Dominican Republic",
    "country_zh": "多明尼加共和國",
    "country_iso_code": "DO",
    "timezone": "America/Santo_Domingo",
    "latitude": 18.33883,
    "longitude": -71.2148
  },
  {
    "city": "Santa Ana Arriba",
    "city_zh": "Santa Ana Arriba",
    "country": "Dominican Republic",
    "country_zh": "多明尼加共和國",
    "country_iso_code": "DO",
    "timezone": "America/Santo_Domingo",
    "latitude": 19.3,
    "longitude": -70.35
  },
  {
    "city": "Santa Ana Abajo",
    "city_zh": "Santa Ana Abajo",
    "country": "Dominican Republic",
    "country_zh": "多明尼加共和國",
    "country_iso_code": "DO",
    "timezone": "America/Santo_Domingo",
    "latitude": 19.26659,
    "longitude": -70.37227
  },
  {
    "city": "Santa Ana",
    "city_zh": "Santa Ana",
    "country": "Dominican Republic",
    "country_zh": "多明尼加共和國",
    "country_iso_code": "DO",
    "timezone": "America/Santo_Domingo",
    "latitude": 19.26607,
    "longitude": -70.40314
  },
  {
    "city": "Santa Ana",
    "city_zh": "Santa Ana",
    "country": "Dominican Republic",
    "country_zh": "多明尼加共和國",
    "country_iso_code": "DO",
    "timezone": "America/Santo_Domingo",
    "latitude": 19.21358,
    "longitude": -70.70365
  },
  {
    "city": "Santa Ana",
    "city_zh": "Santa Ana",
    "country": "Dominican Republic",
    "country_zh": "多明尼加共和國",
    "country_iso_code": "DO",
    "timezone": "America/Santo_Domingo",
    "latitude": 19.13333,
    "longitude": -70.38333
  },
  {
    "city": "Sans Souci",
    "city_zh": "Sans Souci",
    "country": "Dominican Republic",
    "country_zh": "多明尼加共和國",
    "country_iso_code": "DO",
    "timezone": "America/Santo_Domingo",
    "latitude": 18.46721,
    "longitude": -69.87516
  },
  {
    "city": "San Simón",
    "city_zh": "San Simón",
    "country": "Dominican Republic",
    "country_zh": "多明尼加共和國",
    "country_iso_code": "DO",
    "timezone": "America/Santo_Domingo",
    "latitude": 18.51667,
    "longitude": -71.05
  },
  {
    "city": "San Simón",
    "city_zh": "San Simón",
    "country": "Dominican Republic",
    "country_zh": "多明尼加共和國",
    "country_iso_code": "DO",
    "timezone": "America/Santo_Domingo",
    "latitude": 18.52033,
    "longitude": -70.98824
  },
  {
    "city": "San Ramón",
    "city_zh": "San Ramón",
    "country": "Dominican Republic",
    "country_zh": "多明尼加共和國",
    "country_iso_code": "DO",
    "timezone": "America/Santo_Domingo",
    "latitude": 18.8359,
    "longitude": -71.18533
  },
  {
    "city": "San Ramón",
    "city_zh": "San Ramón",
    "country": "Dominican Republic",
    "country_zh": "多明尼加共和國",
    "country_iso_code": "DO",
    "timezone": "America/Santo_Domingo",
    "latitude": 18.77329,
    "longitude": -69.71721
  },
  {
    "city": "San Ramón",
    "city_zh": "San Ramón",
    "country": "Dominican Republic",
    "country_zh": "多明尼加共和國",
    "country_iso_code": "DO",
    "timezone": "America/Santo_Domingo",
    "latitude": 18.42064,
    "longitude": -71.13972
  },
  {
    "city": "San Ramón",
    "city_zh": "San Ramón",
    "country": "Dominican Republic",
    "country_zh": "多明尼加共和國",
    "country_iso_code": "DO",
    "timezone": "America/Santo_Domingo",
    "latitude": 18.4,
    "longitude": -71.16667
  },
  {
    "city": "San Rafael del Yuma",
    "city_zh": "San Rafael del Yuma",
    "country": "Dominican Republic",
    "country_zh": "多明尼加共和國",
    "country_iso_code": "DO",
    "timezone": "America/Santo_Domingo",
    "latitude": 18.42993,
    "longitude": -68.6739
  },
  {
    "city": "San Rafael del Yano",
    "city_zh": "San Rafael del Yano",
    "country": "Dominican Republic",
    "country_zh": "多明尼加共和國",
    "country_iso_code": "DO",
    "timezone": "America/Santo_Domingo",
    "latitude": 18.84955,
    "longitude": -71.63044
  },
  {
    "city": "San Rafael",
    "city_zh": "San Rafael",
    "country": "Dominican Republic",
    "country_zh": "多明尼加共和國",
    "country_iso_code": "DO",
    "timezone": "America/Santo_Domingo",
    "latitude": 19.53276,
    "longitude": -69.96616
  },
  {
    "city": "San Rafael",
    "city_zh": "San Rafael",
    "country": "Dominican Republic",
    "country_zh": "多明尼加共和國",
    "country_iso_code": "DO",
    "timezone": "America/Santo_Domingo",
    "latitude": 18.45,
    "longitude": -69.2
  },
  {
    "city": "San Rafael",
    "city_zh": "San Rafael",
    "country": "Dominican Republic",
    "country_zh": "多明尼加共和國",
    "country_iso_code": "DO",
    "timezone": "America/Santo_Domingo",
    "latitude": 18.40577,
    "longitude": -70.06643
  },
  {
    "city": "San Rafael",
    "city_zh": "San Rafael",
    "country": "Dominican Republic",
    "country_zh": "多明尼加共和國",
    "country_iso_code": "DO",
    "timezone": "America/Santo_Domingo",
    "latitude": 18.05,
    "longitude": -71.11667
  },
  {
    "city": "San Pedro de Macorís",
    "city_zh": "San Pedro de Macorís",
    "country": "Dominican Republic",
    "country_zh": "多明尼加共和國",
    "country_iso_code": "DO",
    "timezone": "America/Santo_Domingo",
    "latitude": 18.4539,
    "longitude": -69.30864
  },
  {
    "city": "San Pedro",
    "city_zh": "San Pedro",
    "country": "Dominican Republic",
    "country_zh": "多明尼加共和國",
    "country_iso_code": "DO",
    "timezone": "America/Santo_Domingo",
    "latitude": 19.04601,
    "longitude": -71.26505
  },
  {
    "city": "San Pablo",
    "city_zh": "San Pablo",
    "country": "Dominican Republic",
    "country_zh": "多明尼加共和國",
    "country_iso_code": "DO",
    "timezone": "America/Santo_Domingo",
    "latitude": 18.81191,
    "longitude": -69.07473
  },
  {
    "city": "San Morano",
    "city_zh": "San Morano",
    "country": "Dominican Republic",
    "country_zh": "多明尼加共和國",
    "country_iso_code": "DO",
    "timezone": "America/Santo_Domingo",
    "latitude": 18.58333,
    "longitude": -68.98333
  },
  {
    "city": "San Miguel",
    "city_zh": "San Miguel",
    "country": "Dominican Republic",
    "country_zh": "多明尼加共和國",
    "country_iso_code": "DO",
    "timezone": "America/Santo_Domingo",
    "latitude": 19.13551,
    "longitude": -70.28292
  },
  {
    "city": "San Miguel",
    "city_zh": "San Miguel",
    "country": "Dominican Republic",
    "country_zh": "多明尼加共和國",
    "country_iso_code": "DO",
    "timezone": "America/Santo_Domingo",
    "latitude": 18.71171,
    "longitude": -69.16443
  },
  {
    "city": "San Miguel",
    "city_zh": "San Miguel",
    "country": "Dominican Republic",
    "country_zh": "多明尼加共和國",
    "country_iso_code": "DO",
    "timezone": "America/Santo_Domingo",
    "latitude": 18.57035,
    "longitude": -70.12822
  },
  {
    "city": "San Miguel",
    "city_zh": "San Miguel",
    "country": "Dominican Republic",
    "country_zh": "多明尼加共和國",
    "country_iso_code": "DO",
    "timezone": "America/Santo_Domingo",
    "latitude": 18.49548,
    "longitude": -70.00828
  },
  {
    "city": "San Miguel",
    "city_zh": "San Miguel",
    "country": "Dominican Republic",
    "country_zh": "多明尼加共和國",
    "country_iso_code": "DO",
    "timezone": "America/Santo_Domingo",
    "latitude": 18.42547,
    "longitude": -70.05786
  },
  {
    "city": "San Mateo",
    "city_zh": "San Mateo",
    "country": "Dominican Republic",
    "country_zh": "多明尼加共和國",
    "country_iso_code": "DO",
    "timezone": "America/Santo_Domingo",
    "latitude": 18.68333,
    "longitude": -69.86667
  },
  {
    "city": "San Martín de Porres",
    "city_zh": "San Martín de Porres",
    "country": "Dominican Republic",
    "country_zh": "多明尼加共和國",
    "country_iso_code": "DO",
    "timezone": "America/Santo_Domingo",
    "latitude": 18.5,
    "longitude": -69.88333
  },