[
  {
    "city": "Ravelseidet",
    "city_zh": "Ravelseidet",
    "country": "Norway",
    "country_zh": "挪威",
    "country_iso_code": "NO",
    "timezone": "Europe/Oslo",
    "latitude": 69.82974,
    "longitude": 20.78479
  },
  {
    "city": "Keisi",
    "city_zh": "Keisi",
    "country": "Norway",
    "country_zh": "挪威",
    "country_iso_code": "NO",
    "timezone": "Europe/Oslo",
    "latitude": 70.60692,
    "longitude": 25.99129
  },
  {
    "city": "Kiberg",
    "city_zh": "Kiberg",
    "country": "Norway",
    "country_zh": "挪威",
    "country_iso_code": "NO",
    "timezone": "Europe/Oslo",
    "latitude": 70.28537,
    "longitude": 30.99727
  },
  {
    "city": "Ytre Kåfjord",
    "city_zh": "Ytre Kåfjord",
    "country": "Norway",
    "country_zh": "挪威",
    "country_iso_code": "NO",
    "timezone": "Europe/Oslo",
    "latitude": 70.8926,
    "longitude": 25.76971
  },
  {
    "city": "Ytre Hop",
    "city_zh": "Ytre Hop",
    "country": "Norway",
    "country_zh": "挪威",
    "country_iso_code": "NO",
    "timezone": "Europe/Oslo",
    "latitude": 70.79739,
    "longitude": 28.11788
  },
  {
    "city": "Goarahat",
    "city_zh": "Goarahat",
    "country": "Norway",
    "country_zh": "挪威",
    "country_iso_code": "NO",
    "timezone": "Europe/Oslo",
    "latitude": 70.26276,
    "longitude": 25.02715
  },
  {
    "city": "Ytre Eide",
    "city_zh": "Ytre Eide",
    "country": "Norway",
    "country_zh": "挪威",
    "country_iso_code": "NO",
    "timezone": "Europe/Oslo",
    "latitude": 69.91667,
    "longitude": 20.96667
  },
  {
    "city": "Gorbovuotna",
    "city_zh": "Gorbovuotna",
    "country": "Norway",
    "country_zh": "挪威",
    "country_iso_code": "NO",
    "timezone": "Europe/Oslo",
    "latitude": 70.35435,
    "longitude": 25.03851
  },
  {
    "city": "Ysteby",
    "city_zh": "Ysteby",
    "country": "Norway",
    "country_zh": "挪威",
    "country_iso_code": "NO",
    "timezone": "Europe/Oslo",
    "latitude": 69.61582,
    "longitude": 20.48671
  },
  {
    "city": "Ysneset",
    "city_zh": "Ysneset",
    "country": "Norway",
    "country_zh": "挪威",
    "country_iso_code": "NO",
    "timezone": "Europe/Oslo",
    "latitude": 70.25,
    "longitude": 22.35
  },
  {
    "city": "Vorterøyskagen",
    "city_zh": "Vorterøyskagen",
    "country": "Norway",
    "country_zh": "挪威",
    "country_iso_code": "NO",
    "timezone": "Europe/Oslo",
    "latitude": 69.96667,
    "longitude": 20.7
  },
  {
    "city": "Vinterset",
    "city_zh": "Vinterset",
    "country": "Norway",
    "country_zh": "挪威",
    "country_iso_code": "NO",
    "timezone": "Europe/Oslo",
    "latitude": 70.2,
    "longitude": 22.35
  },
  {
    "city": "Vikran",
    "city_zh": "Vikran",
    "country": "Norway",
    "country_zh": "挪威",
    "country_iso_code": "NO",
    "timezone": "Europe/Oslo",
    "latitude": 71.0522,
    "longitude": 24.01536
  },
  {
    "city": "Vikan",
    "city_zh": "Vikan",
    "country": "Norway",
    "country_zh": "挪威",
    "country_iso_code": "NO",
    "timezone": "Europe/Oslo",
    "latitude": 70.11667,
    "longitude": 20.06667
  },
  {
    "city": "Njiđgu",
    "city_zh": "Njiđgu",
    "country": "Norway",
    "country_zh": "挪威",
    "country_iso_code": "NO",
    "timezone": "Europe/Oslo",
    "latitude": 70.15659,
    "longitude": 28.57437
  },
  {
    "city": "Vesterelva",
    "city_zh": "Vesterelva",
    "country": "Norway",
    "country_zh": "挪威",
    "country_iso_code": "NO",
    "timezone": "Europe/Oslo",
    "latitude": 70.13333,
    "longitude": 28.53333
  },
  {
    "city": "Veidnes",
    "city_zh": "Veidnes",
    "country": "Norway",
    "country_zh": "挪威",
    "country_iso_code": "NO",
    "timezone": "Europe/Oslo",
    "latitude": 70.72427,
    "longitude": 29.35283
  },
  {
    "city": "Veidnes",
    "city_zh": "Veidnes",
    "country": "Norway",
    "country_zh": "挪威",
    "country_iso_code": "NO",
    "timezone": "Europe/Oslo",
    "latitude": 70.65769,
    "longitude": 26.58813
  },
  {
    "city": "Veidal",
    "city_zh": "Veidal",
    "country": "Norway",
    "country_zh": "挪威",
    "country_iso_code": "NO",
    "timezone": "Europe/Oslo",
    "latitude": 69.8,
    "longitude": 20.01667
  },
  {
    "city": "Vatnet",
    "city_zh": "Vatnet",
    "country": "Norway",
    "country_zh": "挪威",
    "country_iso_code": "NO",
    "timezone": "Europe/Oslo",
    "latitude": 69.51667,
    "longitude": 20.5
  },
  {
    "city": "Vasskogen",
    "city_zh": "Vasskogen",
    "country": "Norway",
    "country_zh": "挪威",
    "country_iso_code": "NO",
    "timezone": "Europe/Oslo",
    "latitude": 70.03333,
    "longitude": 23.51667
  },
  {
    "city": "Vardø",
    "city_zh": "Vardø",
    "country": "Norway",
    "country_zh": "挪威",
    "country_iso_code": "NO",
    "timezone": "Europe/Oslo",
    "latitude": 70.37048,
    "longitude": 31.11066
  },
  {
    "city": "Vuonnabahta",
    "city_zh": "Vuonnabahta",
    "country": "Norway",
    "country_zh": "挪威",
    "country_iso_code": "NO",
    "timezone": "Europe/Oslo",
    "latitude": 70.17278,
    "longitude": 28.55598
  },
  {
    "city": "Vannvåg",
    "city_zh": "Vannvåg",
    "country": "Norway",
    "country_zh": "挪威",
    "country_iso_code": "NO",
    "timezone": "Europe/Oslo",
    "latitude": 70.07266,
    "longitude": 19.98205
  },
  {
    "city": "Valen",
    "city_zh": "Valen",
    "country": "Norway",
    "country_zh": "挪威",
    "country_iso_code": "NO",
    "timezone": "Europe/Oslo",
    "latitude": 70.11667,
    "longitude": 20.0
  },
  {
    "city": "Valanhamn",
    "city_zh": "Valanhamn",
    "country": "Norway",
    "country_zh": "挪威",
    "country_iso_code": "NO",
    "timezone": "Europe/Oslo",
    "latitude": 69.96397,
    "longitude": 21.51859
  },
  {
    "city": "Været",
    "city_zh": "Været",
    "country": "Norway",
    "country_zh": "挪威",
    "country_iso_code": "NO",
    "timezone": "Europe/Oslo",
    "latitude": 70.06199,
    "longitude": 29.8563
  },
  {
    "city": "Vadsø",
    "city_zh": "Vadsø",
    "country": "Norway",
    "country_zh": "挪威",
    "country_iso_code": "NO",
    "timezone": "Europe/Oslo",
    "latitude": 70.07348,
    "longitude": 29.74943
  },
  {
    "city": "Muotkkevuolli",
    "city_zh": "Muotkkevuolli",
    "country": "Norway",
    "country_zh": "挪威",
    "country_iso_code": "NO",
    "timezone": "Europe/Oslo",
    "latitude": 69.86824,
    "longitude": 21.98077
  },
  {
    "city": "Indre Ulvsvåg",
    "city_zh": "Indre Ulvsvåg",
    "country": "Norway",
    "country_zh": "挪威",
    "country_iso_code": "NO",
    "timezone": "Europe/Oslo",
    "latitude": 70.07425,
    "longitude": 22.67293
  },
  {
    "city": "Uløybukta",
    "city_zh": "Uløybukta",
    "country": "Norway",
    "country_zh": "挪威",
    "country_iso_code": "NO",
    "timezone": "Europe/Oslo",
    "latitude": 69.85937,
    "longitude": 20.68163
  },
  {
    "city": "Turelv",
    "city_zh": "Turelv",
    "country": "Norway",
    "country_zh": "挪威",
    "country_iso_code": "NO",
    "timezone": "Europe/Oslo",
    "latitude": 70.02761,
    "longitude": 23.40487
  },
  {
    "city": "Tunes",
    "city_zh": "Tunes",
    "country": "Norway",
    "country_zh": "挪威",
    "country_iso_code": "NO",
    "timezone": "Europe/Oslo",
    "latitude": 71.16667,
    "longitude": 25.55
  },
  {
    "city": "Tufjord",
    "city_zh": "Tufjord",
    "country": "Norway",
    "country_zh": "挪威",
    "country_iso_code": "NO",
    "timezone": "Europe/Oslo",
    "latitude": 71.00496,
    "longitude": 23.90875
  },
  {
    "city": "Tuejord",
    "city_zh": "Tuejord",
    "country": "Norway",
    "country_zh": "挪威",
    "country_iso_code": "NO",
    "timezone": "Europe/Oslo",
    "latitude": 70.45,
    "longitude": 28.45
  },
  {
    "city": "Trollvik",
    "city_zh": "Trollvik",
    "country": "Norway",
    "country_zh": "挪威",
    "country_iso_code": "NO",
    "timezone": "Europe/Oslo",
    "latitude": 69.5252,
    "longitude": 20.75898
  },
  {
    "city": "Bukta",
    "city_zh": "Bukta",
    "country": "Norway",
    "country_zh": "挪威",
    "country_iso_code": "NO",
    "timezone": "Europe/Oslo",
    "latitude": 71.02204,
    "longitude": 24.00852
  },
  {
    "city": "Tretten",
    "city_zh": "Tretten",
    "country": "Norway",
    "country_zh": "挪威",
    "country_iso_code": "NO",
    "timezone": "Europe/Oslo",
    "latitude": 69.80004,
    "longitude": 21.12137
  },
  {
    "city": "Gohppi",
    "city_zh": "Gohppi",
    "country": "Norway",
    "country_zh": "挪威",
    "country_iso_code": "NO",
    "timezone": "Europe/Oslo",
    "latitude": 70.47768,
    "longitude": 27.98745
  },
  {
    "city": "Tømmervik",
    "city_zh": "Tømmervik",
    "country": "Norway",
    "country_zh": "挪威",
    "country_iso_code": "NO",
    "timezone": "Europe/Oslo",
    "latitude": 70.83435,
    "longitude": 26.65788
  },
  {
    "city": "Boftsa",
    "city_zh": "Boftsa",
    "country": "Norway",
    "country_zh": "挪威",
    "country_iso_code": "NO",
    "timezone": "Europe/Oslo",
    "latitude": 70.37693,
    "longitude": 28.175
  },
  {
    "city": "Tjørnberg",
    "city_zh": "Tjørnberg",
    "country": "Norway",
    "country_zh": "挪威",
    "country_iso_code": "NO",
    "timezone": "Europe/Oslo",
    "latitude": 69.58333,
    "longitude": 20.03333
  },
  {
    "city": "Tårnet",
    "city_zh": "Tårnet",
    "country": "Norway",
    "country_zh": "挪威",
    "country_iso_code": "NO",
    "timezone": "Europe/Oslo",
    "latitude": 69.67414,
    "longitude": 30.4423
  },
  {
    "city": "Tappeluft",
    "city_zh": "Tappeluft",
    "country": "Norway",
    "country_zh": "挪威",
    "country_iso_code": "NO",
    "timezone": "Europe/Oslo",
    "latitude": 70.0875,
    "longitude": 22.47472
  },
  {
    "city": "Talvik",
    "city_zh": "Talvik",
    "country": "Norway",
    "country_zh": "挪威",
    "country_iso_code": "NO",
    "timezone": "Europe/Oslo",
    "latitude": 70.04247,
    "longitude": 22.94985
  },
  {
    "city": "Svartvika",
    "city_zh": "Svartvika",
    "country": "Norway",
    "country_zh": "挪威",
    "country_iso_code": "NO",
    "timezone": "Europe/Oslo",
    "latitude": 71.08751,
    "longitude": 24.80359
  },
  {
    "city": "Svartnes",
    "city_zh": "Svartnes",
    "country": "Norway",
    "country_zh": "挪威",
    "country_iso_code": "NO",
    "timezone": "Europe/Oslo",
    "latitude": 70.35869,
    "longitude": 31.03002
  },
  {
    "city": "Svanvik",
    "city_zh": "Svanvik",
    "country": "Norway",
    "country_zh": "挪威",
    "country_iso_code": "NO",
    "timezone": "Europe/Moscow",
    "latitude": 69.45383,
    "longitude": 30.04961
  },
  {
    "city": "Sværholt",
    "city_zh": "Sværholt",
    "country": "Norway",
    "country_zh": "挪威",
    "country_iso_code": "NO",
    "timezone": "Europe/Oslo",
    "latitude": 70.96202,
    "longitude": 26.68409
  },
  {
    "city": "Šuoššjohka",
    "city_zh": "Šuoššjohka",
    "country": "Norway",
    "country_zh": "挪威",
    "country_iso_code": "NO",
    "timezone": "Europe/Oslo",
    "latitude": 70.44336,
    "longitude": 27.82525
  },
  {
    "city": "Sundneset",
    "city_zh": "Sundneset",
    "country": "Norway",
    "country_zh": "挪威",
    "country_iso_code": "NO",
    "timezone": "Europe/Oslo",
    "latitude": 70.25,
    "longitude": 22.63333
  },
  {
    "city": "Soleng",
    "city_zh": "Soleng",
    "country": "Norway",
    "country_zh": "挪威",
    "country_iso_code": "NO",
    "timezone": "Europe/Oslo",
    "latitude": 69.59735,
    "longitude": 20.55105
  },
  {
    "city": "Straumfjordnes",
    "city_zh": "Straumfjordnes",
    "country": "Norway",
    "country_zh": "挪威",
    "country_iso_code": "NO",
    "timezone": "Europe/Oslo",
    "latitude": 69.87779,
    "longitude": 21.20523
  },
  {
    "city": "Straumen",
    "city_zh": "Straumen",
    "country": "Norway",
    "country_zh": "挪威",
    "country_iso_code": "NO",
    "timezone": "Europe/Oslo",
    "latitude": 69.88333,
    "longitude": 20.18333
  },
  {
    "city": "Hjellnes",
    "city_zh": "Hjellnes",
    "country": "Norway",
    "country_zh": "挪威",
    "country_iso_code": "NO",
    "timezone": "Europe/Oslo",
    "latitude": 70.87639,
    "longitude": 25.84519
  },
  {
    "city": "Storvika",
    "city_zh": "Storvika",
    "country": "Norway",
    "country_zh": "挪威",
    "country_iso_code": "NO",
    "timezone": "Europe/Oslo",
    "latitude": 69.9,
    "longitude": 20.63333
  },
  {
    "city": "Storvik",
    "city_zh": "Storvik",
    "country": "Norway",
    "country_zh": "挪威",
    "country_iso_code": "NO",
    "timezone": "Europe/Oslo",
    "latitude": 69.84409,
    "longitude": 21.06416
  },
  {
    "city": "Storsletta",
    "city_zh": "Storsletta",
    "country": "Norway",
    "country_zh": "挪威",
    "country_iso_code": "NO",
    "timezone": "Europe/Oslo",
    "latitude": 69.82266,
    "longitude": 20.52991
  },
  {
    "city": "Storslett",
    "city_zh": "Storslett",
    "country": "Norway",
    "country_zh": "挪威",
    "country_iso_code": "NO",
    "timezone": "Europe/Oslo",
    "latitude": 69.76783,
    "longitude": 21.02466
  },
  {
    "city": "Storslett",
    "city_zh": "Storslett",
    "country": "Norway",
    "country_zh": "挪威",
    "country_iso_code": "NO",
    "timezone": "Europe/Oslo",
    "latitude": 69.58333,
    "longitude": 20.58333
  },
  {
    "city": "Storneshamn",
    "city_zh": "Storneshamn",
    "country": "Norway",
    "country_zh": "挪威",
    "country_iso_code": "NO",
    "timezone": "Europe/Oslo",
    "latitude": 69.9,
    "longitude": 21.05
  },
  {
    "city": "Energjerdet",
    "city_zh": "Energjerdet",
    "country": "Norway",
    "country_zh": "挪威",
    "country_iso_code": "NO",
    "timezone": "Europe/Oslo",
    "latitude": 69.96125,
    "longitude": 23.33599
  },
  {
    "city": "Taskeby",
    "city_zh": "Taskeby",
    "country": "Norway",
    "country_zh": "挪威",
    "country_iso_code": "NO",
    "timezone": "Europe/Oslo",
    "latitude": 69.98252,
    "longitude": 21.0
  },
  {
    "city": "Store Salttjern",
    "city_zh": "Store Salttjern",
    "country": "Norway",
    "country_zh": "挪威",
    "country_iso_code": "NO",
    "timezone": "Europe/Oslo",
    "latitude": 70.0685,
    "longitude": 29.96986
  },
  {
    "city": "Storeng",
    "city_zh": "Storeng",
    "country": "Norway",
    "country_zh": "挪威",
    "country_iso_code": "NO",
    "timezone": "Europe/Oslo",
    "latitude": 70.00683,
    "longitude": 22.024
  },
  {
    "city": "Storeng",
    "city_zh": "Storeng",
    "country": "Norway",
    "country_zh": "挪威",
    "country_iso_code": "NO",
    "timezone": "Europe/Oslo",
    "latitude": 69.36338,
    "longitude": 20.0129
  },
  {
    "city": "Storelva",
    "city_zh": "Storelva",
    "country": "Norway",
    "country_zh": "挪威",
    "country_iso_code": "NO",
    "timezone": "Europe/Oslo",
    "latitude": 70.13172,
    "longitude": 20.79806
  },
  {
    "city": "Giranjárga",
    "city_zh": "Giranjárga",
    "country": "Norway",
    "country_zh": "挪威",
    "country_iso_code": "NO",
    "timezone": "Europe/Oslo",
    "latitude": 70.21419,
    "longitude": 23.20216
  },
  {
    "city": "Storbukt",
    "city_zh": "Storbukt",
    "country": "Norway",
    "country_zh": "挪威",
    "country_iso_code": "NO",
    "timezone": "Europe/Oslo",
    "latitude": 69.762,
    "longitude": 29.61707
  },
  {
    "city": "Storbukt",
    "city_zh": "Storbukt",
    "country": "Norway",
    "country_zh": "挪威",
    "country_iso_code": "NO",
    "timezone": "Europe/Oslo",
    "latitude": 69.6857,
    "longitude": 30.45772
  },
  {
    "city": "Steinsvik",
    "city_zh": "Steinsvik",
    "country": "Norway",
    "country_zh": "挪威",
    "country_iso_code": "NO",
    "timezone": "Europe/Oslo",
    "latitude": 69.88333,
    "longitude": 21.13333
  },
  {
    "city": "Steinnes",
    "city_zh": "Steinnes",
    "country": "Norway",
    "country_zh": "挪威",
    "country_iso_code": "NO",
    "timezone": "Europe/Oslo",
    "latitude": 70.26667,
    "longitude": 22.13333
  },
  {
    "city": "Stenbakk",
    "city_zh": "Stenbakk",
    "country": "Norway",
    "country_zh": "挪威",
    "country_iso_code": "NO",
    "timezone": "Europe/Oslo",
    "latitude": 69.42814,
    "longitude": 29.83725
  },
  {
    "city": "Stállogárggu",
    "city_zh": "Stállogárggu",
    "country": "Norway",
    "country_zh": "挪威",
    "country_iso_code": "NO",
    "timezone": "Europe/Oslo",
    "latitude": 70.51901,
    "longitude": 23.97063
  },
  {
    "city": "Spitnes",
    "city_zh": "Spitnes",
    "country": "Norway",
    "country_zh": "挪威",
    "country_iso_code": "NO",
    "timezone": "Europe/Oslo",
    "latitude": 70.1,
    "longitude": 21.48333
  },
  {
    "city": "Spåkenes",
    "city_zh": "Spåkenes",
    "country": "Norway",
    "country_zh": "挪威",
    "country_iso_code": "NO",
    "timezone": "Europe/Oslo",
    "latitude": 69.76667,
    "longitude": 20.46667
  },
  {
    "city": "Sørvær",
    "city_zh": "Sørvær",
    "country": "Norway",
    "country_zh": "挪威",
    "country_iso_code": "NO",
    "timezone": "Europe/Oslo",
    "latitude": 70.63231,
    "longitude": 21.98562
  },
  {
    "city": "Sør Tverrfjord",
    "city_zh": "Sør Tverrfjord",
    "country": "Norway",
    "country_zh": "挪威",
    "country_iso_code": "NO",
    "timezone": "Europe/Oslo",
    "latitude": 70.21959,
    "longitude": 21.71409
  },
  {
    "city": "Sørstraumen",
    "city_zh": "Sørstraumen",
    "country": "Norway",
    "country_zh": "挪威",
    "country_iso_code": "NO",
    "timezone": "Europe/Oslo",
    "latitude": 69.84185,
    "longitude": 21.85938
  },
  {
    "city": "Sørlenangen",
    "city_zh": "Sørlenangen",
    "country": "Norway",
    "country_zh": "挪威",
    "country_iso_code": "NO",
    "timezone": "Europe/Oslo",
    "latitude": 69.81964,
    "longitude": 20.02671
  },
  {
    "city": "Sørkjosen",
    "city_zh": "Sørkjosen",
    "country": "Norway",
    "country_zh": "挪威",
    "country_iso_code": "NO",
    "timezone": "Europe/Oslo",
    "latitude": 69.95,
    "longitude": 21.96667
  },
  {
    "city": "Sørkjosen",
    "city_zh": "Sørkjosen",
    "country": "Norway",
    "country_zh": "挪威",
    "country_iso_code": "NO",
    "timezone": "Europe/Oslo",
    "latitude": 69.7859,
    "longitude": 20.95049
  },
  {
    "city": "Sør-Rekvika",
    "city_zh": "Sør-Rekvika",
    "country": "Norway",
    "country_zh": "挪威",
    "country_iso_code": "NO",
    "timezone": "Europe/Oslo",
    "latitude": 70.13662,
    "longitude": 20.38669
  },
  {
    "city": "Søledalen",
    "city_zh": "Søledalen",
    "country": "Norway",
    "country_zh": "挪威",
    "country_iso_code": "NO",
    "timezone": "Europe/Oslo",
    "latitude": 70.14162,
    "longitude": 28.68897
  },
  {
    "city": "Muorral",
    "city_zh": "Muorral",
    "country": "Norway",
    "country_zh": "挪威",
    "country_iso_code": "NO",
    "timezone": "Europe/Oslo",
    "latitude": 70.78781,
    "longitude": 24.60722
  },
  {
    "city": "Smellror",
    "city_zh": "Smellror",
    "country": "Norway",
    "country_zh": "挪威",
    "country_iso_code": "NO",
    "timezone": "Europe/Oslo",
    "latitude": 70.38535,
    "longitude": 31.02043
  },
  {
    "city": "Småland",
    "city_zh": "Småland",
    "country": "Norway",
    "country_zh": "挪威",
    "country_iso_code": "NO",
    "timezone": "Europe/Oslo",
    "latitude": 69.91667,
    "longitude": 23.26667
  },
  {
    "city": "Muotki",
    "city_zh": "Muotki",
    "country": "Norway",
    "country_zh": "挪威",
    "country_iso_code": "NO",
    "timezone": "Europe/Oslo",
    "latitude": 70.74968,
    "longitude": 24.51461
  },
  {
    "city": "Skuvgi",
    "city_zh": "Skuvgi",
    "country": "Norway",
    "country_zh": "挪威",
    "country_iso_code": "NO",
    "timezone": "Europe/Oslo",
    "latitude": 70.46858,
    "longitude": 28.36471
  },
  {
    "city": "Skorpa",
    "city_zh": "Skorpa",
    "country": "Norway",
    "country_zh": "挪威",
    "country_iso_code": "NO",
    "timezone": "Europe/Oslo",
    "latitude": 69.93333,
    "longitude": 21.71667
  },
  {
    "city": "Skoltebyen",
    "city_zh": "Skoltebyen",
    "country": "Norway",
    "country_zh": "挪威",
    "country_iso_code": "NO",
    "timezone": "Europe/Oslo",
    "latitude": 69.68875,
    "longitude": 29.37481
  },
  {
    "city": "Skogfoss",
    "city_zh": "Skogfoss",
    "country": "Norway",
    "country_zh": "挪威",
    "country_iso_code": "NO",
    "timezone": "Europe/Oslo",
    "latitude": 69.37439,
    "longitude": 29.6935
  },
  {
    "city": "Skoganvarre",
    "city_zh": "Skoganvarre",
    "country": "Norway",
    "country_zh": "挪威",
    "country_iso_code": "NO",
    "timezone": "Europe/Oslo",
    "latitude": 69.83981,
    "longitude": 25.07822
  },
  {
    "city": "Skjøtningberg",
    "city_zh": "Skjøtningberg",
    "country": "Norway",
    "country_zh": "挪威",
    "country_iso_code": "NO",
    "timezone": "Europe/Oslo",
    "latitude": 71.01929,
    "longitude": 27.3703
  },
  {
    "city": "Skjervøy",
    "city_zh": "Skjervøy",
    "country": "Norway",
    "country_zh": "挪威",
    "country_iso_code": "NO",
    "timezone": "Europe/Oslo",
    "latitude": 70.03114,
    "longitude": 20.97141
  },
  {
    "city": "Skjånes",
    "city_zh": "Skjånes",
    "country": "Norway",
    "country_zh": "挪威",
    "country_iso_code": "NO",
    "timezone": "Europe/Oslo",
    "latitude": 70.80069,
    "longitude": 28.10251
  },
  {
    "city": "Skjåholmen",
    "city_zh": "Skjåholmen",
    "country": "Norway",
    "country_zh": "挪威",
    "country_iso_code": "NO",
    "timezone": "Europe/Oslo",
    "latitude": 70.54754,
    "longitude": 23.72825
  },
  {
    "city": "Skipsfjord",
    "city_zh": "Skipsfjord",
    "country": "Norway",
    "country_zh": "挪威",
    "country_iso_code": "NO",
    "timezone": "Europe/Oslo",
    "latitude": 71.02617,
    "longitude": 25.89329
  },
  {
    "city": "Skiippagurra",
    "city_zh": "Skiippagurra",
    "country": "Norway",
    "country_zh": "挪威",
    "country_iso_code": "NO",
    "timezone": "Europe/Oslo",
    "latitude": 70.16542,
    "longitude": 28.22462
  },
  {
    "city": "Skinnelva",
    "city_zh": "Skinnelva",
    "country": "Norway",
    "country_zh": "挪威",
    "country_iso_code": "NO",
    "timezone": "Europe/Oslo",
    "latitude": 69.61375,
    "longitude": 20.33393
  },
  {
    "city": "Skillemo",
    "city_zh": "Skillemo",
    "country": "Norway",
    "country_zh": "挪威",
    "country_iso_code": "NO",
    "timezone": "Europe/Oslo",
    "latitude": 69.9,
    "longitude": 23.25
  },
  {
    "city": "Ivgobahta",
    "city_zh": "Ivgobahta",
    "country": "Norway",
    "country_zh": "挪威",
    "country_iso_code": "NO",
    "timezone": "Europe/Oslo",
    "latitude": 69.39086,
    "longitude": 20.26736
  },
  {
    "city": "Skarsvåg",
    "city_zh": "Skarsvåg",
    "country": "Norway",
    "country_zh": "挪威",
    "country_iso_code": "NO",
    "timezone": "Europe/Oslo",
    "latitude": 71.11319,
    "longitude": 25.82699
  },
  {
    "city": "Gállojohka",
    "city_zh": "Gállojohka",
    "country": "Norway",
    "country_zh": "挪威",
    "country_iso_code": "NO",
    "timezone": "Europe/Oslo",
    "latitude": 70.18922,
    "longitude": 30.33424
  },
  {
    "city": "Sirddagohppi",
    "city_zh": "Sirddagohppi",
    "country": "Norway",
    "country_zh": "挪威",
    "country_iso_code": "NO",
    "timezone": "Europe/Oslo",
    "latitude": 70.11029,
    "longitude": 28.58973
  },
  {
    "city": "Sirbmá",
    "city_zh": "Sirbmá",
    "country": "Norway",
    "country_zh": "挪威",
    "country_iso_code": "NO",
    "timezone": "Europe/Oslo",
    "latitude": 70.01455,
    "longitude": 27.39853
  },
  {
    "city": "Simavåg",
    "city_zh": "Simavåg",
    "country": "Norway",
    "country_zh": "挪威",
    "country_iso_code": "NO",
    "timezone": "Europe/Oslo",
    "latitude": 69.98804,
    "longitude": 20.97064
  },
  {
    "city": "Vuolle-Siebe",
    "city_zh": "Vuolle-Siebe",
    "country": "Norway",
    "country_zh": "挪威",
    "country_iso_code": "NO",
    "timezone": "Europe/Oslo",
    "latitude": 68.87397,
    "longitude": 23.14289
  },
  {
    "city": "Seljeli",
    "city_zh": "Seljeli",
    "country": "Norway",
    "country_zh": "挪威",
    "country_iso_code": "NO",
    "timezone": "Europe/Oslo",
    "latitude": 70.08333,
    "longitude": 22.53333
  },
  {
    "city": "Sekkemo",
    "city_zh": "Sekkemo",
    "country": "Norway",
    "country_zh": "挪威",
    "country_iso_code": "NO",
    "timezone": "Europe/Oslo",
    "latitude": 69.83811,
    "longitude": 21.95679
  },
  {
    "city": "Seglvik",
    "city_zh": "Seglvik",
    "country": "Norway",
    "country_zh": "挪威",
    "country_iso_code": "NO",
    "timezone": "Europe/Oslo",
    "latitude": 70.20621,
    "longitude": 21.21672
  },
  {
    "city": "Sauhamn",
    "city_zh": "Sauhamn",
    "country": "Norway",
    "country_zh": "挪威",
    "country_iso_code": "NO",
    "timezone": "Europe/Oslo",
    "latitude": 70.75,
    "longitude": 24.36667
  },
  {
    "city": "Sarnes",
    "city_zh": "Sarnes",
    "country": "Norway",
    "country_zh": "挪威",
    "country_iso_code": "NO",
    "timezone": "Europe/Oslo",
    "latitude": 70.97356,
    "longitude": 25.79538
  },
  {
    "city": "Sappen",
    "city_zh": "Sappen",
    "country": "Norway",
    "country_zh": "挪威",
    "country_iso_code": "NO",
    "timezone": "Europe/Oslo",
    "latitude": 69.5592,
    "longitude": 21.29815
  },
  {
    "city": "Sandvikvær",
    "city_zh": "Sandvikvær",
    "country": "Norway",
    "country_zh": "挪威",
    "country_iso_code": "NO",
    "timezone": "Europe/Oslo",
    "latitude": 71.07775,
    "longitude": 24.70199
  },
  {
    "city": "Sandnes",
    "city_zh": "Sandnes",
    "country": "Norway",
    "country_zh": "挪威",
    "country_iso_code": "NO",
    "timezone": "Europe/Oslo",
    "latitude": 69.66978,
    "longitude": 29.94471
  },
  {
    "city": "Sandland",
    "city_zh": "Sandland",
    "country": "Norway",
    "country_zh": "挪威",
    "country_iso_code": "NO",
    "timezone": "Europe/Oslo",
    "latitude": 70.26725,
    "longitude": 21.60279
  },
  {
    "city": "Samuelsberg",
    "city_zh": "Samuelsberg",
    "country": "Norway",
    "country_zh": "挪威",
    "country_iso_code": "NO",
    "timezone": "Europe/Oslo",
    "latitude": 69.55153,
    "longitude": 20.53352
  },
  {
    "city": "Sagen",
    "city_zh": "Sagen",
    "country": "Norway",
    "country_zh": "挪威",
    "country_iso_code": "NO",
    "timezone": "Europe/Oslo",
    "latitude": 69.95,
    "longitude": 23.41667
  },
  {
    "city": "Searvegieddi",
    "city_zh": "Searvegieddi",
    "country": "Norway",
    "country_zh": "挪威",
    "country_iso_code": "NO",
    "timezone": "Europe/Oslo",
    "latitude": 70.43733,
    "longitude": 27.8749
  },
  {
    "city": "Hamna i Ryggefjord",
    "city_zh": "Hamna i Ryggefjord",
    "country": "Norway",
    "country_zh": "挪威",
    "country_iso_code": "NO",
    "timezone": "Europe/Oslo",
    "latitude": 70.87245,
    "longitude": 24.93661
  },
  {
    "city": "Rustefjelbma",
    "city_zh": "Rustefjelbma",
    "country": "Norway",
    "country_zh": "挪威",
    "country_iso_code": "NO",
    "timezone": "Europe/Oslo",
    "latitude": 70.39818,
    "longitude": 28.19159
  },
  {
    "city": "Russesand",
    "city_zh": "Russesand",
    "country": "Norway",
    "country_zh": "挪威",
    "country_iso_code": "NO",
    "timezone": "Europe/Oslo",
    "latitude": 71.07658,
    "longitude": 24.79698
  },
  {
    "city": "Kokelv",
    "city_zh": "Kokelv",
    "country": "Norway",
    "country_zh": "挪威",
    "country_iso_code": "NO",
    "timezone": "Europe/Oslo",
    "latitude": 70.61324,
    "longitude": 24.65272
  },
  {
    "city": "Russelv",
    "city_zh": "Russelv",
    "country": "Norway",
    "country_zh": "挪威",
    "country_iso_code": "NO",
    "timezone": "Europe/Oslo",
    "latitude": 69.95,
    "longitude": 20.23333
  },
  {
    "city": "Ruoššaluokta",
    "city_zh": "Ruoššaluokta",
    "country": "Norway",
    "country_zh": "挪威",
    "country_iso_code": "NO",
    "timezone": "Europe/Oslo",
    "latitude": 70.02235,
    "longitude": 23.36337
  },
  {
    "city": "Russehamn",
    "city_zh": "Russehamn",
    "country": "Norway",
    "country_zh": "挪威",
    "country_iso_code": "NO",
    "timezone": "Europe/Oslo",
    "latitude": 70.34028,
    "longitude": 22.83626
  },
  {
    "city": "Rotsund",
    "city_zh": "Rotsund",
    "country": "Norway",
    "country_zh": "挪威",
    "country_iso_code": "NO",
    "timezone": "Europe/Oslo",
    "latitude": 69.77759,
    "longitude": 20.58961
  },
  {
    "city": "Rognskog",
    "city_zh": "Rognskog",
    "country": "Norway",
    "country_zh": "挪威",
    "country_iso_code": "NO",
    "timezone": "Europe/Oslo",
    "latitude": 69.93656,
    "longitude": 23.41917
  },
  {
    "city": "Rivarbukt",
    "city_zh": "Rivarbukt",
    "country": "Norway",
    "country_zh": "挪威",
    "country_iso_code": "NO",
    "timezone": "Europe/Oslo",
    "latitude": 70.09025,
    "longitude": 22.63186
  },
  {
    "city": "Revsneshamn",
    "city_zh": "Revsneshamn",
    "country": "Norway",
    "country_zh": "挪威",
    "country_iso_code": "NO",
    "timezone": "Europe/Oslo",
    "latitude": 70.68209,
    "longitude": 24.34908
  },
  {
    "city": "Revsbotn",
    "city_zh": "Revsbotn",
    "country": "Norway",
    "country_zh": "挪威",
    "country_iso_code": "NO",
    "timezone": "Europe/Oslo",
    "latitude": 70.6,
    "longitude": 24.68333
  },
  {
    "city": "Reiffváhki",
    "city_zh": "Reiffváhki",
    "country": "Norway",
    "country_zh": "挪威",
    "country_iso_code": "NO",
    "timezone": "Europe/Oslo",
    "latitude": 70.74681,
    "longitude": 25.67195
  },
  {
    "city": "Øyen",
    "city_zh": "Øyen",
    "country": "Norway",
    "country_zh": "挪威",
    "country_iso_code": "NO",
    "timezone": "Europe/Oslo",
    "latitude": 70.45652,
    "longitude": 24.27708
  },
  {
    "city": "Repparfjord",
    "city_zh": "Repparfjord",
    "country": "Norway",
    "country_zh": "挪威",
    "country_iso_code": "NO",
    "timezone": "Europe/Oslo",
    "latitude": 70.41667,
    "longitude": 24.55
  },
  {
    "city": "Rekvik",
    "city_zh": "Rekvik",
    "country": "Norway",
    "country_zh": "挪威",
    "country_iso_code": "NO",
    "timezone": "Europe/Oslo",
    "latitude": 70.9,
    "longitude": 26.45
  },
  {
    "city": "Raudmyr",
    "city_zh": "Raudmyr",
    "country": "Norway",
    "country_zh": "挪威",
    "country_iso_code": "NO",
    "timezone": "Europe/Oslo",
    "latitude": 70.03333,
    "longitude": 22.31667
  },
  {
    "city": "Rottenvik",
    "city_zh": "Rottenvik",
    "country": "Norway",
    "country_zh": "挪威",
    "country_iso_code": "NO",
    "timezone": "Europe/Oslo",
    "latitude": 69.59127,
    "longitude": 20.27721
  },
  {
    "city": "Čuollonjárga",
    "city_zh": "Čuollonjárga",
    "country": "Norway",
    "country_zh": "挪威",
    "country_iso_code": "NO",
    "timezone": "Europe/Oslo",
    "latitude": 69.39749,
    "longitude": 20.13569
  },
  {
    "city": "Rakeskjer",
    "city_zh": "Rakeskjer",
    "country": "Norway",
    "country_zh": "挪威",
    "country_iso_code": "NO",
    "timezone": "Europe/Oslo",
    "latitude": 70.25,
    "longitude": 23.26667
  },
  {
    "city": "Rafsbotn",
    "city_zh": "Rafsbotn",
    "country": "Norway",
    "country_zh": "挪威",
    "country_iso_code": "NO",
    "timezone": "Europe/Oslo",
    "latitude": 70.0187,
    "longitude": 23.53738
  },
  {
    "city": "Reahpen",
    "city_zh": "Reahpen",
    "country": "Norway",
    "country_zh": "挪威",
    "country_iso_code": "NO",
    "timezone": "Europe/Oslo",
    "latitude": 70.09384,
    "longitude": 28.66471
  },
  {
    "city": "Potka",
    "city_zh": "Potka",
    "country": "Norway",
    "country_zh": "挪威",
    "country_iso_code": "NO",
    "timezone": "Europe/Oslo",
    "latitude": 69.66381,
    "longitude": 21.3089
  },
  {
    "city": "Buolbmát",
    "city_zh": "Buolbmát",
    "country": "Norway",
    "country_zh": "挪威",
    "country_iso_code": "NO",
    "timezone": "Europe/Oslo",
    "latitude": 70.0708,
    "longitude": 28.00725
  },
  {
    "city": "Polleidet",
    "city_zh": "Polleidet",
    "country": "Norway",
    "country_zh": "挪威",
    "country_iso_code": "NO",
    "timezone": "Europe/Oslo",
    "latitude": 69.49338,
    "longitude": 20.19512
  },
  {
    "city": "Paddeby",
    "city_zh": "Paddeby",
    "country": "Norway",
    "country_zh": "挪威",
    "country_iso_code": "NO",
    "timezone": "Europe/Oslo",
    "latitude": 70.09951,
    "longitude": 29.43674
  },
  {
    "city": "Øvre Alta",
    "city_zh": "Øvre Alta",
    "country": "Norway",
    "country_zh": "挪威",
    "country_iso_code": "NO",
    "timezone": "Europe/Oslo",
    "latitude": 69.92536,
    "longitude": 23.26429
  },
  {
    "city": "Oldervik",
    "city_zh": "Oldervik",
    "country": "Norway",
    "country_zh": "挪威",
    "country_iso_code": "NO",
    "timezone": "Europe/Oslo",
    "latitude": 70.52323,
    "longitude": 26.99925
  },
  {
    "city": "Leaibenjárga",
    "city_zh": "Leaibenjárga",
    "country": "Norway",
    "country_zh": "挪威",
    "country_iso_code": "NO",
    "timezone": "Europe/Oslo",
    "latitude": 70.11797,
    "longitude": 28.15639
  },
  {
    "city": "Oldernes",
    "city_zh": "Oldernes",
    "country": "Norway",
    "country_zh": "挪威",
    "country_iso_code": "NO",
    "timezone": "Europe/Oslo",
    "latitude": 70.44568,
    "longitude": 24.33466
  },
  {
    "city": "Leaibevuotna",
    "city_zh": "Leaibevuotna",
    "country": "Norway",
    "country_zh": "挪威",
    "country_iso_code": "NO",
    "timezone": "Europe/Oslo",
    "latitude": 70.4738,
    "longitude": 25.0713
  },
  {
    "city": "Olderfjord",
    "city_zh": "Olderfjord",
    "country": "Norway",
    "country_zh": "挪威",
    "country_iso_code": "NO",
    "timezone": "Europe/Oslo",
    "latitude": 70.17467,
    "longitude": 21.48237
  },
  {
    "city": "Olderdalen",
    "city_zh": "Olderdalen",
    "country": "Norway",
    "country_zh": "挪威",
    "country_iso_code": "NO",
    "timezone": "Europe/Oslo",
    "latitude": 69.60407,
    "longitude": 20.53272
  },
  {
    "city": "Oksfjordhamn",
    "city_zh": "Oksfjordhamn",
    "country": "Norway",
    "country_zh": "挪威",
    "country_iso_code": "NO",
    "timezone": "Europe/Oslo",
    "latitude": 69.90815,
    "longitude": 21.32767
  },
  {
    "city": "Øksfjordbotn",
    "city_zh": "Øksfjordbotn",
    "country": "Norway",
    "country_zh": "挪威",
    "country_iso_code": "NO",
    "timezone": "Europe/Oslo",
    "latitude": 70.10878,
    "longitude": 22.52773
  },
  {
    "city": "Øksfjord",
    "city_zh": "Øksfjord",
    "country": "Norway",
    "country_zh": "挪威",
    "country_iso_code": "NO",
    "timezone": "Europe/Oslo",
    "latitude": 70.23936,
    "longitude": 22.3507
  },
  {
    "city": "Oksevik",
    "city_zh": "Oksevik",
    "country": "Norway",
    "country_zh": "挪威",
    "country_iso_code": "NO",
    "timezone": "Europe/Oslo",
    "latitude": 69.53156,
    "longitude": 20.2186
  },
  {
    "city": "Gárgu",
    "city_zh": "Gárgu",
    "country": "Norway",
    "country_zh": "挪威",
    "country_iso_code": "NO",
    "timezone": "Europe/Oslo",
    "latitude": 70.22612,
    "longitude": 23.38046
  },
  {
    "city": "Nyhavn",
    "city_zh": "Nyhavn",
    "country": "Norway",
    "country_zh": "挪威",
    "country_iso_code": "NO",
    "timezone": "Europe/Oslo",
    "latitude": 70.15302,
    "longitude": 30.34735
  },
  {
    "city": "Nyelva",
    "city_zh": "Nyelva",
    "country": "Norway",
    "country_zh": "挪威",
    "country_iso_code": "NO",
    "timezone": "Europe/Oslo",
    "latitude": 70.06667,
    "longitude": 20.85
  },
  {
    "city": "Nuvsvåg",
    "city_zh": "Nuvsvåg",
    "country": "Norway",
    "country_zh": "挪威",
    "country_iso_code": "NO",
    "timezone": "Europe/Oslo",
    "latitude": 70.26951,
    "longitude": 22.11604
  },
  {
    "city": "Nuorttit Sieiddá",
    "city_zh": "Nuorttit Sieiddá",
    "country": "Norway",
    "country_zh": "挪威",
    "country_iso_code": "NO",
    "timezone": "Europe/Oslo",
    "latitude": 70.2313,
    "longitude": 28.17865
  },
  {
    "city": "Nordvågen",
    "city_zh": "Nordvågen",
    "country": "Norway",
    "country_zh": "挪威",
    "country_iso_code": "NO",
    "timezone": "Europe/Oslo",
    "latitude": 70.98045,
    "longitude": 26.03206
  },
  {
    "city": "Nordstraumen",
    "city_zh": "Nordstraumen",
    "country": "Norway",
    "country_zh": "挪威",
    "country_iso_code": "NO",
    "timezone": "Europe/Oslo",
    "latitude": 69.83933,
    "longitude": 21.89272
  },
  {
    "city": "Nord-Rekvika",
    "city_zh": "Nord-Rekvika",
    "country": "Norway",
    "country_zh": "挪威",
    "country_iso_code": "NO",
    "timezone": "Europe/Oslo",
    "latitude": 70.22808,
    "longitude": 20.64252
  },
  {
    "city": "Nordmannvik",
    "city_zh": "Nordmannvik",
    "country": "Norway",
    "country_zh": "挪威",
    "country_iso_code": "NO",
    "timezone": "Europe/Oslo",
    "latitude": 69.67856,
    "longitude": 20.50195
  },
  {
    "city": "Nordmannset",
    "city_zh": "Nordmannset",
    "country": "Norway",
    "country_zh": "挪威",
    "country_iso_code": "NO",
    "timezone": "Europe/Oslo",
    "latitude": 71.00696,
    "longitude": 25.96274
  },
  {
    "city": "Ytre Nordmannset",
    "city_zh": "Ytre Nordmannset",
    "country": "Norway",
    "country_zh": "挪威",
    "country_iso_code": "NO",
    "timezone": "Europe/Oslo",
    "latitude": 70.58955,
    "longitude": 25.24376
  },
  {
    "city": "Nordlenangen",
    "city_zh": "Nordlenangen",
    "country": "Norway",
    "country_zh": "挪威",
    "country_iso_code": "NO",
    "timezone": "Europe/Oslo",
    "latitude": 69.9,
    "longitude": 20.15
  },
  {
    "city": "Nordkjosbotn",
    "city_zh": "Nordkjosbotn",
    "country": "Norway",
    "country_zh": "挪威",
    "country_iso_code": "NO",
    "timezone": "Europe/Oslo",
    "latitude": 69.8,
    "longitude": 21.05
  },
  {
    "city": "Nikkeby",
    "city_zh": "Nikkeby",
    "country": "Norway",
    "country_zh": "挪威",
    "country_iso_code": "NO",
    "timezone": "Europe/Oslo",
    "latitude": 70.07126,
    "longitude": 20.83244
  },
  {
    "city": "Náivuotna",
    "city_zh": "Náivuotna",
    "country": "Norway",
    "country_zh": "挪威",
    "country_iso_code": "NO",
    "timezone": "Europe/Oslo",
    "latitude": 70.43915,
    "longitude": 23.78577
  },
  {
    "city": "Unjárga",
    "city_zh": "Unjárga",
    "country": "Norway",
    "country_zh": "挪威",
    "country_iso_code": "NO",
    "timezone": "Europe/Oslo",
    "latitude": 70.15197,
    "longitude": 28.8648
  },
  {
    "city": "Nervei",
    "city_zh": "Nervei",
    "country": "Norway",
    "country_zh": "挪威",
    "country_iso_code": "NO",
    "timezone": "Europe/Oslo",
    "latitude": 70.66588,
    "longitude": 27.84974
  },
  {
    "city": "Neiden",
    "city_zh": "內伊登",
    "country": "Norway",
    "country_zh": "挪威",
    "country_iso_code": "NO",
    "timezone": "Europe/Oslo",
    "latitude": 69.69586,
    "longitude": 29.37713
  },
  {
    "city": "Myrland",
    "city_zh": "Myrland",
    "country": "Norway",
    "country_zh": "挪威",
    "country_iso_code": "NO",
    "timezone": "Europe/Oslo",
    "latitude": 70.05,
    "longitude": 22.28333
  },
  {
    "city": "Munkefjord",
    "city_zh": "Munkefjord",
    "country": "Norway",
    "country_zh": "挪威",
    "country_iso_code": "NO",
    "timezone": "Europe/Oslo",
    "latitude": 69.6505,
    "longitude": 29.4872
  },
  {
    "city": "Ceavccageađgi",
    "city_zh": "Ceavccageađgi",
    "country": "Norway",
    "country_zh": "挪威",
    "country_iso_code": "NO",
    "timezone": "Europe/Oslo",
    "latitude": 70.13053,
    "longitude": 29.00931
  },
  {
    "city": "Mobakken",
    "city_zh": "Mobakken",
    "country": "Norway",
    "country_zh": "挪威",
    "country_iso_code": "NO",
    "timezone": "Europe/Oslo",
    "latitude": 70.11667,
    "longitude": 23.4
  },
  {
    "city": "Mierojávri",
    "city_zh": "Mierojávri",
    "country": "Norway",
    "country_zh": "挪威",
    "country_iso_code": "NO",
    "timezone": "Europe/Oslo",
    "latitude": 69.1166,
    "longitude": 23.2452
  },
  {
    "city": "Mettevoll",
    "city_zh": "Mettevoll",
    "country": "Norway",
    "country_zh": "挪威",
    "country_iso_code": "NO",
    "timezone": "Europe/Oslo",
    "latitude": 69.88333,
    "longitude": 21.43333
  },
  {
    "city": "Meskelv",
    "city_zh": "Meskelv",
    "country": "Norway",
    "country_zh": "挪威",
    "country_iso_code": "NO",
    "timezone": "Europe/Oslo",
    "latitude": 70.17689,
    "longitude": 28.67757
  },
  {
    "city": "Melsvik",
    "city_zh": "Melsvik",
    "country": "Norway",
    "country_zh": "挪威",
    "country_iso_code": "NO",
    "timezone": "Europe/Oslo",
    "latitude": 70.01493,
    "longitude": 23.03068
  },
  {
    "city": "Mella",
    "city_zh": "Mella",
    "country": "Norway",
    "country_zh": "挪威",
    "country_iso_code": "NO",
    "timezone": "Europe/Oslo",
    "latitude": 70.01667,
    "longitude": 23.53333
  },
  {
    "city": "Meiland",
    "city_zh": "Meiland",
    "country": "Norway",
    "country_zh": "挪威",
    "country_iso_code": "NO",
    "timezone": "Europe/Oslo",
    "latitude": 70.00718,
    "longitude": 21.27744
  },
  {
    "city": "Mehamn",
    "city_zh": "Mehamn",
    "country": "Norway",
    "country_zh": "挪威",
    "country_iso_code": "NO",
    "timezone": "Europe/Oslo",
    "latitude": 71.04137,
    "longitude": 27.85133
  },
  {
    "city": "Mefjord",
    "city_zh": "Mefjord",
    "country": "Norway",
    "country_zh": "挪威",
    "country_iso_code": "NO",
    "timezone": "Europe/Oslo",
    "latitude": 70.81122,
    "longitude": 23.42885
  },
  {
    "city": "Maursund",
    "city_zh": "Maursund",
    "country": "Norway",
    "country_zh": "挪威",
    "country_iso_code": "NO",
    "timezone": "Europe/Oslo",
    "latitude": 69.92645,
    "longitude": 20.85919
  },
  {
    "city": "Måsøy",
    "city_zh": "Måsøy",
    "country": "Norway",
    "country_zh": "挪威",
    "country_iso_code": "NO",
    "timezone": "Europe/Oslo",
    "latitude": 71.0077,
    "longitude": 25.00404
  },
  {
    "city": "Masi",
    "city_zh": "Masi",
    "country": "Norway",
    "country_zh": "挪威",
    "country_iso_code": "NO",
    "timezone": "Europe/Oslo",
    "latitude": 69.44382,
    "longitude": 23.66725
  },
  {
    "city": "Mårøy",
    "city_zh": "Mårøy",
    "country": "Norway",
    "country_zh": "挪威",
    "country_iso_code": "NO",
    "timezone": "Europe/Oslo",
    "latitude": 70.79205,
    "longitude": 27.20823
  },
  {
    "city": "Manndalen",
    "city_zh": "Manndalen",
    "country": "Norway",
    "country_zh": "挪威",
    "country_iso_code": "NO",
    "timezone": "Europe/Oslo",
    "latitude": 69.6,
    "longitude": 20.55
  },
  {
    "city": "Makkaur",
    "city_zh": "Makkaur",
    "country": "Norway",
    "country_zh": "挪威",
    "country_iso_code": "NO",
    "timezone": "Europe/Oslo",
    "latitude": 70.70717,
    "longitude": 30.03124
  },
  {
    "city": "Mafjord",
    "city_zh": "Mafjord",
    "country": "Norway",
    "country_zh": "挪威",
    "country_iso_code": "NO",
    "timezone": "Europe/Oslo",
    "latitude": 71.06269,
    "longitude": 23.99483
  },
  {
    "city": "Lyngseidet",
    "city_zh": "Lyngseidet",
    "country": "Norway",
    "country_zh": "挪威",
    "country_iso_code": "NO",
    "timezone": "Europe/Oslo",
    "latitude": 69.57629,
    "longitude": 20.21887
  },
  {
    "city": "Lyngsdalen",
    "city_zh": "Lyngsdalen",
    "country": "Norway",
    "country_zh": "挪威",
    "country_iso_code": "NO",
    "timezone": "Europe/Oslo",
    "latitude": 69.44828,
    "longitude": 20.09296
  },
  {
    "city": "Loppa",
    "city_zh": "Loppa",
    "country": "Norway",
    "country_zh": "挪威",
    "country_iso_code": "NO",
    "timezone": "Europe/Oslo",
    "latitude": 70.3338,
    "longitude": 21.45068
  },
  {
    "city": "Pikkujärvi",
    "city_zh": "Pikkujärvi",
    "country": "Norway",
    "country_zh": "挪威",
    "country_iso_code": "NO",
    "timezone": "Europe/Oslo",
    "latitude": 70.0704,
    "longitude": 30.00133
  },
  {
    "city": "Lille-Molvik",
    "city_zh": "Lille-Molvik",
    "country": "Norway",
    "country_zh": "挪威",
    "country_iso_code": "NO",
    "timezone": "Europe/Oslo",
    "latitude": 70.5988,
    "longitude": 28.47523
  },
  {
    "city": "Lillefjord",
    "city_zh": "Lillefjord",
    "country": "Norway",
    "country_zh": "挪威",
    "country_iso_code": "NO",
    "timezone": "Europe/Oslo",
    "latitude": 70.6979,
    "longitude": 24.65338
  },
  {
    "city": "Lille Lerresfjord",
    "city_zh": "Lille Lerresfjord",
    "country": "Norway",
    "country_zh": "挪威",
    "country_iso_code": "NO",
    "timezone": "Europe/Oslo",
    "latitude": 70.32461,
    "longitude": 23.51337
  },
  {
    "city": "Leirpollskogen",
    "city_zh": "Leirpollskogen",
    "country": "Norway",
    "country_zh": "挪威",
    "country_iso_code": "NO",
    "timezone": "Europe/Oslo",
    "latitude": 70.43966,
    "longitude": 28.50343
  },
  {
    "city": "Lebesby",
    "city_zh": "Lebesby",
    "country": "Norway",
    "country_zh": "挪威",
    "country_iso_code": "NO",
    "timezone": "Europe/Oslo",
    "latitude": 70.57279,
    "longitude": 27.00193
  },
  {
    "city": "Lavvonjárga",
    "city_zh": "Lavvonjárga",
    "country": "Norway",
    "country_zh": "挪威",
    "country_iso_code": "NO",
    "timezone": "Europe/Oslo",
    "latitude": 70.51018,
    "longitude": 28.46741
  },
  {
    "city": "Låvan",
    "city_zh": "Låvan",
    "country": "Norway",
    "country_zh": "挪威",
    "country_iso_code": "NO",
    "timezone": "Europe/Oslo",
    "latitude": 70.02314,
    "longitude": 21.99058
  },
  {
    "city": "Løkvollen",
    "city_zh": "Løkvollen",
    "country": "Norway",
    "country_zh": "挪威",
    "country_iso_code": "NO",
    "timezone": "Europe/Oslo",
    "latitude": 69.54179,
    "longitude": 20.5461
  },
  {
    "city": "Lauksletta",
    "city_zh": "Lauksletta",
    "country": "Norway",
    "country_zh": "挪威",
    "country_iso_code": "NO",
    "timezone": "Europe/Oslo",
    "latitude": 70.13806,
    "longitude": 20.76422
  },
  {
    "city": "Indre Laukeng",
    "city_zh": "Indre Laukeng",
    "country": "Norway",
    "country_zh": "挪威",
    "country_iso_code": "NO",
    "timezone": "Europe/Oslo",
    "latitude": 70.3136,
    "longitude": 23.49066
  },
  {
    "city": "Langstrand",
    "city_zh": "Langstrand",
    "country": "Norway",
    "country_zh": "挪威",
    "country_iso_code": "NO",
    "timezone": "Europe/Oslo",
    "latitude": 70.68784,
    "longitude": 23.17905
  },
  {
    "city": "Langnes",
    "city_zh": "Langnes",
    "country": "Norway",
    "country_zh": "挪威",
    "country_iso_code": "NO",
    "timezone": "Europe/Oslo",
    "latitude": 70.0806,
    "longitude": 20.80291
  },
  {
    "city": "Langnes",
    "city_zh": "Langnes",
    "country": "Norway",
    "country_zh": "挪威",
    "country_iso_code": "NO",
    "timezone": "Europe/Oslo",
    "latitude": 69.52442,
    "longitude": 20.6917
  },
  {
    "city": "Goalsevuohppi",
    "city_zh": "Goalsevuohppi",
    "country": "Norway",
    "country_zh": "挪威",
    "country_iso_code": "NO",
    "timezone": "Europe/Oslo",
    "latitude": 70.71884,
    "longitude": 28.08179
  },
  {
    "city": "Langfjordhamn",
    "city_zh": "Langfjordhamn",
    "country": "Norway",
    "country_zh": "挪威",
    "country_iso_code": "NO",
    "timezone": "Europe/Oslo",
    "latitude": 70.1392,
    "longitude": 21.86088
  },
  {
    "city": "Langvasseid",
    "city_zh": "Langvasseid",
    "country": "Norway",
    "country_zh": "挪威",
    "country_iso_code": "NO",
    "timezone": "Europe/Oslo",
    "latitude": 69.58734,
    "longitude": 29.94517
  },
  {
    "city": "Langfjorden",
    "city_zh": "Langfjorden",
    "country": "Norway",
    "country_zh": "挪威",
    "country_iso_code": "NO",
    "timezone": "Europe/Oslo",
    "latitude": 70.0614,
    "longitude": 20.55846
  },
  {
    "city": "Langenes",
    "city_zh": "Langenes",
    "country": "Norway",
    "country_zh": "挪威",
    "country_iso_code": "NO",
    "timezone": "Europe/Oslo",
    "latitude": 70.1,
    "longitude": 23.0
  },
  {
    "city": "Langbunes",
    "city_zh": "Langbunes",
    "country": "Norway",
    "country_zh": "挪威",
    "country_iso_code": "NO",
    "timezone": "Europe/Oslo",
    "latitude": 70.25643,
    "longitude": 30.68894
  },
  {
    "city": "Lakselv",
    "city_zh": "拉克塞爾夫",
    "country": "Norway",
    "country_zh": "挪威",
    "country_iso_code": "NO",
    "timezone": "Europe/Oslo",
    "latitude": 70.05133,
    "longitude": 24.97182
  },
  {
    "city": "Laholmen",
    "city_zh": "Laholmen",
    "country": "Norway",
    "country_zh": "挪威",
    "country_iso_code": "NO",
    "timezone": "Europe/Oslo",
    "latitude": 70.89428,
    "longitude": 25.5816
  },
  {
    "city": "Lággu",
    "city_zh": "Lággu",
    "country": "Norway",
    "country_zh": "挪威",
    "country_iso_code": "NO",
    "timezone": "Europe/Oslo",
    "latitude": 70.62372,
    "longitude": 27.62976
  },
  {
    "city": "Austre Lafjord",
    "city_zh": "Austre Lafjord",
    "country": "Norway",
    "country_zh": "挪威",
    "country_iso_code": "NO",
    "timezone": "Europe/Oslo",
    "latitude": 70.86731,
    "longitude": 25.49462
  },
  {
    "city": "Kvitnes",
    "city_zh": "Kvitnes",
    "country": "Norway",
    "country_zh": "挪威",
    "country_iso_code": "NO",
    "timezone": "Europe/Oslo",
    "latitude": 70.1,
    "longitude": 20.1
  },
  {
    "city": "Kviteberg",
    "city_zh": "Kviteberg",
    "country": "Norway",
    "country_zh": "挪威",
    "country_iso_code": "NO",
    "timezone": "Europe/Oslo",
    "latitude": 69.59179,
    "longitude": 20.30237
  },
  {
    "city": "Kviby",
    "city_zh": "Kviby",
    "country": "Norway",
    "country_zh": "挪威",
    "country_iso_code": "NO",
    "timezone": "Europe/Oslo",
    "latitude": 70.11505,
    "longitude": 23.38154
  },
  {
    "city": "Kvesmenes",
    "city_zh": "Kvesmenes",
    "country": "Norway",
    "country_zh": "挪威",
    "country_iso_code": "NO",
    "timezone": "Europe/Oslo",
    "latitude": 69.28454,
    "longitude": 19.95816
  },
  {
    "city": "Kvalvik",
    "city_zh": "Kvalvik",
    "country": "Norway",
    "country_zh": "挪威",
    "country_iso_code": "NO",
    "timezone": "Europe/Oslo",
    "latitude": 69.50431,
    "longitude": 20.20747
  },
  {
    "city": "Kvalsund",
    "city_zh": "克瓦爾松",
    "country": "Norway",
    "country_zh": "挪威",
    "country_iso_code": "NO",
    "timezone": "Europe/Oslo",
    "latitude": 70.50271,
    "longitude": 23.97974
  },
  {
    "city": "Kvalnes",
    "city_zh": "Kvalnes",
    "country": "Norway",
    "country_zh": "挪威",
    "country_iso_code": "NO",
    "timezone": "Europe/Oslo",
    "latitude": 70.21667,
    "longitude": 30.48333
  },
  {
    "city": "Kvenvik",
    "city_zh": "Kvenvik",
    "country": "Norway",
    "country_zh": "挪威",
    "country_iso_code": "NO",
    "timezone": "Europe/Oslo",
    "latitude": 69.92712,
    "longitude": 23.10491
  },
  {
    "city": "Kvænangsbotn",
    "city_zh": "Kvænangsbotn",
    "country": "Norway",
    "country_zh": "挪威",
    "country_iso_code": "NO",
    "timezone": "Europe/Oslo",
    "latitude": 69.73034,
    "longitude": 22.07716
  },
  {
    "city": "Kroken",
    "city_zh": "Kroken",
    "country": "Norway",
    "country_zh": "挪威",
    "country_iso_code": "NO",
    "timezone": "Europe/Oslo",
    "latitude": 69.56609,
    "longitude": 20.5949
  },
  {
    "city": "Kramvik",
    "city_zh": "Kramvik",
    "country": "Norway",
    "country_zh": "挪威",
    "country_iso_code": "NO",
    "timezone": "Europe/Oslo",
    "latitude": 70.26652,
    "longitude": 30.85902
  },
  {
    "city": "Krampenes",
    "city_zh": "Krampenes",
    "country": "Norway",
    "country_zh": "挪威",
    "country_iso_code": "NO",
    "timezone": "Europe/Oslo",
    "latitude": 70.10529,
    "longitude": 30.19498
  },
  {
    "city": "Gohppi",
    "city_zh": "Gohppi",
    "country": "Norway",
    "country_zh": "挪威",
    "country_iso_code": "NO",
    "timezone": "Europe/Oslo",
    "latitude": 69.67912,
    "longitude": 20.26409
  },
  {
    "city": "Kongsfjord",
    "city_zh": "Kongsfjord",
    "country": "Norway",
    "country_zh": "挪威",
    "country_iso_code": "NO",
    "timezone": "Europe/Oslo",
    "latitude": 70.72053,
    "longitude": 29.31909
  },
  {
    "city": "Kumaveri",
    "city_zh": "Kumaveri",
    "country": "Norway",
    "country_zh": "挪威",
    "country_iso_code": "NO",
    "timezone": "Europe/Oslo",
    "latitude": 70.24576,
    "longitude": 30.53313
  },
  {
    "city": "Kolvik",
    "city_zh": "Kolvik",
    "country": "Norway",
    "country_zh": "挪威",
    "country_iso_code": "NO",
    "timezone": "Europe/Oslo",
    "latitude": 70.29361,
    "longitude": 25.11377
  },
  {
    "city": "Goavkejohka",
    "city_zh": "Goavkejohka",
    "country": "Norway",
    "country_zh": "挪威",
    "country_iso_code": "NO",
    "timezone": "Europe/Oslo",
    "latitude": 70.61324,
    "longitude": 24.65272
  },
  {
    "city": "Klubbvik",
    "city_zh": "Klubbvik",
    "country": "Norway",
    "country_zh": "挪威",
    "country_iso_code": "NO",
    "timezone": "Europe/Oslo",
    "latitude": 70.13165,
    "longitude": 29.10341
  },
  {
    "city": "Klubbeneshamn",
    "city_zh": "Klubbeneshamn",
    "country": "Norway",
    "country_zh": "挪威",
    "country_iso_code": "NO",
    "timezone": "Europe/Oslo",
    "latitude": 69.90106,
    "longitude": 21.2159
  },
  {
    "city": "Klubbukt",
    "city_zh": "Klubbukt",
    "country": "Norway",
    "country_zh": "挪威",
    "country_iso_code": "NO",
    "timezone": "Europe/Oslo",
    "latitude": 70.53566,
    "longitude": 24.11194
  },
  {
    "city": "Indre Klubben",
    "city_zh": "Indre Klubben",
    "country": "Norway",
    "country_zh": "挪威",
    "country_iso_code": "NO",
    "timezone": "Europe/Oslo",
    "latitude": 70.12001,
    "longitude": 29.23367
  },
  {
    "city": "Klauvnes",
    "city_zh": "Klauvnes",
    "country": "Norway",
    "country_zh": "挪威",
    "country_iso_code": "NO",
    "timezone": "Europe/Oslo",
    "latitude": 69.91667,
    "longitude": 20.73333
  },
  {
    "city": "Kjøllefjord",
    "city_zh": "Kjøllefjord",
    "country": "Norway",
    "country_zh": "挪威",
    "country_iso_code": "NO",
    "timezone": "Europe/Oslo",
    "latitude": 70.94574,
    "longitude": 27.3465
  },
  {
    "city": "Kjelvik",
    "city_zh": "Kjelvik",
    "country": "Norway",
    "country_zh": "挪威",
    "country_iso_code": "NO",
    "timezone": "Europe/Oslo",
    "latitude": 71.00169,
    "longitude": 26.11338
  },
  {
    "city": "Kjækan",
    "city_zh": "Kjækan",
    "country": "Norway",
    "country_zh": "挪威",
    "country_iso_code": "NO",
    "timezone": "Europe/Oslo",
    "latitude": 69.77909,
    "longitude": 22.0836
  },
  {
    "city": "Kistrand",
    "city_zh": "Kistrand",
    "country": "Norway",
    "country_zh": "挪威",
    "country_iso_code": "NO",
    "timezone": "Europe/Oslo",
    "latitude": 70.43739,
    "longitude": 25.19755
  },
  {
    "city": "Kirkenes",
    "city_zh": "希尔克内斯",
    "country": "Norway",
    "country_zh": "挪威",
    "country_iso_code": "NO",
    "timezone": "Europe/Oslo",
    "latitude": 69.72706,
    "longitude": 30.04578
  },
  {
    "city": "Kifjord",
    "city_zh": "Kifjord",
    "country": "Norway",
    "country_zh": "挪威",
    "country_iso_code": "NO",
    "timezone": "Europe/Oslo",
    "latitude": 70.91424,
    "longitude": 27.39362
  },
  {
    "city": "Kiby",
    "city_zh": "Kiby",
    "country": "Norway",
    "country_zh": "挪威",
    "country_iso_code": "NO",
    "timezone": "Europe/Oslo",
    "latitude": 70.06249,
    "longitude": 29.85667
  },
  {
    "city": "Kentán",
    "city_zh": "Kentán",
    "country": "Norway",
    "country_zh": "挪威",
    "country_iso_code": "NO",
    "timezone": "Europe/Oslo",
    "latitude": 69.44479,
    "longitude": 25.20888
  },
  {
    "city": "Kautokeino",
    "city_zh": "凱于圖凱努",
    "country": "Norway",
    "country_zh": "挪威",
    "country_iso_code": "NO",
    "timezone": "Europe/Oslo",
    "latitude": 69.01247,
    "longitude": 23.04116
  },
  {
    "city": "Karpbukt",
    "city_zh": "Karpbukt",
    "country": "Norway",
    "country_zh": "挪威",
    "country_iso_code": "NO",
    "timezone": "Europe/Oslo",
    "latitude": 69.66531,
    "longitude": 30.38062
  },
  {
    "city": "Stuorravuonna",
    "city_zh": "Stuorravuonna",
    "country": "Norway",
    "country_zh": "挪威",
    "country_iso_code": "NO",
    "timezone": "Europe/Oslo",
    "latitude": 70.12261,
    "longitude": 28.57513
  },
  {
    "city": "Kårhamn",
    "city_zh": "Kårhamn",
    "country": "Norway",
    "country_zh": "挪威",
    "country_iso_code": "NO",
    "timezone": "Europe/Oslo",
    "latitude": 70.54446,
    "longitude": 23.14828
  },
  {
    "city": "Kárášjohka",
    "city_zh": "Kárášjohka",
    "country": "Norway",
    "country_zh": "挪威",
    "country_iso_code": "NO",
    "timezone": "Europe/Oslo",
    "latitude": 69.47187,
    "longitude": 25.51122
  },
  {
    "city": "Kamøyvær",
    "city_zh": "Kamøyvær",
    "country": "Norway",
    "country_zh": "挪威",
    "country_iso_code": "NO",
    "timezone": "Europe/Oslo",
    "latitude": 71.04866,
    "longitude": 25.90541
  },
  {
    "city": "Kakelv",
    "city_zh": "Kakelv",
    "country": "Norway",
    "country_zh": "挪威",
    "country_iso_code": "NO",
    "timezone": "Europe/Oslo",
    "latitude": 70.4843,
    "longitude": 24.19026
  },
  {
    "city": "Kåfjordelva",
    "city_zh": "Kåfjordelva",
    "country": "Norway",
    "country_zh": "挪威",
    "country_iso_code": "NO",
    "timezone": "Europe/Oslo",
    "latitude": 69.46667,
    "longitude": 20.91667
  },
  {
    "city": "Kåfjorddalen",
    "city_zh": "Kåfjorddalen",
    "country": "Norway",
    "country_zh": "挪威",
    "country_iso_code": "NO",
    "timezone": "Europe/Oslo",
    "latitude": 69.46128,
    "longitude": 20.93615
  },
  {
    "city": "Kåfjord",
    "city_zh": "Kåfjord",
    "country": "Norway",
    "country_zh": "挪威",
    "country_iso_code": "NO",
    "timezone": "Europe/Oslo",
    "latitude": 69.939,
    "longitude": 23.02864
  },
  {
    "city": "Jonjok",
    "city_zh": "Jonjok",
    "country": "Norway",
    "country_zh": "挪威",
    "country_iso_code": "NO",
    "timezone": "Europe/Oslo",
    "latitude": 70.52272,
    "longitude": 30.05492
  },
  {
    "city": "Jekthamna",
    "city_zh": "Jekthamna",
    "country": "Norway",
    "country_zh": "挪威",
    "country_iso_code": "NO",
    "timezone": "Europe/Oslo",
    "latitude": 69.97311,
    "longitude": 20.66544
  },
  {
    "city": "Jakobsnes",
    "city_zh": "Jakobsnes",
    "country": "Norway",
    "country_zh": "挪威",
    "country_iso_code": "NO",
    "timezone": "Europe/Oslo",
    "latitude": 69.72861,
    "longitude": 30.12466
  },
  {
    "city": "Vestre Jakobselv",
    "city_zh": "Vestre Jakobselv",
    "country": "Norway",
    "country_zh": "挪威",
    "country_iso_code": "NO",
    "timezone": "Europe/Oslo",
    "latitude": 70.11319,
    "longitude": 29.33081
  },
  {
    "city": "Ivervær",
    "city_zh": "Ivervær",
    "country": "Norway",
    "country_zh": "挪威",
    "country_iso_code": "NO",
    "timezone": "Europe/Oslo",
    "latitude": 70.35,
    "longitude": 21.8
  },
  {
    "city": "Ivarsfjord",
    "city_zh": "Ivarsfjord",
    "country": "Norway",
    "country_zh": "挪威",
    "country_iso_code": "NO",
    "timezone": "Europe/Oslo",
    "latitude": 70.81254,
    "longitude": 27.95941
  },
  {
    "city": "Indre Vieluft",
    "city_zh": "Indre Vieluft",
    "country": "Norway",
    "country_zh": "挪威",
    "country_iso_code": "NO",
    "timezone": "Europe/Oslo",
    "latitude": 70.28333,
    "longitude": 23.53333
  },
  {
    "city": "Njárga",
    "city_zh": "Njárga",
    "country": "Norway",
    "country_zh": "挪威",
    "country_iso_code": "NO",
    "timezone": "Europe/Oslo",
    "latitude": 70.32255,
    "longitude": 25.13794
  },
  {
    "city": "Indre Ravelseidet",
    "city_zh": "Indre Ravelseidet",
    "country": "Norway",
    "country_zh": "挪威",
    "country_iso_code": "NO",
    "timezone": "Europe/Oslo",
    "latitude": 69.83333,
    "longitude": 20.78333
  },
  {
    "city": "Gieddi",
    "city_zh": "Gieddi",
    "country": "Norway",
    "country_zh": "挪威",
    "country_iso_code": "NO",
    "timezone": "Europe/Oslo",
    "latitude": 70.38117,
    "longitude": 25.49552
  },
  {
    "city": "Indre Kiberg",
    "city_zh": "Indre Kiberg",
    "country": "Norway",
    "country_zh": "挪威",
    "country_iso_code": "NO",
    "timezone": "Europe/Oslo",
    "latitude": 70.27512,
    "longitude": 30.94486
  },
  {
    "city": "Hop",
    "city_zh": "Hop",
    "country": "Norway",
    "country_zh": "挪威",
    "country_iso_code": "NO",
    "timezone": "Europe/Oslo",
    "latitude": 70.80701,
    "longitude": 28.10245
  },
  {
    "city": "Breannjá",
    "city_zh": "Breannjá",
    "country": "Norway",
    "country_zh": "挪威",
    "country_iso_code": "NO",
    "timezone": "Europe/Oslo",
    "latitude": 70.50621,
    "longitude": 25.73188
  },
  {
    "city": "Billávuotna",
    "city_zh": "Billávuotna",
    "country": "Norway",
    "country_zh": "挪威",
    "country_iso_code": "NO",
    "timezone": "Europe/Oslo",
    "latitude": 70.31526,
    "longitude": 25.04613
  },
  {
    "city": "Iggaldas, ålgot",
    "city_zh": "Iggaldas, ålgot",
    "country": "Norway",
    "country_zh": "挪威",
    "country_iso_code": "NO",
    "timezone": "Europe/Oslo",
    "latitude": 70.22856,
    "longitude": 24.93658
  },
  {
    "city": "Høybukt",
    "city_zh": "Høybukt",
    "country": "Norway",
    "country_zh": "挪威",
    "country_iso_code": "NO",
    "timezone": "Europe/Oslo",
    "latitude": 69.72995,
    "longitude": 29.88376
  },
  {
    "city": "Horsnes",
    "city_zh": "Horsnes",
    "country": "Norway",
    "country_zh": "挪威",
    "country_iso_code": "NO",
    "timezone": "Europe/Oslo",
    "latitude": 69.32562,
    "longitude": 20.0153
  },
  {
    "city": "Honningsvåg",
    "city_zh": "洪寧斯沃格",
    "country": "Norway",
    "country_zh": "挪威",
    "country_iso_code": "NO",
    "timezone": "Europe/Oslo",
    "latitude": 70.98209,
    "longitude": 25.97037
  },
  {
    "city": "Heastanjárga",
    "city_zh": "Heastanjárga",
    "country": "Norway",
    "country_zh": "挪威",
    "country_iso_code": "NO",
    "timezone": "Europe/Oslo",
    "latitude": 70.3084,
    "longitude": 25.46792
  },
  {
    "city": "Hesseng",
    "city_zh": "Hesseng",
    "country": "Norway",
    "country_zh": "挪威",
    "country_iso_code": "NO",
    "timezone": "Europe/Oslo",
    "latitude": 69.68754,
    "longitude": 29.99676
  },
  {
    "city": "Jarfjordbotn",
    "city_zh": "Jarfjordbotn",
    "country": "Norway",
    "country_zh": "挪威",
    "country_iso_code": "NO",
    "timezone": "Europe/Oslo",
    "latitude": 69.67454,
    "longitude": 30.31513
  },
  {
    "city": "Hellnes",
    "city_zh": "Hellnes",
    "country": "Norway",
    "country_zh": "挪威",
    "country_iso_code": "NO",
    "timezone": "Europe/Oslo",
    "latitude": 70.14083,
    "longitude": 20.8096
  },
  {
    "city": "Ávanuorri",
    "city_zh": "Ávanuorri",
    "country": "Norway",
    "country_zh": "挪威",
    "country_iso_code": "NO",
    "timezone": "Europe/Oslo",
    "latitude": 70.99634,
    "longitude": 24.66217
  },
  {
    "city": "Haukøynes",
    "city_zh": "Haukøynes",
    "country": "Norway",
    "country_zh": "挪威",
    "country_iso_code": "NO",
    "timezone": "Europe/Oslo",
    "latitude": 70.03333,
    "longitude": 21.23333
  },
  {
    "city": "Haugnes",
    "city_zh": "Haugnes",
    "country": "Norway",
    "country_zh": "挪威",
    "country_iso_code": "NO",
    "timezone": "Europe/Oslo",
    "latitude": 70.03394,
    "longitude": 20.57333
  },
  {
    "city": "Hasvik",
    "city_zh": "Hasvik",
    "country": "Norway",
    "country_zh": "挪威",
    "country_iso_code": "NO",
    "timezone": "Europe/Oslo",
    "latitude": 70.48641,
    "longitude": 22.1611
  },
  {
    "city": "Hansvoll",
    "city_zh": "Hansvoll",
    "country": "Norway",
    "country_zh": "挪威",
    "country_iso_code": "NO",
    "timezone": "Europe/Oslo",
    "latitude": 70.59497,
    "longitude": 22.3019
  },
  {
    "city": "Gárgu",
    "city_zh": "Gárgu",
    "country": "Norway",
    "country_zh": "挪威",
    "country_iso_code": "NO",
    "timezone": "Europe/Oslo",
    "latitude": 69.78848,
    "longitude": 20.5672
  },
  {
    "city": "Havningberg",
    "city_zh": "Havningberg",
    "country": "Norway",
    "country_zh": "挪威",
    "country_iso_code": "NO",
    "timezone": "Europe/Oslo",
    "latitude": 70.54114,
    "longitude": 30.60997
  },
  {
    "city": "Hamnnes",
    "city_zh": "Hamnnes",
    "country": "Norway",
    "country_zh": "挪威",
    "country_iso_code": "NO",
    "timezone": "Europe/Oslo",
    "latitude": 70.11204,
    "longitude": 20.77182
  },
  {
    "city": "Hamneidet",
    "city_zh": "Hamneidet",
    "country": "Norway",
    "country_zh": "挪威",
    "country_iso_code": "NO",
    "timezone": "Europe/Oslo",
    "latitude": 69.92886,
    "longitude": 20.9592
  },
  {
    "city": "Hamnbukt",
    "city_zh": "Hamnbukt",
    "country": "Norway",
    "country_zh": "挪威",
    "country_iso_code": "NO",
    "timezone": "Europe/Oslo",
    "latitude": 70.09128,
    "longitude": 25.07209
  },
  {
    "city": "Hamna i Ryggefjord",
    "city_zh": "Hamna i Ryggefjord",
    "country": "Norway",
    "country_zh": "挪威",
    "country_iso_code": "NO",
    "timezone": "Europe/Oslo",
    "latitude": 70.87285,
    "longitude": 24.9365
  },
  {
    "city": "Hamna",
    "city_zh": "Hamna",
    "country": "Norway",
    "country_zh": "挪威",
    "country_iso_code": "NO",
    "timezone": "Europe/Oslo",
    "latitude": 70.53602,
    "longitude": 30.0915
  },
  {
    "city": "Hammerfest",
    "city_zh": "亨墨菲斯",
    "country": "Norway",
    "country_zh": "挪威",
    "country_iso_code": "NO",
    "timezone": "Europe/Oslo",
    "latitude": 70.66313,
    "longitude": 23.68092
  },
  {
    "city": "Hammernes",
    "city_zh": "Hammernes",
    "country": "Norway",
    "country_zh": "挪威",
    "country_iso_code": "NO",
    "timezone": "Europe/Oslo",
    "latitude": 70.14278,
    "longitude": 28.92591
  },
  {
    "city": "Halsen",
    "city_zh": "Halsen",
    "country": "Norway",
    "country_zh": "挪威",
    "country_iso_code": "NO",
    "timezone": "Europe/Oslo",
    "latitude": 70.51113,
    "longitude": 24.0253
  },
  {
    "city": "Hakkstabben",
    "city_zh": "Hakkstabben",
    "country": "Norway",
    "country_zh": "挪威",
    "country_iso_code": "NO",
    "timezone": "Europe/Oslo",
    "latitude": 70.27852,
    "longitude": 23.1225
  },
  {
    "city": "Gulgofjorden",
    "city_zh": "Gulgofjorden",
    "country": "Norway",
    "country_zh": "挪威",
    "country_iso_code": "NO",
    "timezone": "Europe/Oslo",
    "latitude": 70.68059,
    "longitude": 28.63122
  },
  {
    "city": "Grunnfjorden",
    "city_zh": "Grunnfjorden",
    "country": "Norway",
    "country_zh": "挪威",
    "country_iso_code": "NO",
    "timezone": "Europe/Oslo",
    "latitude": 70.05,
    "longitude": 20.65
  },
  {
    "city": "Grasbakken",
    "city_zh": "Grasbakken",
    "country": "Norway",
    "country_zh": "挪威",
    "country_iso_code": "NO",
    "timezone": "Europe/Oslo",
    "latitude": 70.07601,
    "longitude": 28.80431
  },
  {
    "city": "Gornitak",
    "city_zh": "Gornitak",
    "country": "Norway",
    "country_zh": "挪威",
    "country_iso_code": "NO",
    "timezone": "Europe/Oslo",
    "latitude": 70.17742,
    "longitude": 28.72912
  },
  {
    "city": "Golnes",
    "city_zh": "Golnes",
    "country": "Norway",
    "country_zh": "挪威",
    "country_iso_code": "NO",
    "timezone": "Europe/Oslo",
    "latitude": 70.07333,
    "longitude": 30.03171
  },
  {
    "city": "Gjesvær",
    "city_zh": "耶斯韋爾",
    "country": "Norway",
    "country_zh": "挪威",
    "country_iso_code": "NO",
    "timezone": "Europe/Oslo",
    "latitude": 71.09832,
    "longitude": 25.37608
  },
  {
    "city": "Geitvika",
    "city_zh": "Geitvika",
    "country": "Norway",
    "country_zh": "挪威",
    "country_iso_code": "NO",
    "timezone": "Europe/Oslo",
    "latitude": 70.05,
    "longitude": 20.43333
  },
  {
    "city": "Juvravuonna",
    "city_zh": "Juvravuonna",
    "country": "Norway",
    "country_zh": "挪威",
    "country_iso_code": "NO",
    "timezone": "Europe/Oslo",
    "latitude": 70.01031,
    "longitude": 29.12319
  },
  {
    "city": "Gamvik",
    "city_zh": "Gamvik",
    "country": "Norway",
    "country_zh": "挪威",
    "country_iso_code": "NO",
    "timezone": "Europe/Oslo",
    "latitude": 71.06386,
    "longitude": 28.24648
  },
  {
    "city": "Gunnarnes",
    "city_zh": "Gunnarnes",
    "country": "Norway",
    "country_zh": "挪威",
    "country_iso_code": "NO",
    "timezone": "Europe/Oslo",
    "latitude": 70.99828,
    "longitude": 24.11648
  },
  {
    "city": "Gammelheim",
    "city_zh": "Gammelheim",
    "country": "Norway",
    "country_zh": "挪威",
    "country_iso_code": "NO",
    "timezone": "Europe/Oslo",
    "latitude": 70.02843,
    "longitude": 23.45842
  },
  {
    "city": "Smalfjord",
    "city_zh": "Smalfjord",
    "country": "Norway",
    "country_zh": "挪威",
    "country_iso_code": "NO",
    "timezone": "Europe/Oslo",
    "latitude": 70.43928,
    "longitude": 28.06186
  },
  {
    "city": "Furuflaten",
    "city_zh": "Furuflaten",
    "country": "Norway",
    "country_zh": "挪威",
    "country_iso_code": "NO",
    "timezone": "Europe/Oslo",
    "latitude": 69.4408,
    "longitude": 20.15579
  },
  {
    "city": "Fossmo",
    "city_zh": "Fossmo",
    "country": "Norway",
    "country_zh": "挪威",
    "country_iso_code": "NO",
    "timezone": "Europe/Oslo",
    "latitude": 69.36352,
    "longitude": 20.26536
  },
  {
    "city": "Fossen",
    "city_zh": "Fossen",
    "country": "Norway",
    "country_zh": "挪威",
    "country_iso_code": "NO",
    "timezone": "Europe/Oslo",
    "latitude": 69.52542,
    "longitude": 20.52445
  },
  {
    "city": "Forsøl",
    "city_zh": "Forsøl",
    "country": "Norway",
    "country_zh": "挪威",
    "country_iso_code": "NO",
    "timezone": "Europe/Oslo",
    "latitude": 70.72167,
    "longitude": 23.8007
  },
  {
    "city": "Flata",
    "city_zh": "Flata",
    "country": "Norway",
    "country_zh": "挪威",
    "country_iso_code": "NO",
    "timezone": "Europe/Oslo",
    "latitude": 70.01667,
    "longitude": 24.95
  },
  {
    "city": "Finnes",
    "city_zh": "Finnes",
    "country": "Norway",
    "country_zh": "挪威",
    "country_iso_code": "NO",
    "timezone": "Europe/Oslo",
    "latitude": 71.08094,
    "longitude": 24.01455
  },
  {
    "city": "Finneidet",
    "city_zh": "Finneidet",
    "country": "Norway",
    "country_zh": "挪威",
    "country_iso_code": "NO",
    "timezone": "Europe/Oslo",
    "latitude": 70.03333,
    "longitude": 20.95
  },
  {
    "city": "Fastdalen",
    "city_zh": "Fastdalen",
    "country": "Norway",
    "country_zh": "挪威",
    "country_iso_code": "NO",
    "timezone": "Europe/Oslo",
    "latitude": 69.66667,
    "longitude": 20.26667
  },
  {
    "city": "Engenes",
    "city_zh": "Engenes",
    "country": "Norway",
    "country_zh": "挪威",
    "country_iso_code": "NO",
    "timezone": "Europe/Oslo",
    "latitude": 69.71996,
    "longitude": 20.52573
  },
  {
    "city": "Engenes",
    "city_zh": "Engenes",
    "country": "Norway",
    "country_zh": "挪威",
    "country_iso_code": "NO",
    "timezone": "Europe/Oslo",
    "latitude": 70.06667,
    "longitude": 21.0
  },
  {
    "city": "Elvestrand",
    "city_zh": "Elvestrand",
    "country": "Norway",
    "country_zh": "挪威",
    "country_iso_code": "NO",
    "timezone": "Europe/Oslo",
    "latitude": 69.9518,
    "longitude": 23.26465
  },
  {
    "city": "Elvenes",
    "city_zh": "Elvenes",
    "country": "Norway",
    "country_zh": "挪威",
    "country_iso_code": "NO",
    "timezone": "Europe/Oslo",
    "latitude": 69.67931,
    "longitude": 30.10499
  },
  {
    "city": "Elven",
    "city_zh": "Elven",
    "country": "Norway",
    "country_zh": "挪威",
    "country_iso_code": "NO",
    "timezone": "Europe/Oslo",
    "latitude": 70.05,
    "longitude": 20.7
  },
  {
    "city": "Elvejord",
    "city_zh": "Elvejord",
    "country": "Norway",
    "country_zh": "挪威",
    "country_iso_code": "NO",
    "timezone": "Europe/Oslo",
    "latitude": 69.62616,
    "longitude": 20.3419
  },
  {
    "city": "Elvebakken",
    "city_zh": "Elvebakken",
    "country": "Norway",
    "country_zh": "挪威",
    "country_iso_code": "NO",
    "timezone": "Europe/Oslo",
    "latitude": 69.96945,
    "longitude": 23.37357
  },
  {
    "city": "Elsnes",
    "city_zh": "Elsnes",
    "country": "Norway",
    "country_zh": "挪威",
    "country_iso_code": "NO",
    "timezone": "Europe/Oslo",
    "latitude": 69.33781,
    "longitude": 20.05341
  },
  {
    "city": "Dulerohtu",
    "city_zh": "Dulerohtu",
    "country": "Norway",
    "country_zh": "挪威",
    "country_iso_code": "NO",
    "timezone": "Europe/Oslo",
    "latitude": 70.04771,
    "longitude": 25.015
  },
  {
    "city": "Eiby",
    "city_zh": "Eiby",
    "country": "Norway",
    "country_zh": "挪威",
    "country_iso_code": "NO",
    "timezone": "Europe/Oslo",
    "latitude": 69.88619,
    "longitude": 23.20384
  },
  {
    "city": "Djupvik",
    "city_zh": "Djupvik",
    "country": "Norway",
    "country_zh": "挪威",
    "country_iso_code": "NO",
    "timezone": "Europe/Oslo",
    "latitude": 69.75135,
    "longitude": 20.49258
  },
  {
    "city": "Digernes",
    "city_zh": "Digernes",
    "country": "Norway",
    "country_zh": "挪威",
    "country_iso_code": "NO",
    "timezone": "Europe/Oslo",
    "latitude": 70.08333,
    "longitude": 28.75
  },
  {
    "city": "Burstad",
    "city_zh": "Burstad",
    "country": "Norway",
    "country_zh": "挪威",
    "country_iso_code": "NO",
    "timezone": "Europe/Oslo",
    "latitude": 70.85854,
    "longitude": 24.32569
  },
  {
    "city": "Burfjord",
    "city_zh": "Burfjord",
    "country": "Norway",
    "country_zh": "挪威",
    "country_iso_code": "NO",
    "timezone": "Europe/Oslo",
    "latitude": 69.93804,
    "longitude": 22.05205
  },
  {
    "city": "Bunes",
    "city_zh": "Bunes",
    "country": "Norway",
    "country_zh": "挪威",
    "country_iso_code": "NO",
    "timezone": "Europe/Oslo",
    "latitude": 70.17046,
    "longitude": 28.75596
  },
  {
    "city": "Bukta",
    "city_zh": "Bukta",
    "country": "Norway",
    "country_zh": "挪威",
    "country_iso_code": "NO",
    "timezone": "Europe/Oslo",
    "latitude": 70.55716,
    "longitude": 27.01693
  },
  {
    "city": "Bukta",
    "city_zh": "Bukta",
    "country": "Norway",
    "country_zh": "挪威",
    "country_iso_code": "NO",
    "timezone": "Europe/Oslo",
    "latitude": 69.97766,
    "longitude": 23.30404
  },
  {
    "city": "Bugøynes",
    "city_zh": "比圭內斯",
    "country": "Norway",
    "country_zh": "挪威",
    "country_iso_code": "NO",
    "timezone": "Europe/Oslo",
    "latitude": 69.97295,
    "longitude": 29.64231
  },
  {
    "city": "Bugøyfjord",
    "city_zh": "Bugøyfjord",
    "country": "Norway",
    "country_zh": "挪威",
    "country_iso_code": "NO",
    "timezone": "Europe/Oslo",
    "latitude": 69.87043,
    "longitude": 29.34126
  },
  {
    "city": "Brenngam",
    "city_zh": "Brenngam",
    "country": "Norway",
    "country_zh": "挪威",
    "country_iso_code": "NO",
    "timezone": "Europe/Oslo",
    "latitude": 70.89519,
    "longitude": 27.2698
  },
  {
    "city": "Brennelv",
    "city_zh": "Brennelv",
    "country": "Norway",
    "country_zh": "挪威",
    "country_iso_code": "NO",
    "timezone": "Europe/Oslo",
    "latitude": 70.05424,
    "longitude": 25.03046
  },
  {
    "city": "Breivik",
    "city_zh": "Breivik",
    "country": "Norway",
    "country_zh": "挪威",
    "country_iso_code": "NO",
    "timezone": "Europe/Oslo",
    "latitude": 70.59724,
    "longitude": 22.10887
  },
  {
    "city": "Brattli",
    "city_zh": "Brattli",
    "country": "Norway",
    "country_zh": "挪威",
    "country_iso_code": "NO",
    "timezone": "Europe/Oslo",
    "latitude": 69.56461,
    "longitude": 30.07951
  },
  {
    "city": "Botn",
    "city_zh": "Botn",
    "country": "Norway",
    "country_zh": "挪威",
    "country_iso_code": "NO",
    "timezone": "Europe/Oslo",
    "latitude": 70.20306,
    "longitude": 22.58361
  },
  {
    "city": "Bossekop",
    "city_zh": "Bossekop",
    "country": "Norway",
    "country_zh": "挪威",
    "country_iso_code": "NO",
    "timezone": "Europe/Oslo",
    "latitude": 69.97194,
    "longitude": 23.25917
  },
  {
    "city": "Børselvnes",
    "city_zh": "Børselvnes",
    "country": "Norway",
    "country_zh": "挪威",
    "country_iso_code": "NO",
    "timezone": "Europe/Oslo",
    "latitude": 70.31667,
    "longitude": 24.41667
  },
  {
    "city": "Etelänpuoli",
    "city_zh": "Etelänpuoli",
    "country": "Norway",
    "country_zh": "挪威",
    "country_iso_code": "NO",
    "timezone": "Europe/Oslo",
    "latitude": 70.30497,
    "longitude": 25.52812
  },
  {
    "city": "Boavva",
    "city_zh": "Boavva",
    "country": "Norway",
    "country_zh": "挪威",
    "country_iso_code": "NO",
    "timezone": "Europe/Oslo",
    "latitude": 70.28622,
    "longitude": 21.56045
  },
  {
    "city": "Bjørnstad",
    "city_zh": "Bjørnstad",
    "country": "Norway",
    "country_zh": "挪威",
    "country_iso_code": "NO",
    "timezone": "Europe/Oslo",
    "latitude": 69.91667,
    "longitude": 23.5
  },
  {
    "city": "Bjørnevatn",
    "city_zh": "比约内湖",
    "country": "Norway",
    "country_zh": "挪威",
    "country_iso_code": "NO",
    "timezone": "Europe/Oslo",
    "latitude": 69.66745,
    "longitude": 29.98722
  },
  {
    "city": "Bjørndal",
    "city_zh": "Bjørndal",
    "country": "Norway",
    "country_zh": "挪威",
    "country_iso_code": "NO",
    "timezone": "Europe/Oslo",
    "latitude": 69.62008,
    "longitude": 29.96602
  },
  {
    "city": "Bjørkli",
    "city_zh": "Bjørkli",
    "country": "Norway",
    "country_zh": "挪威",
    "country_iso_code": "NO",
    "timezone": "Europe/Oslo",
    "latitude": 69.53333,
    "longitude": 20.66667
  },
  {
    "city": "Birtavarre",
    "city_zh": "Birtavarre",
    "country": "Norway",
    "country_zh": "挪威",
    "country_iso_code": "NO",
    "timezone": "Europe/Oslo",
    "latitude": 69.49379,
    "longitude": 20.83214
  },
  {
    "city": "Bilto",
    "city_zh": "Bilto",
    "country": "Norway",
    "country_zh": "挪威",
    "country_iso_code": "NO",
    "timezone": "Europe/Oslo",
    "latitude": 69.48501,
    "longitude": 21.47772
  },
  {
    "city": "Bigganes",
    "city_zh": "Bigganes",
    "country": "Norway",
    "country_zh": "挪威",
    "country_iso_code": "NO",
    "timezone": "Europe/Oslo",
    "latitude": 70.12394,
    "longitude": 28.59655
  },
  {
    "city": "Berlevåg",
    "city_zh": "Berlevåg",
    "country": "Norway",
    "country_zh": "挪威",
    "country_iso_code": "NO",
    "timezone": "Europe/Oslo",
    "latitude": 70.85778,
    "longitude": 29.08636
  },
  {
    "city": "Bergsfjord",
    "city_zh": "Bergsfjord",
    "country": "Norway",
    "country_zh": "挪威",
    "country_iso_code": "NO",
    "timezone": "Europe/Oslo",
    "latitude": 70.24959,
    "longitude": 21.79087
  },
  {
    "city": "Bergjord",
    "city_zh": "Bergjord",
    "country": "Norway",
    "country_zh": "挪威",
    "country_iso_code": "NO",
    "timezone": "Europe/Oslo",
    "latitude": 69.63333,
    "longitude": 20.48333
  },
  {
    "city": "Bergeby",
    "city_zh": "Bergeby",
    "country": "Norway",
    "country_zh": "挪威",
    "country_iso_code": "NO",
    "timezone": "Europe/Oslo",
    "latitude": 70.1485,
    "longitude": 28.90638
  },
  {
    "city": "Båtsfjord",
    "city_zh": "博茨菲尤爾",
    "country": "Norway",
    "country_zh": "挪威",
    "country_iso_code": "NO",
    "timezone": "Europe/Oslo",
    "latitude": 70.63428,
    "longitude": 29.7175
  },
  {
    "city": "Bonakas",
    "city_zh": "Bonakas",
    "country": "Norway",
    "country_zh": "挪威",
    "country_iso_code": "NO",
    "timezone": "Europe/Oslo",
    "latitude": 70.42687,
    "longitude": 28.23316
  },
  {
    "city": "Bakkeby",
    "city_zh": "Bakkeby",
    "country": "Norway",
    "country_zh": "挪威",
    "country_iso_code": "NO",
    "timezone": "Europe/Oslo",
    "latitude": 69.85061,
    "longitude": 20.84865
  },
  {
    "city": "Baukop",
    "city_zh": "Baukop",
    "country": "Norway",
    "country_zh": "挪威",
    "country_iso_code": "NO",
    "timezone": "Europe/Oslo",
    "latitude": 70.20832,
    "longitude": 24.91398
  },
  {
    "city": "Badderen",
    "city_zh": "Badderen",
    "country": "Norway",
    "country_zh": "挪威",
    "country_iso_code": "NO",
    "timezone": "Europe/Oslo",
    "latitude": 69.84515,
    "longitude": 22.02614
  },
  {
    "city": "Badderbotn",
    "city_zh": "Badderbotn",
    "country": "Norway",
    "country_zh": "挪威",
    "country_iso_code": "NO",
    "timezone": "Europe/Oslo",
    "latitude": 69.85,
    "longitude": 22.03333
  },
  {
    "city": "Austertana",
    "city_zh": "Austertana",
    "country": "Norway",
    "country_zh": "挪威",
    "country_iso_code": "NO",
    "timezone": "Europe/Oslo",
    "latitude": 70.43926,
    "longitude": 28.48836
  },
  {
    "city": "Årvik",
    "city_zh": "Årvik",
    "country": "Norway",
    "country_zh": "挪威",
    "country_iso_code": "NO",
    "timezone": "Europe/Oslo",
    "latitude": 70.19354,
    "longitude": 20.5313
  },
  {
    "city": "Årøybukt",
    "city_zh": "Årøybukt",
    "country": "Norway",
    "country_zh": "挪威",
    "country_iso_code": "NO",
    "timezone": "Europe/Oslo",
    "latitude": 69.64006,
    "longitude": 20.32904
  },
  {
    "city": "Arnøyhamn",
    "city_zh": "Arnøyhamn",
    "country": "Norway",
    "country_zh": "挪威",
    "country_iso_code": "NO",
    "timezone": "Europe/Oslo",
    "latitude": 70.05272,
    "longitude": 20.63242
  },
  {
    "city": "Arildseng",
    "city_zh": "Arildseng",
    "country": "Norway",
    "country_zh": "挪威",
    "country_iso_code": "NO",
    "timezone": "Europe/Oslo",
    "latitude": 69.91715,
    "longitude": 21.29224
  },
  {
    "city": "Andsnes",
    "city_zh": "Andsnes",
    "country": "Norway",
    "country_zh": "挪威",
    "country_iso_code": "NO",
    "timezone": "Europe/Oslo",
    "latitude": 70.23505,
    "longitude": 21.2369
  },
  {
    "city": "Andersby",
    "city_zh": "Andersby",
    "country": "Norway",
    "country_zh": "挪威",
    "country_iso_code": "NO",
    "timezone": "Europe/Oslo",
    "latitude": 70.09077,
    "longitude": 29.59655
  },
  {
    "city": "Alteidet",
    "city_zh": "Alteidet",
    "country": "Norway",
    "country_zh": "挪威",
    "country_iso_code": "NO",
    "timezone": "Europe/Oslo",
    "latitude": 70.029,
    "longitude": 22.09432
  },
  {
    "city": "Akkarvik",
    "city_zh": "Akkarvik",
    "country": "Norway",
    "country_zh": "挪威",
    "country_iso_code": "NO",
    "timezone": "Europe/Oslo",
    "latitude": 70.06407,
    "longitude": 20.49253
  },
  {
    "city": "Akkarfjord",
    "city_zh": "Akkarfjord",
    "country": "Norway",
    "country_zh": "挪威",
    "country_iso_code": "NO",
    "timezone": "Europe/Oslo",
    "latitude": 70.79474,
    "longitude": 23.40911
  },
  {
    "city": "Akkarfjord",
    "city_zh": "Akkarfjord",
    "country": "Norway",
    "country_zh": "挪威",
    "country_iso_code": "NO",
    "timezone": "Europe/Oslo",
    "latitude": 70.05,
    "longitude": 20.5
  },
  {
    "city": "Áisaroaivi",
    "city_zh": "Áisaroaivi",
    "country": "Norway",
    "country_zh": "挪威",
    "country_iso_code": "NO",
    "timezone": "Europe/Oslo",
    "latitude": 70.26904,
    "longitude": 24.10086
  },
  {
    "city": "Aidejavre",
    "city_zh": "Aidejavre",
    "country": "Norway",
    "country_zh": "挪威",
    "country_iso_code": "NO",
    "timezone": "Europe/Oslo",
    "latitude": 68.75251,
    "longitude": 23.30405
  },
  {
    "city": "Vestertana",
    "city_zh": "Vestertana",
    "country": "Norway",
    "country_zh": "挪威",
    "country_iso_code": "NO",
    "timezone": "Europe/Oslo",
    "latitude": 70.42725,
    "longitude": 27.88091
  },
  {
    "city": "Áppošborri",
    "city_zh": "Áppošborri",
    "country": "Norway",
    "country_zh": "挪威",
    "country_iso_code": "NO",
    "timezone": "Europe/Oslo",
    "latitude": 70.16338,
    "longitude": 28.79116
  },
  {
    "city": "Ođđajohka",
    "city_zh": "Ođđajohka",
    "country": "Norway",
    "country_zh": "挪威",
    "country_iso_code": "NO",
    "timezone": "Europe/Oslo",
    "latitude": 70.072,
    "longitude": 28.84784
  },
  {
    "city": "Grense Jakobselv",
    "city_zh": "Grense Jakobselv",
    "country": "Norway",
    "country_zh": "挪威",
    "country_iso_code": "NO",
    "timezone": "Europe/Oslo",
    "latitude": 69.77524,
    "longitude": 30.83029
  },
  {
    "city": "Sollnes",
    "city_zh": "Sollnes",
    "country": "Norway",
    "country_zh": "挪威",
    "country_iso_code": "NO",
    "timezone": "Europe/Oslo",
    "latitude": 70.08125,
    "longitude": 30.09039
  },
  {
    "city": "Gárjil",
    "city_zh": "Gárjil",
    "country": "Norway",
    "country_zh": "挪威",
    "country_iso_code": "NO",
    "timezone": "Europe/Oslo",
    "latitude": 70.10074,
    "longitude": 29.38018
  },
  {
    "city": "Bekkarfjord",
    "city_zh": "Bekkarfjord",
    "country": "Norway",
    "country_zh": "挪威",
    "country_iso_code": "NO",
    "timezone": "Europe/Oslo",
    "latitude": 70.58943,
    "longitude": 27.27903
  },
  {
    "city": "Skogende",
    "city_zh": "Skogende",
    "country": "Norway",
    "country_zh": "挪威",
    "country_iso_code": "NO",
    "timezone": "Europe/Oslo",
    "latitude": 70.08333,
    "longitude": 25.05
  },
  {
    "city": "Solstrand",
    "city_zh": "Solstrand",
    "country": "Norway",
    "country_zh": "挪威",
    "country_iso_code": "NO",
    "timezone": "Europe/Oslo",
    "latitude": 70.11667,
    "longitude": 20.75
  },
  {
    "city": "Store Kvalfjord",
    "city_zh": "Store Kvalfjord",
    "country": "Norway",
    "country_zh": "挪威",
    "country_iso_code": "NO",
    "timezone": "Europe/Oslo",
    "latitude": 70.31804,
    "longitude": 22.86834
  },
  {
    "city": "Isnestoften",
    "city_zh": "Isnestoften",
    "country": "Norway",
    "country_zh": "挪威",
    "country_iso_code": "NO",
    "timezone": "Europe/Oslo",
    "latitude": 70.13407,
    "longitude": 22.98923
  },
  {
    "city": "Bakkevoll",
    "city_zh": "Bakkevoll",
    "country": "Norway",
    "country_zh": "挪威",
    "country_iso_code": "NO",
    "timezone": "Europe/Oslo",
    "latitude": 70.00917,
    "longitude": 21.61583
  },
  {
    "city": "Nålelv",
    "city_zh": "Nålelv",
    "country": "Norway",
    "country_zh": "挪威",
    "country_iso_code": "NO",
    "timezone": "Europe/Oslo",
    "latitude": 69.95528,
    "longitude": 21.99639
  },
  {
    "city": "Buktenes",
    "city_zh": "Buktenes",
    "country": "Norway",
    "country_zh": "挪威",
    "country_iso_code": "NO",
    "timezone": "Europe/Oslo",
    "latitude": 69.95392,
    "longitude": 22.00063
  },
  {
    "city": "Vågen",
    "city_zh": "Vågen",
    "country": "Norway",
    "country_zh": "挪威",
    "country_iso_code": "NO",
    "timezone": "Europe/Oslo",
    "latitude": 69.93167,
    "longitude": 21.72139
  },
  {
    "city": "Mattisnes",
    "city_zh": "Mattisnes",
    "country": "Norway",
    "country_zh": "挪威",
    "country_iso_code": "NO",
    "timezone": "Europe/Oslo",
    "latitude": 69.92167,
    "longitude": 20.98667
  },
  {
    "city": "Skomakareidet",
    "city_zh": "Skomakareidet",
    "country": "Norway",
    "country_zh": "挪威",
    "country_iso_code": "NO",
    "timezone": "Europe/Oslo",
    "latitude": 69.92889,
    "longitude": 20.95083
  },
  {
    "city": "Ytre Bakkeby",
    "city_zh": "Ytre Bakkeby",
    "country": "Norway",
    "country_zh": "挪威",
    "country_iso_code": "NO",
    "timezone": "Europe/Oslo",
    "latitude": 69.86352,
    "longitude": 20.88373
  },
  {
    "city": "Ravelseidbotn",
    "city_zh": "Ravelseidbotn",
    "country": "Norway",
    "country_zh": "挪威",
    "country_iso_code": "NO",
    "timezone": "Europe/Oslo",
    "latitude": 69.84917,
    "longitude": 20.85528
  },
  {
    "city": "Bakkeby Indre",
    "city_zh": "Bakkeby Indre",
    "country": "Norway",
    "country_zh": "挪威",
    "country_iso_code": "NO",
    "timezone": "Europe/Oslo",
    "latitude": 69.85065,
    "longitude": 20.84868
  },
  {
    "city": "Haugen",
    "city_zh": "Haugen",
    "country": "Norway",
    "country_zh": "挪威",
    "country_iso_code": "NO",
    "timezone": "Europe/Oslo",
    "latitude": 69.84278,
    "longitude": 21.06083
  },
  {
    "city": "Grinde",
    "city_zh": "Grinde",
    "country": "Norway",
    "country_zh": "挪威",
    "country_iso_code": "NO",
    "timezone": "Europe/Oslo",
    "latitude": 69.85083,
    "longitude": 21.06139
  },
  {
    "city": "Sandelva",
    "city_zh": "Sandelva",
    "country": "Norway",
    "country_zh": "挪威",
    "country_iso_code": "NO",
    "timezone": "Europe/Oslo",
    "latitude": 69.91333,
    "longitude": 21.32333
  },
  {
    "city": "Bankenes",
    "city_zh": "Bankenes",
    "country": "Norway",
    "country_zh": "挪威",
    "country_iso_code": "NO",
    "timezone": "Europe/Oslo",
    "latitude": 69.88389,
    "longitude": 21.89694
  },
  {
    "city": "Karvik",
    "city_zh": "Karvik",
    "country": "Norway",
    "country_zh": "挪威",
    "country_iso_code": "NO",
    "timezone": "Europe/Oslo",
    "latitude": 69.84687,
    "longitude": 21.82627
  },
  {
    "city": "Bjerknes",
    "city_zh": "Bjerknes",
    "country": "Norway",
    "country_zh": "挪威",
    "country_iso_code": "NO",
    "timezone": "Europe/Oslo",
    "latitude": 69.83083,
    "longitude": 21.03694
  },
  {
    "city": "Ørnes",
    "city_zh": "Ørnes",
    "country": "Norway",
    "country_zh": "挪威",
    "country_iso_code": "NO",
    "timezone": "Europe/Oslo",
    "latitude": 69.49389,
    "longitude": 20.23028
  },
  {
    "city": "Indrefjord",
    "city_zh": "Indrefjord",
    "country": "Norway",
    "country_zh": "挪威",
    "country_iso_code": "NO",
    "timezone": "Europe/Oslo",
    "latitude": 70.63534,
    "longitude": 23.67917
  },
  {
    "city": "Skakkebakken",
    "city_zh": "Skakkebakken",
    "country": "Norway",
    "country_zh": "挪威",
    "country_iso_code": "NO",
    "timezone": "Europe/Oslo",
    "latitude": 70.53911,
    "longitude": 23.39201
  },
  {
    "city": "Midtre Baklia",
    "city_zh": "Midtre Baklia",
    "country": "Norway",
    "country_zh": "挪威",
    "country_iso_code": "NO",
    "timezone": "Europe/Oslo",
    "latitude": 70.975,
    "longitude": 25.86667
  },
  {
    "city": "Holmbukt",
    "city_zh": "Holmbukt",
    "country": "Norway",
    "country_zh": "挪威",
    "country_iso_code": "NO",
    "timezone": "Europe/Oslo",
    "latitude": 70.98894,
    "longitude": 25.96706
  },
  {
    "city": "Nordmannset",
    "city_zh": "Nordmannset",
    "country": "Norway",
    "country_zh": "挪威",
    "country_iso_code": "NO",
    "timezone": "Europe/Oslo",
    "latitude": 71.00744,
    "longitude": 25.96151
  },
  {
    "city": "Finnbyen",
    "city_zh": "Finnbyen",
    "country": "Norway",
    "country_zh": "挪威",
    "country_iso_code": "NO",
    "timezone": "Europe/Oslo",
    "latitude": 70.49983,
    "longitude": 23.98277
  },
  {
    "city": "Slettelv",
    "city_zh": "Slettelv",
    "country": "Norway",
    "country_zh": "挪威",
    "country_iso_code": "NO",
    "timezone": "Europe/Oslo",
    "latitude": 70.50313,
    "longitude": 24.06169
  },
  {
    "city": "Sand",
    "city_zh": "Sand",
    "country": "Norway",
    "country_zh": "挪威",
    "country_iso_code": "NO",
    "timezone": "Europe/Oslo",
    "latitude": 69.99861,
    "longitude": 23.09722
  },
  {
    "city": "Alta",
    "city_zh": "阿尔塔",
    "country": "Norway",
    "country_zh": "挪威",
    "country_iso_code": "NO",
    "timezone": "Europe/Oslo",
    "latitude": 69.96887,
    "longitude": 23.27165
  },
  {
    "city": "Rypefjord",
    "city_zh": "Rypefjord",
    "country": "Norway",
    "country_zh": "挪威",
    "country_iso_code": "NO",
    "timezone": "Europe/Oslo",
    "latitude": 70.64126,
    "longitude": 23.67213
  },
  {
    "city": "Vrangsund",
    "city_zh": "Vrangsund",
    "country": "Norway",
    "country_zh": "挪威",
    "country_iso_code": "NO",
    "timezone": "Europe/Oslo",
    "latitude": 59.03421,
    "longitude": 9.82072
  },
  {
    "city": "Ulrikka",
    "city_zh": "Ulrikka",
    "country": "Norway",
    "country_zh": "挪威",
    "country_iso_code": "NO",
    "timezone": "Europe/Oslo",
    "latitude": 59.05,
    "longitude": 9.7
  },
  {
    "city": "Skarpenor",
    "city_zh": "Skarpenor",
    "country": "Norway",
    "country_zh": "挪威",
    "country_iso_code": "NO",
    "timezone": "Europe/Oslo",
    "latitude": 59.0,
    "longitude": 9.75
  },
  {
    "city": "Setre",
    "city_zh": "Setre",
    "country": "Norway",
    "country_zh": "挪威",
    "country_iso_code": "NO",
    "timezone": "Europe/Oslo",
    "latitude": 59.05687,
    "longitude": 9.69884
  },
  {
    "city": "Lerangen",
    "city_zh": "Lerangen",
    "country": "Norway",
    "country_zh": "挪威",
    "country_iso_code": "NO",
    "timezone": "Europe/Oslo",
    "latitude": 59.0,
    "longitude": 9.85
  },
  {
    "city": "Kjellestad",
    "city_zh": "Kjellestad",
    "country": "Norway",
    "country_zh": "挪威",
    "country_iso_code": "NO",
    "timezone": "Europe/Oslo",
    "latitude": 59.03333,
    "longitude": 9.7
  },
  {
    "city": "Kastet",
    "city_zh": "Kastet",
    "country": "Norway",
    "country_zh": "挪威",
    "country_iso_code": "NO",
    "timezone": "Europe/Oslo",
    "latitude": 59.12678,
    "longitude": 10.27038
  },
  {
    "city": "Heistad",
    "city_zh": "Heistad",
    "country": "Norway",
    "country_zh": "挪威",
    "country_iso_code": "NO",
    "timezone": "Europe/Oslo",
    "latitude": 59.07779,
    "longitude": 9.68829
  },
  {
    "city": "Halen",
    "city_zh": "Halen",
    "country": "Norway",
    "country_zh": "挪威",
    "country_iso_code": "NO",
    "timezone": "Europe/Oslo",
    "latitude": 59.0,
    "longitude": 9.75
  },
  {
    "city": "Gunnekleiv",
    "city_zh": "Gunnekleiv",
    "country": "Norway",
    "country_zh": "挪威",
    "country_iso_code": "NO",
    "timezone": "Europe/Oslo",
    "latitude": 59.1,
    "longitude": 9.65
  },
  {
    "city": "Folkvang",
    "city_zh": "Folkvang",
    "country": "Norway",
    "country_zh": "挪威",
    "country_iso_code": "NO",
    "timezone": "Europe/Oslo",
    "latitude": 59.1,
    "longitude": 9.65
  },
  {
    "city": "Brønnstad",
    "city_zh": "Brønnstad",
    "country": "Norway",
    "country_zh": "挪威",
    "country_iso_code": "NO",
    "timezone": "Europe/Oslo",
    "latitude": 59.06667,
    "longitude": 9.71667
  },
  {
    "city": "Brevikstranda",
    "city_zh": "Brevikstranda",
    "country": "Norway",
    "country_zh": "挪威",
    "country_iso_code": "NO",
    "timezone": "Europe/Oslo",
    "latitude": 58.97576,
    "longitude": 9.65892
  },
  {
    "city": "Svinesund",
    "city_zh": "Svinesund",
    "country": "Norway",
    "country_zh": "挪威",
    "country_iso_code": "NO",
    "timezone": "Europe/Oslo",
    "latitude": 59.10123,
    "longitude": 11.26931
  },
  {
    "city": "Sundal",
    "city_zh": "Sundal",
    "country": "Norway",
    "country_zh": "挪威",
    "country_iso_code": "NO",
    "timezone": "Europe/Oslo",
    "latitude": 60.11667,
    "longitude": 6.28333
  },
  {
    "city": "Ytre Ålvik",
    "city_zh": "Ytre Ålvik",
    "country": "Norway",
    "country_zh": "挪威",
    "country_iso_code": "NO",
    "timezone": "Europe/Oslo",
    "latitude": 60.41667,
    "longitude": 6.36667
  },
  {
    "city": "Årheim",
    "city_zh": "Årheim",
    "country": "Norway",
    "country_zh": "挪威",
    "country_iso_code": "NO",
    "timezone": "Europe/Oslo",
    "latitude": 61.88333,
    "longitude": 6.71667
  },
  {
    "city": "Å, Moskenes",
    "city_zh": "Å, Moskenes",
    "country": "Norway",
    "country_zh": "挪威",
    "country_iso_code": "NO",
    "timezone": "Europe/Oslo",
    "latitude": 67.88333,
    "longitude": 12.98333
  },
  {
    "city": "Ytterstad",
    "city_zh": "Ytterstad",
    "country": "Norway",
    "country_zh": "挪威",
    "country_iso_code": "NO",
    "timezone": "Europe/Oslo",
    "latitude": 68.338,
    "longitude": 15.6585
  },
  {
    "city": "Yttralenninga",
    "city_zh": "Yttralenninga",
    "country": "Norway",
    "country_zh": "挪威",
    "country_iso_code": "NO",
    "timezone": "Europe/Oslo",
    "latitude": 66.36454,
    "longitude": 14.12508
  },
  {
    "city": "Yttraheia",
    "city_zh": "Yttraheia",
    "country": "Norway",
    "country_zh": "挪威",
    "country_iso_code": "NO",
    "timezone": "Europe/Oslo",
    "latitude": 66.34965,
    "longitude": 14.12687
  },
  {
    "city": "Ytteren",
    "city_zh": "Ytteren",
    "country": "Norway",
    "country_zh": "挪威",
    "country_iso_code": "NO",
    "timezone": "Europe/Oslo",
    "latitude": 66.34185,
    "longitude": 14.1394
  },
  {
    "city": "Ytrøygrend",
    "city_zh": "Ytrøygrend",
    "country": "Norway",
    "country_zh": "挪威",
    "country_iso_code": "NO",
    "timezone": "Europe/Oslo",
    "latitude": 61.07952,
    "longitude": 4.69139
  },
  {
    "city": "Ytre-Vårdal",
    "city_zh": "Ytre-Vårdal",
    "country": "Norway",
    "country_zh": "挪威",
    "country_iso_code": "NO",
    "timezone": "Europe/Oslo",
    "latitude": 61.33713,
    "longitude": 5.15865
  },
  {
    "city": "Ytre Torvund",
    "city_zh": "Ytre Torvund",
    "country": "Norway",
    "country_zh": "挪威",
    "country_iso_code": "NO",
    "timezone": "Europe/Oslo",
    "latitude": 61.15,
    "longitude": 5.65
  },
  {
    "city": "Tomasjord",
    "city_zh": "Tomasjord",
    "country": "Norway",
    "country_zh": "挪威",
    "country_iso_code": "NO",
    "timezone": "Europe/Oslo",
    "latitude": 69.342,
    "longitude": 19.3879
  },
  {
    "city": "Strai",
    "city_zh": "Strai",
    "country": "Norway",
    "country_zh": "挪威",
    "country_iso_code": "NO",
    "timezone": "Europe/Oslo",
    "latitude": 58.1893,
    "longitude": 7.92826
  },
  {
    "city": "Ytre Søndeled",
    "city_zh": "Ytre Søndeled",
    "country": "Norway",
    "country_zh": "挪威",
    "country_iso_code": "NO",
    "timezone": "Europe/Oslo",
    "latitude": 58.75,
    "longitude": 9.3
  },
  {
    "city": "Ytre Skor",
    "city_zh": "Ytre Skor",
    "country": "Norway",
    "country_zh": "挪威",
    "country_iso_code": "NO",
    "timezone": "Europe/Oslo",
    "latitude": 61.23333,
    "longitude": 5.33333
  },
  {
    "city": "Skålevik",
    "city_zh": "Skålevik",
    "country": "Norway",
    "country_zh": "挪威",
    "country_iso_code": "NO",
    "timezone": "Europe/Oslo",
    "latitude": 58.07955,
    "longitude": 8.01602
  },
  {
    "city": "Ytre Røynestad",
    "city_zh": "Ytre Røynestad",
    "country": "Norway",
    "country_zh": "挪威",
    "country_iso_code": "NO",
    "timezone": "Europe/Oslo",
    "latitude": 58.36667,
    "longitude": 6.95
  },
  {
    "city": "Ytre Roksvåg",
    "city_zh": "Ytre Roksvåg",
    "country": "Norway",
    "country_zh": "挪威",
    "country_iso_code": "NO",
    "timezone": "Europe/Oslo",
    "latitude": 63.43333,
    "longitude": 8.13333
  },
  {
    "city": "Ytre Reksta",
    "city_zh": "Ytre Reksta",
    "country": "Norway",
    "country_zh": "挪威",
    "country_iso_code": "NO",
    "timezone": "Europe/Oslo",
    "latitude": 61.56667,
    "longitude": 4.81667
  },
  {
    "city": "Ytre Ramse",
    "city_zh": "Ytre Ramse",
    "country": "Norway",
    "country_zh": "挪威",
    "country_iso_code": "NO",
    "timezone": "Europe/Oslo",
    "latitude": 58.76667,
    "longitude": 8.25
  },
  {
    "city": "Ytre Øydna",
    "city_zh": "Ytre Øydna",
    "country": "Norway",
    "country_zh": "挪威",
    "country_iso_code": "NO",
    "timezone": "Europe/Oslo",
    "latitude": 58.36667,
    "longitude": 7.35
  },