[
  {
    "city": "Zobeïde",
    "city_zh": "Zobeïde",
    "country": "Martinique",
    "country_zh": "Martinique",
    "country_iso_code": "MQ",
    "timezone": "America/Martinique",
    "latitude": 14.76028,
    "longitude": -61.14318
  },
  {
    "city": "Zabeth",
    "city_zh": "Zabeth",
    "country": "Martinique",
    "country_zh": "Martinique",
    "country_iso_code": "MQ",
    "timezone": "America/Martinique",
    "latitude": 14.6824,
    "longitude": -60.96713
  },
  {
    "city": "Watel",
    "city_zh": "Watel",
    "country": "Martinique",
    "country_zh": "Martinique",
    "country_iso_code": "MQ",
    "timezone": "America/Martinique",
    "latitude": 14.7177,
    "longitude": -60.97693
  },
  {
    "city": "Voltaire",
    "city_zh": "Voltaire",
    "country": "Martinique",
    "country_zh": "Martinique",
    "country_iso_code": "MQ",
    "timezone": "America/Martinique",
    "latitude": 14.68075,
    "longitude": -60.95721
  },
  {
    "city": "Volga Plage",
    "city_zh": "Volga Plage",
    "country": "Martinique",
    "country_zh": "Martinique",
    "country_iso_code": "MQ",
    "timezone": "America/Martinique",
    "latitude": 14.5989,
    "longitude": -61.05531
  },
  {
    "city": "Vivé",
    "city_zh": "Vivé",
    "country": "Martinique",
    "country_zh": "Martinique",
    "country_iso_code": "MQ",
    "timezone": "America/Martinique",
    "latitude": 14.84487,
    "longitude": -61.08686
  },
  {
    "city": "Vieille Terre",
    "city_zh": "Vieille Terre",
    "country": "Martinique",
    "country_zh": "Martinique",
    "country_iso_code": "MQ",
    "timezone": "America/Martinique",
    "latitude": 14.54122,
    "longitude": -60.90037
  },
  {
    "city": "La Victoire",
    "city_zh": "La Victoire",
    "country": "Martinique",
    "country_zh": "Martinique",
    "country_iso_code": "MQ",
    "timezone": "America/Martinique",
    "latitude": 14.61221,
    "longitude": -60.93004
  },
  {
    "city": "Vert Pré",
    "city_zh": "Vert Pré",
    "country": "Martinique",
    "country_zh": "Martinique",
    "country_iso_code": "MQ",
    "timezone": "America/Martinique",
    "latitude": 14.69239,
    "longitude": -60.97391
  },
  {
    "city": "Verrier",
    "city_zh": "Verrier",
    "country": "Martinique",
    "country_zh": "Martinique",
    "country_iso_code": "MQ",
    "timezone": "America/Martinique",
    "latitude": 14.68712,
    "longitude": -61.14084
  },
  {
    "city": "Val d'Or",
    "city_zh": "Val d'Or",
    "country": "Martinique",
    "country_zh": "Martinique",
    "country_iso_code": "MQ",
    "timezone": "America/Martinique",
    "latitude": 14.43648,
    "longitude": -60.86391
  },
  {
    "city": "Val d'Or",
    "city_zh": "Val d'Or",
    "country": "Martinique",
    "country_zh": "Martinique",
    "country_iso_code": "MQ",
    "timezone": "America/Martinique",
    "latitude": 14.52807,
    "longitude": -60.94749
  },
  {
    "city": "Val d'Or",
    "city_zh": "Val d'Or",
    "country": "Martinique",
    "country_zh": "Martinique",
    "country_iso_code": "MQ",
    "timezone": "America/Martinique",
    "latitude": 14.43677,
    "longitude": -60.87801
  },
  {
    "city": "Valatte",
    "city_zh": "Valatte",
    "country": "Martinique",
    "country_zh": "Martinique",
    "country_iso_code": "MQ",
    "timezone": "America/Martinique",
    "latitude": 14.54552,
    "longitude": -60.90205
  },
  {
    "city": "Union en Haut",
    "city_zh": "Union en Haut",
    "country": "Martinique",
    "country_zh": "Martinique",
    "country_iso_code": "MQ",
    "timezone": "America/Martinique",
    "latitude": 14.78694,
    "longitude": -61.00178
  },
  {
    "city": "Urion",
    "city_zh": "Urion",
    "country": "Martinique",
    "country_zh": "Martinique",
    "country_iso_code": "MQ",
    "timezone": "America/Martinique",
    "latitude": 14.70295,
    "longitude": -61.1288
  },
  {
    "city": "Trou Terre",
    "city_zh": "Trou Terre",
    "country": "Martinique",
    "country_zh": "Martinique",
    "country_iso_code": "MQ",
    "timezone": "America/Martinique",
    "latitude": 14.68511,
    "longitude": -60.93521
  },
  {
    "city": "Trou Grec",
    "city_zh": "Trou Grec",
    "country": "Martinique",
    "country_zh": "Martinique",
    "country_iso_code": "MQ",
    "timezone": "America/Martinique",
    "latitude": 14.79711,
    "longitude": -61.03052
  },
  {
    "city": "Trois Rivières",
    "city_zh": "Trois Rivières",
    "country": "Martinique",
    "country_zh": "Martinique",
    "country_iso_code": "MQ",
    "timezone": "America/Martinique",
    "latitude": 14.4739,
    "longitude": -60.96184
  },
  {
    "city": "Trianon Nord",
    "city_zh": "Trianon Nord",
    "country": "Martinique",
    "country_zh": "Martinique",
    "country_iso_code": "MQ",
    "timezone": "America/Martinique",
    "latitude": 14.62046,
    "longitude": -60.91886
  },
  {
    "city": "Touza",
    "city_zh": "Touza",
    "country": "Martinique",
    "country_zh": "Martinique",
    "country_iso_code": "MQ",
    "timezone": "America/Martinique",
    "latitude": 14.62409,
    "longitude": -61.0922
  },
  {
    "city": "Tourtet",
    "city_zh": "Tourtet",
    "country": "Martinique",
    "country_zh": "Martinique",
    "country_iso_code": "MQ",
    "timezone": "America/Martinique",
    "latitude": 14.63333,
    "longitude": -61.06667
  },
  {
    "city": "Thoraille",
    "city_zh": "Thoraille",
    "country": "Martinique",
    "country_zh": "Martinique",
    "country_iso_code": "MQ",
    "timezone": "America/Martinique",
    "latitude": 14.51605,
    "longitude": -60.96733
  },
  {
    "city": "Terreville",
    "city_zh": "Terreville",
    "country": "Martinique",
    "country_zh": "Martinique",
    "country_iso_code": "MQ",
    "timezone": "America/Martinique",
    "latitude": 14.64104,
    "longitude": -61.09958
  },
  {
    "city": "Terres Sainville",
    "city_zh": "Terres Sainville",
    "country": "Martinique",
    "country_zh": "Martinique",
    "country_iso_code": "MQ",
    "timezone": "America/Martinique",
    "latitude": 14.60975,
    "longitude": -61.07027
  },
  {
    "city": "Taupinière",
    "city_zh": "Taupinière",
    "country": "Martinique",
    "country_zh": "Martinique",
    "country_iso_code": "MQ",
    "timezone": "America/Martinique",
    "latitude": 14.48352,
    "longitude": -60.99353
  },
  {
    "city": "Tartane",
    "city_zh": "Tartane",
    "country": "Martinique",
    "country_zh": "Martinique",
    "country_iso_code": "MQ",
    "timezone": "America/Martinique",
    "latitude": 14.76017,
    "longitude": -60.9157
  },
  {
    "city": "Suffrin",
    "city_zh": "Suffrin",
    "country": "Martinique",
    "country_zh": "Martinique",
    "country_iso_code": "MQ",
    "timezone": "America/Martinique",
    "latitude": 14.55643,
    "longitude": -60.95188
  },
  {
    "city": "Sucrerie",
    "city_zh": "Sucrerie",
    "country": "Martinique",
    "country_zh": "Martinique",
    "country_iso_code": "MQ",
    "timezone": "America/Martinique",
    "latitude": 14.56667,
    "longitude": -60.9
  },
  {
    "city": "Spoutourne",
    "city_zh": "Spoutourne",
    "country": "Martinique",
    "country_zh": "Martinique",
    "country_iso_code": "MQ",
    "timezone": "America/Martinique",
    "latitude": 14.75073,
    "longitude": -60.92349
  },
  {
    "city": "Soudon",
    "city_zh": "Soudon",
    "country": "Martinique",
    "country_zh": "Martinique",
    "country_iso_code": "MQ",
    "timezone": "America/Martinique",
    "latitude": 14.64691,
    "longitude": -60.99459
  },
  {
    "city": "Sinaï",
    "city_zh": "Sinaï",
    "country": "Martinique",
    "country_zh": "Martinique",
    "country_iso_code": "MQ",
    "timezone": "America/Martinique",
    "latitude": 14.71907,
    "longitude": -61.03516
  },
  {
    "city": "Séailles",
    "city_zh": "Séailles",
    "country": "Martinique",
    "country_zh": "Martinique",
    "country_iso_code": "MQ",
    "timezone": "America/Martinique",
    "latitude": 14.67495,
    "longitude": -61.04405
  },
  {
    "city": "Schoelcher",
    "city_zh": "Schoelcher",
    "country": "Martinique",
    "country_zh": "Martinique",
    "country_iso_code": "MQ",
    "timezone": "America/Martinique",
    "latitude": 14.61774,
    "longitude": -61.099
  },
  {
    "city": "Savane Petit",
    "city_zh": "Savane Petit",
    "country": "Martinique",
    "country_zh": "Martinique",
    "country_iso_code": "MQ",
    "timezone": "America/Martinique",
    "latitude": 14.77613,
    "longitude": -61.1226
  },
  {
    "city": "Sarrault",
    "city_zh": "Sarrault",
    "country": "Martinique",
    "country_zh": "Martinique",
    "country_iso_code": "MQ",
    "timezone": "America/Martinique",
    "latitude": 14.64266,
    "longitude": -60.96737
  },
  {
    "city": "Sarcelle",
    "city_zh": "Sarcelle",
    "country": "Martinique",
    "country_zh": "Martinique",
    "country_iso_code": "MQ",
    "timezone": "America/Martinique",
    "latitude": 14.5273,
    "longitude": -61.01981
  },
  {
    "city": "Sans Pareil",
    "city_zh": "Sans Pareil",
    "country": "Martinique",
    "country_zh": "Martinique",
    "country_iso_code": "MQ",
    "timezone": "America/Martinique",
    "latitude": 14.5053,
    "longitude": -60.96485
  },
  {
    "city": "Les Salines Dillon",
    "city_zh": "Les Salines Dillon",
    "country": "Martinique",
    "country_zh": "Martinique",
    "country_iso_code": "MQ",
    "timezone": "America/Martinique",
    "latitude": 14.41121,
    "longitude": -60.86538
  },
  {
    "city": "Saint-Vincent",
    "city_zh": "Saint-Vincent",
    "country": "Martinique",
    "country_zh": "Martinique",
    "country_iso_code": "MQ",
    "timezone": "America/Martinique",
    "latitude": 14.50156,
    "longitude": -60.87835
  },
  {
    "city": "Saint-Roch",
    "city_zh": "Saint-Roch",
    "country": "Martinique",
    "country_zh": "Martinique",
    "country_iso_code": "MQ",
    "timezone": "America/Martinique",
    "latitude": 14.60493,
    "longitude": -60.93858
  },
  {
    "city": "Saint-Pierre",
    "city_zh": "圣皮埃尔",
    "country": "Martinique",
    "country_zh": "Martinique",
    "country_iso_code": "MQ",
    "timezone": "America/Martinique",
    "latitude": 14.74309,
    "longitude": -61.17541
  },
  {
    "city": "La Saint-Pierre",
    "city_zh": "La Saint-Pierre",
    "country": "Martinique",
    "country_zh": "Martinique",
    "country_iso_code": "MQ",
    "timezone": "America/Martinique",
    "latitude": 14.59529,
    "longitude": -60.93878
  },
  {
    "city": "Saint-Maurice",
    "city_zh": "Saint-Maurice",
    "country": "Martinique",
    "country_zh": "Martinique",
    "country_iso_code": "MQ",
    "timezone": "America/Martinique",
    "latitude": 14.70374,
    "longitude": -61.13775
  },
  {
    "city": "Saint-Laurent",
    "city_zh": "Saint-Laurent",
    "country": "Martinique",
    "country_zh": "Martinique",
    "country_iso_code": "MQ",
    "timezone": "America/Martinique",
    "latitude": 14.58803,
    "longitude": -60.92146
  },
  {
    "city": "Saint-Joseph",
    "city_zh": "Saint-Joseph",
    "country": "Martinique",
    "country_zh": "Martinique",
    "country_iso_code": "MQ",
    "timezone": "America/Martinique",
    "latitude": 14.67099,
    "longitude": -61.03905
  },
  {
    "city": "Sainte-Thérèse",
    "city_zh": "Sainte-Thérèse",
    "country": "Martinique",
    "country_zh": "Martinique",
    "country_iso_code": "MQ",
    "timezone": "America/Martinique",
    "latitude": 14.60759,
    "longitude": -61.05824
  },
  {
    "city": "Sainte-Marie",
    "city_zh": "Sainte-Marie",
    "country": "Martinique",
    "country_zh": "Martinique",
    "country_iso_code": "MQ",
    "timezone": "America/Martinique",
    "latitude": 14.78352,
    "longitude": -60.99227
  },
  {
    "city": "Sainte-Luce",
    "city_zh": "Sainte-Luce",
    "country": "Martinique",
    "country_zh": "Martinique",
    "country_iso_code": "MQ",
    "timezone": "America/Martinique",
    "latitude": 14.46848,
    "longitude": -60.92138
  },
  {
    "city": "Sainte-Anne",
    "city_zh": "Sainte-Anne",
    "country": "Martinique",
    "country_zh": "Martinique",
    "country_iso_code": "MQ",
    "timezone": "America/Martinique",
    "latitude": 14.43452,
    "longitude": -60.88078
  },
  {
    "city": "Saint-Charles",
    "city_zh": "Saint-Charles",
    "country": "Martinique",
    "country_zh": "Martinique",
    "country_iso_code": "MQ",
    "timezone": "America/Martinique",
    "latitude": 14.49045,
    "longitude": -61.03849
  },
  {
    "city": "Saint-Aroman",
    "city_zh": "Saint-Aroman",
    "country": "Martinique",
    "country_zh": "Martinique",
    "country_iso_code": "MQ",
    "timezone": "America/Martinique",
    "latitude": 14.74819,
    "longitude": -61.02763
  },
  {
    "city": "Saingaule",
    "city_zh": "Saingaule",
    "country": "Martinique",
    "country_zh": "Martinique",
    "country_iso_code": "MQ",
    "timezone": "America/Martinique",
    "latitude": 14.49441,
    "longitude": -60.91181
  },
  {
    "city": "Sagesse",
    "city_zh": "Sagesse",
    "country": "Martinique",
    "country_zh": "Martinique",
    "country_iso_code": "MQ",
    "timezone": "America/Martinique",
    "latitude": 14.50825,
    "longitude": -60.9802
  },
  {
    "city": "Rue Paille",
    "city_zh": "Rue Paille",
    "country": "Martinique",
    "country_zh": "Martinique",
    "country_iso_code": "MQ",
    "timezone": "America/Martinique",
    "latitude": 14.73333,
    "longitude": -60.96667
  },
  {
    "city": "Rousseau",
    "city_zh": "Rousseau",
    "country": "Martinique",
    "country_zh": "Martinique",
    "country_iso_code": "MQ",
    "timezone": "America/Martinique",
    "latitude": 14.6586,
    "longitude": -61.02001
  },
  {
    "city": "Rodon",
    "city_zh": "Rodon",
    "country": "Martinique",
    "country_zh": "Martinique",
    "country_iso_code": "MQ",
    "timezone": "America/Martinique",
    "latitude": 14.75324,
    "longitude": -60.99768
  },
  {
    "city": "Roches Carrées",
    "city_zh": "Roches Carrées",
    "country": "Martinique",
    "country_zh": "Martinique",
    "country_iso_code": "MQ",
    "timezone": "America/Martinique",
    "latitude": 14.62737,
    "longitude": -60.96222
  },
  {
    "city": "Rivière Salée",
    "city_zh": "Rivière Salée",
    "country": "Martinique",
    "country_zh": "Martinique",
    "country_iso_code": "MQ",
    "timezone": "America/Martinique",
    "latitude": 14.52697,
    "longitude": -60.97934
  },
  {
    "city": "Rivière-Pilote",
    "city_zh": "Rivière-Pilote",
    "country": "Martinique",
    "country_zh": "Martinique",
    "country_iso_code": "MQ",
    "timezone": "America/Martinique",
    "latitude": 14.48738,
    "longitude": -60.90257
  },
  {
    "city": "Rivière l'Or",
    "city_zh": "Rivière l'Or",
    "country": "Martinique",
    "country_zh": "Martinique",
    "country_iso_code": "MQ",
    "timezone": "America/Martinique",
    "latitude": 14.66371,
    "longitude": -61.06694
  },
  {
    "city": "Rivière Caleçon",
    "city_zh": "Rivière Caleçon",
    "country": "Martinique",
    "country_zh": "Martinique",
    "country_iso_code": "MQ",
    "timezone": "America/Martinique",
    "latitude": 14.6174,
    "longitude": -60.96357
  },
  {
    "city": "Rivière Cacao",
    "city_zh": "Rivière Cacao",
    "country": "Martinique",
    "country_zh": "Martinique",
    "country_iso_code": "MQ",
    "timezone": "America/Martinique",
    "latitude": 14.64902,
    "longitude": -60.9424
  },
  {
    "city": "Rivière",
    "city_zh": "Rivière",
    "country": "Martinique",
    "country_zh": "Martinique",
    "country_iso_code": "MQ",
    "timezone": "America/Martinique",
    "latitude": 14.47345,
    "longitude": -60.84735
  },
  {
    "city": "Rives Chancel",
    "city_zh": "Rives Chancel",
    "country": "Martinique",
    "country_zh": "Martinique",
    "country_iso_code": "MQ",
    "timezone": "America/Martinique",
    "latitude": 14.64476,
    "longitude": -60.97676
  },
  {
    "city": "Reynoird",
    "city_zh": "Reynoird",
    "country": "Martinique",
    "country_zh": "Martinique",
    "country_iso_code": "MQ",
    "timezone": "America/Martinique",
    "latitude": 14.64755,
    "longitude": -60.9227
  },
  {
    "city": "Réunion",
    "city_zh": "Réunion",
    "country": "Martinique",
    "country_zh": "Martinique",
    "country_iso_code": "MQ",
    "timezone": "America/Martinique",
    "latitude": 14.69064,
    "longitude": -60.92235
  },
  {
    "city": "Ressource",
    "city_zh": "Ressource",
    "country": "Martinique",
    "country_zh": "Martinique",
    "country_iso_code": "MQ",
    "timezone": "America/Martinique",
    "latitude": 14.73422,
    "longitude": -60.98399
  },
  {
    "city": "Ressource",
    "city_zh": "Ressource",
    "country": "Martinique",
    "country_zh": "Martinique",
    "country_iso_code": "MQ",
    "timezone": "America/Martinique",
    "latitude": 14.60994,
    "longitude": -60.98752
  },
  {
    "city": "Régale-de-Saint-Esprit",
    "city_zh": "Régale-de-Saint-Esprit",
    "country": "Martinique",
    "country_zh": "Martinique",
    "country_iso_code": "MQ",
    "timezone": "America/Martinique",
    "latitude": 14.53333,
    "longitude": -60.91667
  },
  {
    "city": "Régale",
    "city_zh": "Régale",
    "country": "Martinique",
    "country_zh": "Martinique",
    "country_iso_code": "MQ",
    "timezone": "America/Martinique",
    "latitude": 14.53333,
    "longitude": -60.91707
  },
  {
    "city": "Redoute",
    "city_zh": "Redoute",
    "country": "Martinique",
    "country_zh": "Martinique",
    "country_iso_code": "MQ",
    "timezone": "America/Martinique",
    "latitude": 14.63124,
    "longitude": -61.05559
  },
  {
    "city": "Reculée",
    "city_zh": "Reculée",
    "country": "Martinique",
    "country_zh": "Martinique",
    "country_iso_code": "MQ",
    "timezone": "America/Martinique",
    "latitude": 14.77954,
    "longitude": -61.02626
  },
  {
    "city": "Ravine Vilaine",
    "city_zh": "Ravine Vilaine",
    "country": "Martinique",
    "country_zh": "Martinique",
    "country_iso_code": "MQ",
    "timezone": "America/Martinique",
    "latitude": 14.63493,
    "longitude": -61.05947
  },
  {
    "city": "Ravine Touza",
    "city_zh": "Ravine Touza",
    "country": "Martinique",
    "country_zh": "Martinique",
    "country_iso_code": "MQ",
    "timezone": "America/Martinique",
    "latitude": 14.62786,
    "longitude": -61.0853
  },
  {
    "city": "Ravine Chien",
    "city_zh": "Ravine Chien",
    "country": "Martinique",
    "country_zh": "Martinique",
    "country_iso_code": "MQ",
    "timezone": "America/Martinique",
    "latitude": 14.53073,
    "longitude": -60.94796
  },
  {
    "city": "Ravine Braie",
    "city_zh": "Ravine Braie",
    "country": "Martinique",
    "country_zh": "Martinique",
    "country_iso_code": "MQ",
    "timezone": "America/Martinique",
    "latitude": 14.49756,
    "longitude": -60.8801
  },
  {
    "city": "Ravine Acajou",
    "city_zh": "Ravine Acajou",
    "country": "Martinique",
    "country_zh": "Martinique",
    "country_iso_code": "MQ",
    "timezone": "America/Martinique",
    "latitude": 14.49733,
    "longitude": -60.90705
  },
  {
    "city": "Rateau",
    "city_zh": "Rateau",
    "country": "Martinique",
    "country_zh": "Martinique",
    "country_iso_code": "MQ",
    "timezone": "America/Martinique",
    "latitude": 14.51284,
    "longitude": -61.02008
  },
  {
    "city": "Raisin",
    "city_zh": "Raisin",
    "country": "Martinique",
    "country_zh": "Martinique",
    "country_iso_code": "MQ",
    "timezone": "America/Martinique",
    "latitude": 14.66239,
    "longitude": -60.95346
  },
  {
    "city": "Rabat-Joie",
    "city_zh": "Rabat-Joie",
    "country": "Martinique",
    "country_zh": "Martinique",
    "country_iso_code": "MQ",
    "timezone": "America/Martinique",
    "latitude": 14.46641,
    "longitude": -60.84281
  },
  {
    "city": "Quartier Vert-Pré",
    "city_zh": "Quartier Vert-Pré",
    "country": "Martinique",
    "country_zh": "Martinique",
    "country_iso_code": "MQ",
    "timezone": "America/Martinique",
    "latitude": 14.59141,
    "longitude": -60.97525
  },
  {
    "city": "Morne Venté",
    "city_zh": "Morne Venté",
    "country": "Martinique",
    "country_zh": "Martinique",
    "country_iso_code": "MQ",
    "timezone": "America/Martinique",
    "latitude": 14.63446,
    "longitude": -61.07995
  },
  {
    "city": "Semaine",
    "city_zh": "Semaine",
    "country": "Martinique",
    "country_zh": "Martinique",
    "country_iso_code": "MQ",
    "timezone": "America/Martinique",
    "latitude": 14.82016,
    "longitude": -61.1235
  },
  {
    "city": "Quartiers Anse à l'Âne",
    "city_zh": "Quartiers Anse à l'Âne",
    "country": "Martinique",
    "country_zh": "Martinique",
    "country_iso_code": "MQ",
    "timezone": "America/Martinique",
    "latitude": 14.53333,
    "longitude": -61.06667
  },
  {
    "city": "Sainte-Catherine",
    "city_zh": "Sainte-Catherine",
    "country": "Martinique",
    "country_zh": "Martinique",
    "country_iso_code": "MQ",
    "timezone": "America/Martinique",
    "latitude": 14.61207,
    "longitude": -61.08548
  },
  {
    "city": "Rollin",
    "city_zh": "Rollin",
    "country": "Martinique",
    "country_zh": "Martinique",
    "country_iso_code": "MQ",
    "timezone": "America/Martinique",
    "latitude": 14.5199,
    "longitude": -60.88295
  },
  {
    "city": "Roches Carrées",
    "city_zh": "Roches Carrées",
    "country": "Martinique",
    "country_zh": "Martinique",
    "country_iso_code": "MQ",
    "timezone": "America/Martinique",
    "latitude": 14.63321,
    "longitude": -60.96693
  },
  {
    "city": "Pont Rivière Roche",
    "city_zh": "Pont Rivière Roche",
    "country": "Martinique",
    "country_zh": "Martinique",
    "country_iso_code": "MQ",
    "timezone": "America/Martinique",
    "latitude": 14.86862,
    "longitude": -61.13138
  },
  {
    "city": "Rivière Pomme",
    "city_zh": "Rivière Pomme",
    "country": "Martinique",
    "country_zh": "Martinique",
    "country_iso_code": "MQ",
    "timezone": "America/Martinique",
    "latitude": 14.69471,
    "longitude": -60.98346
  },
  {
    "city": "Rivière Monsieur",
    "city_zh": "Rivière Monsieur",
    "country": "Martinique",
    "country_zh": "Martinique",
    "country_iso_code": "MQ",
    "timezone": "America/Martinique",
    "latitude": 14.66266,
    "longitude": -61.05566
  },
  {
    "city": "Quartier Rivière Monsieur",
    "city_zh": "Quartier Rivière Monsieur",
    "country": "Martinique",
    "country_zh": "Martinique",
    "country_iso_code": "MQ",
    "timezone": "America/Martinique",
    "latitude": 14.61667,
    "longitude": -61.05
  },
  {
    "city": "Rivière Bambou",
    "city_zh": "Rivière Bambou",
    "country": "Martinique",
    "country_zh": "Martinique",
    "country_iso_code": "MQ",
    "timezone": "America/Martinique",
    "latitude": 14.5845,
    "longitude": -60.93002
  },
  {
    "city": "Quartier Ravine",
    "city_zh": "Quartier Ravine",
    "country": "Martinique",
    "country_zh": "Martinique",
    "country_iso_code": "MQ",
    "timezone": "America/Martinique",
    "latitude": 14.5,
    "longitude": -60.9
  },
  {
    "city": "Rabuchon",
    "city_zh": "Rabuchon",
    "country": "Martinique",
    "country_zh": "Martinique",
    "country_iso_code": "MQ",
    "timezone": "America/Martinique",
    "latitude": 14.67941,
    "longitude": -61.05571
  },
  {
    "city": "Préfontaine",
    "city_zh": "Préfontaine",
    "country": "Martinique",
    "country_zh": "Martinique",
    "country_iso_code": "MQ",
    "timezone": "America/Martinique",
    "latitude": 14.51265,
    "longitude": -60.90752
  },
  {
    "city": "Quartier Poix Doux Bocage",
    "city_zh": "Quartier Poix Doux Bocage",
    "country": "Martinique",
    "country_zh": "Martinique",
    "country_iso_code": "MQ",
    "timezone": "America/Martinique",
    "latitude": 14.6795,
    "longitude": -60.98308
  },
  {
    "city": "Plateau Tiberge",
    "city_zh": "Plateau Tiberge",
    "country": "Martinique",
    "country_zh": "Martinique",
    "country_iso_code": "MQ",
    "timezone": "America/Martinique",
    "latitude": 14.6471,
    "longitude": -61.05624
  },
  {
    "city": "Quartier Pitons",
    "city_zh": "Quartier Pitons",
    "country": "Martinique",
    "country_zh": "Martinique",
    "country_iso_code": "MQ",
    "timezone": "America/Martinique",
    "latitude": 14.72977,
    "longitude": -61.00899
  },
  {
    "city": "Quartier Piton",
    "city_zh": "Quartier Piton",
    "country": "Martinique",
    "country_zh": "Martinique",
    "country_iso_code": "MQ",
    "timezone": "America/Martinique",
    "latitude": 14.71361,
    "longitude": -61.16123
  },
  {
    "city": "Petit Paradis",
    "city_zh": "Petit Paradis",
    "country": "Martinique",
    "country_zh": "Martinique",
    "country_iso_code": "MQ",
    "timezone": "America/Martinique",
    "latitude": 14.64875,
    "longitude": -61.02115
  },
  {
    "city": "Pérou",
    "city_zh": "Pérou",
    "country": "Martinique",
    "country_zh": "Martinique",
    "country_iso_code": "MQ",
    "timezone": "America/Martinique",
    "latitude": 14.75547,
    "longitude": -61.03048
  },
  {
    "city": "Pays Mêlé",
    "city_zh": "Pays Mêlé",
    "country": "Martinique",
    "country_zh": "Martinique",
    "country_iso_code": "MQ",
    "timezone": "America/Martinique",
    "latitude": 14.63088,
    "longitude": -61.01282
  },
  {
    "city": "Palmène",
    "city_zh": "Palmène",
    "country": "Martinique",
    "country_zh": "Martinique",
    "country_iso_code": "MQ",
    "timezone": "America/Martinique",
    "latitude": 14.55835,
    "longitude": -60.91401
  },
  {
    "city": "Morne Théodore",
    "city_zh": "Morne Théodore",
    "country": "Martinique",
    "country_zh": "Martinique",
    "country_iso_code": "MQ",
    "timezone": "America/Martinique",
    "latitude": 14.76447,
    "longitude": -61.03374
  },
  {
    "city": "Quartier Morne Piton",
    "city_zh": "Quartier Morne Piton",
    "country": "Martinique",
    "country_zh": "Martinique",
    "country_iso_code": "MQ",
    "timezone": "America/Martinique",
    "latitude": 14.70974,
    "longitude": -61.14145
  },
  {
    "city": "Quartier Morne Mignolle",
    "city_zh": "Quartier Morne Mignolle",
    "country": "Martinique",
    "country_zh": "Martinique",
    "country_iso_code": "MQ",
    "timezone": "America/Martinique",
    "latitude": 14.75,
    "longitude": -61.0
  },
  {
    "city": "Quartier Morne Covin",
    "city_zh": "Quartier Morne Covin",
    "country": "Martinique",
    "country_zh": "Martinique",
    "country_iso_code": "MQ",
    "timezone": "America/Martinique",
    "latitude": 14.67652,
    "longitude": -61.13727
  },
  {
    "city": "Morne Carette",
    "city_zh": "Morne Carette",
    "country": "Martinique",
    "country_zh": "Martinique",
    "country_iso_code": "MQ",
    "timezone": "America/Martinique",
    "latitude": 14.58804,
    "longitude": -60.9624
  },
  {
    "city": "Morne Calebasse",
    "city_zh": "Morne Calebasse",
    "country": "Martinique",
    "country_zh": "Martinique",
    "country_iso_code": "MQ",
    "timezone": "America/Martinique",
    "latitude": 14.61767,
    "longitude": -61.05348
  },
  {
    "city": "Morne à Roche",
    "city_zh": "Morne à Roche",
    "country": "Martinique",
    "country_zh": "Martinique",
    "country_iso_code": "MQ",
    "timezone": "America/Martinique",
    "latitude": 14.75788,
    "longitude": -60.98592
  },
  {
    "city": "Morne Acajou",
    "city_zh": "Morne Acajou",
    "country": "Martinique",
    "country_zh": "Martinique",
    "country_iso_code": "MQ",
    "timezone": "America/Martinique",
    "latitude": 14.58078,
    "longitude": -60.90912
  },
  {
    "city": "Quartier Monsieur",
    "city_zh": "Quartier Monsieur",
    "country": "Martinique",
    "country_zh": "Martinique",
    "country_iso_code": "MQ",
    "timezone": "America/Martinique",
    "latitude": 14.72095,
    "longitude": -61.17975
  },
  {
    "city": "Mont Plaisir",
    "city_zh": "Mont Plaisir",
    "country": "Martinique",
    "country_zh": "Martinique",
    "country_iso_code": "MQ",
    "timezone": "America/Martinique",
    "latitude": 14.53622,
    "longitude": -60.89626
  },
  {
    "city": "Luçon",
    "city_zh": "Luçon",
    "country": "Martinique",
    "country_zh": "Martinique",
    "country_iso_code": "MQ",
    "timezone": "America/Martinique",
    "latitude": 14.78046,
    "longitude": -61.0324
  },
  {
    "city": "Lowinsky",
    "city_zh": "Lowinsky",
    "country": "Martinique",
    "country_zh": "Martinique",
    "country_iso_code": "MQ",
    "timezone": "America/Martinique",
    "latitude": 14.51056,
    "longitude": -60.87904
  },
  {
    "city": "Quartier Lelubois",
    "city_zh": "Quartier Lelubois",
    "country": "Martinique",
    "country_zh": "Martinique",
    "country_iso_code": "MQ",
    "timezone": "America/Martinique",
    "latitude": 14.48358,
    "longitude": -60.89488
  },
  {
    "city": "Lecomte",
    "city_zh": "Lecomte",
    "country": "Martinique",
    "country_zh": "Martinique",
    "country_iso_code": "MQ",
    "timezone": "America/Martinique",
    "latitude": 14.69681,
    "longitude": -60.94788
  },
  {
    "city": "Sabine",
    "city_zh": "Sabine",
    "country": "Martinique",
    "country_zh": "Martinique",
    "country_iso_code": "MQ",
    "timezone": "America/Martinique",
    "latitude": 14.67412,
    "longitude": -60.97957
  },
  {
    "city": "La Nau",
    "city_zh": "La Nau",
    "country": "Martinique",
    "country_zh": "Martinique",
    "country_iso_code": "MQ",
    "timezone": "America/Martinique",
    "latitude": 14.54525,
    "longitude": -60.90878
  },
  {
    "city": "L'Allée",
    "city_zh": "L'Allée",
    "country": "Martinique",
    "country_zh": "Martinique",
    "country_iso_code": "MQ",
    "timezone": "America/Martinique",
    "latitude": 14.66941,
    "longitude": -61.00901
  },
  {
    "city": "Quartier la Fontaine",
    "city_zh": "Quartier la Fontaine",
    "country": "Martinique",
    "country_zh": "Martinique",
    "country_iso_code": "MQ",
    "timezone": "America/Martinique",
    "latitude": 14.63307,
    "longitude": -61.06893
  },
  {
    "city": "Quartier la Félix",
    "city_zh": "Quartier la Félix",
    "country": "Martinique",
    "country_zh": "Martinique",
    "country_iso_code": "MQ",
    "timezone": "America/Martinique",
    "latitude": 14.54825,
    "longitude": -60.87017
  },
  {
    "city": "La Dessaint",
    "city_zh": "La Dessaint",
    "country": "Martinique",
    "country_zh": "Martinique",
    "country_iso_code": "MQ",
    "timezone": "America/Martinique",
    "latitude": 14.7011,
    "longitude": -60.99211
  },
  {
    "city": "La Beauville",
    "city_zh": "La Beauville",
    "country": "Martinique",
    "country_zh": "Martinique",
    "country_iso_code": "MQ",
    "timezone": "America/Martinique",
    "latitude": 14.58224,
    "longitude": -60.95063
  },
  {
    "city": "Humbert",
    "city_zh": "Humbert",
    "country": "Martinique",
    "country_zh": "Martinique",
    "country_iso_code": "MQ",
    "timezone": "America/Martinique",
    "latitude": 14.56381,
    "longitude": -60.88312
  },
  {
    "city": "Grozan",
    "city_zh": "Grozan",
    "country": "Martinique",
    "country_zh": "Martinique",
    "country_iso_code": "MQ",
    "timezone": "America/Martinique",
    "latitude": 14.69767,
    "longitude": -60.98886
  },
  {
    "city": "Grand Bassin",
    "city_zh": "Grand Bassin",
    "country": "Martinique",
    "country_zh": "Martinique",
    "country_iso_code": "MQ",
    "timezone": "America/Martinique",
    "latitude": 14.56302,
    "longitude": -60.90297
  },
  {
    "city": "Glotin",
    "city_zh": "Glotin",
    "country": "Martinique",
    "country_zh": "Martinique",
    "country_iso_code": "MQ",
    "timezone": "America/Martinique",
    "latitude": 14.68709,
    "longitude": -61.00306
  },
  {
    "city": "La Gillot",
    "city_zh": "La Gillot",
    "country": "Martinique",
    "country_zh": "Martinique",
    "country_iso_code": "MQ",
    "timezone": "America/Martinique",
    "latitude": 14.58632,
    "longitude": -60.90039
  },
  {
    "city": "Galette",
    "city_zh": "Galette",
    "country": "Martinique",
    "country_zh": "Martinique",
    "country_iso_code": "MQ",
    "timezone": "America/Martinique",
    "latitude": 14.68652,
    "longitude": -60.97664
  },
  {
    "city": "Fond Zamy",
    "city_zh": "Fond Zamy",
    "country": "Martinique",
    "country_zh": "Martinique",
    "country_iso_code": "MQ",
    "timezone": "America/Martinique",
    "latitude": 14.55035,
    "longitude": -60.87224
  },
  {
    "city": "Fond Mulâtres",
    "city_zh": "Fond Mulâtres",
    "country": "Martinique",
    "country_zh": "Martinique",
    "country_iso_code": "MQ",
    "timezone": "America/Martinique",
    "latitude": 14.52838,
    "longitude": -60.87339
  },
  {
    "city": "Quartier Fond Guillet",
    "city_zh": "Quartier Fond Guillet",
    "country": "Martinique",
    "country_zh": "Martinique",
    "country_iso_code": "MQ",
    "timezone": "America/Martinique",
    "latitude": 14.76667,
    "longitude": -61.13333
  },
  {
    "city": "Firmin",
    "city_zh": "Firmin",
    "country": "Martinique",
    "country_zh": "Martinique",
    "country_iso_code": "MQ",
    "timezone": "America/Martinique",
    "latitude": 14.55384,
    "longitude": -60.89444
  },
  {
    "city": "Morne Valentin",
    "city_zh": "Morne Valentin",
    "country": "Martinique",
    "country_zh": "Martinique",
    "country_iso_code": "MQ",
    "timezone": "America/Martinique",
    "latitude": 14.58142,
    "longitude": -60.90297
  },
  {
    "city": "Quartier du Fort",
    "city_zh": "Quartier du Fort",
    "country": "Martinique",
    "country_zh": "Martinique",
    "country_iso_code": "MQ",
    "timezone": "America/Martinique",
    "latitude": 14.75064,
    "longitude": -61.17759
  },
  {
    "city": "Quartier des Pitons",
    "city_zh": "Quartier des Pitons",
    "country": "Martinique",
    "country_zh": "Martinique",
    "country_iso_code": "MQ",
    "timezone": "America/Martinique",
    "latitude": 14.71667,
    "longitude": -61.05
  },
  {
    "city": "Desmartinières",
    "city_zh": "Desmartinières",
    "country": "Martinique",
    "country_zh": "Martinique",
    "country_iso_code": "MQ",
    "timezone": "America/Martinique",
    "latitude": 14.52526,
    "longitude": -60.91174
  },
  {
    "city": "Descossières",
    "city_zh": "Descossières",
    "country": "Martinique",
    "country_zh": "Martinique",
    "country_iso_code": "MQ",
    "timezone": "America/Martinique",
    "latitude": 14.74908,
    "longitude": -60.99145
  },
  {
    "city": "Deschamps",
    "city_zh": "Deschamps",
    "country": "Martinique",
    "country_zh": "Martinique",
    "country_iso_code": "MQ",
    "timezone": "America/Martinique",
    "latitude": 14.81919,
    "longitude": -61.11438
  },
  {
    "city": "Desbrosses",
    "city_zh": "Desbrosses",
    "country": "Martinique",
    "country_zh": "Martinique",
    "country_iso_code": "MQ",
    "timezone": "America/Martinique",
    "latitude": 14.64059,
    "longitude": -61.06779
  },
  {
    "city": "Quartier de l’Orangerie",
    "city_zh": "Quartier de l’Orangerie",
    "country": "Martinique",
    "country_zh": "Martinique",
    "country_iso_code": "MQ",
    "timezone": "America/Martinique",
    "latitude": 14.80389,
    "longitude": -61.2263
  },
  {
    "city": "Quartier de l'Ex-voto",
    "city_zh": "Quartier de l'Ex-voto",
    "country": "Martinique",
    "country_zh": "Martinique",
    "country_iso_code": "MQ",
    "timezone": "America/Martinique",
    "latitude": 14.75,
    "longitude": -61.2
  },
  {
    "city": "TSF",
    "city_zh": "TSF",
    "country": "Martinique",
    "country_zh": "Martinique",
    "country_iso_code": "MQ",
    "timezone": "America/Martinique",
    "latitude": 14.60447,
    "longitude": -61.05402
  },
  {
    "city": "Dabadie",
    "city_zh": "Dabadie",
    "country": "Martinique",
    "country_zh": "Martinique",
    "country_iso_code": "MQ",
    "timezone": "America/Martinique",
    "latitude": 14.64141,
    "longitude": -61.05543
  },
  {
    "city": "Quartier Cyrille",
    "city_zh": "Quartier Cyrille",
    "country": "Martinique",
    "country_zh": "Martinique",
    "country_iso_code": "MQ",
    "timezone": "America/Martinique",
    "latitude": 14.82226,
    "longitude": -61.08083
  },
  {
    "city": "Courbaril",
    "city_zh": "Courbaril",
    "country": "Martinique",
    "country_zh": "Martinique",
    "country_iso_code": "MQ",
    "timezone": "America/Martinique",
    "latitude": 14.71062,
    "longitude": -61.02592
  },
  {
    "city": "Courbaril",
    "city_zh": "Courbaril",
    "country": "Martinique",
    "country_zh": "Martinique",
    "country_iso_code": "MQ",
    "timezone": "America/Martinique",
    "latitude": 14.54743,
    "longitude": -60.94841
  },
  {
    "city": "Coulée d'Or",
    "city_zh": "Coulée d'Or",
    "country": "Martinique",
    "country_zh": "Martinique",
    "country_iso_code": "MQ",
    "timezone": "America/Martinique",
    "latitude": 14.54772,
    "longitude": -60.87617
  },
  {
    "city": "Quartier Cocoyer",
    "city_zh": "Quartier Cocoyer",
    "country": "Martinique",
    "country_zh": "Martinique",
    "country_iso_code": "MQ",
    "timezone": "America/Martinique",
    "latitude": 14.50319,
    "longitude": -61.07471
  },
  {
    "city": "Chevrier",
    "city_zh": "Chevrier",
    "country": "Martinique",
    "country_zh": "Martinique",
    "country_iso_code": "MQ",
    "timezone": "America/Martinique",
    "latitude": 14.50364,
    "longitude": -60.88018
  },
  {
    "city": "Chère Épice",
    "city_zh": "Chère Épice",
    "country": "Martinique",
    "country_zh": "Martinique",
    "country_iso_code": "MQ",
    "timezone": "America/Martinique",
    "latitude": 14.69594,
    "longitude": -60.97007
  },
  {
    "city": "Boë",
    "city_zh": "Boë",
    "country": "Martinique",
    "country_zh": "Martinique",
    "country_iso_code": "MQ",
    "timezone": "America/Martinique",
    "latitude": 14.56677,
    "longitude": -60.88794
  },
  {
    "city": "Bonnin",
    "city_zh": "Bonnin",
    "country": "Martinique",
    "country_zh": "Martinique",
    "country_iso_code": "MQ",
    "timezone": "America/Martinique",
    "latitude": 14.70563,
    "longitude": -60.97575
  },
  {
    "city": "Bon Air",
    "city_zh": "Bon Air",
    "country": "Martinique",
    "country_zh": "Martinique",
    "country_iso_code": "MQ",
    "timezone": "America/Martinique",
    "latitude": 14.74782,
    "longitude": -61.00421
  },
  {
    "city": "Quartier Bocage",
    "city_zh": "Quartier Bocage",
    "country": "Martinique",
    "country_zh": "Martinique",
    "country_iso_code": "MQ",
    "timezone": "America/Martinique",
    "latitude": 14.746,
    "longitude": -60.98677
  },
  {
    "city": "Bellevue",
    "city_zh": "Bellevue",
    "country": "Martinique",
    "country_zh": "Martinique",
    "country_iso_code": "MQ",
    "timezone": "America/Martinique",
    "latitude": 14.60654,
    "longitude": -61.08522
  },
  {
    "city": "Bellevue",
    "city_zh": "Bellevue",
    "country": "Martinique",
    "country_zh": "Martinique",
    "country_iso_code": "MQ",
    "timezone": "America/Martinique",
    "latitude": 14.54339,
    "longitude": -60.88204
  },
  {
    "city": "Quartier Bedzy",
    "city_zh": "Quartier Bedzy",
    "country": "Martinique",
    "country_zh": "Martinique",
    "country_iso_code": "MQ",
    "timezone": "America/Martinique",
    "latitude": 14.72691,
    "longitude": -61.14283
  },
  {
    "city": "Quartier Béco",
    "city_zh": "Quartier Béco",
    "country": "Martinique",
    "country_zh": "Martinique",
    "country_iso_code": "MQ",
    "timezone": "America/Martinique",
    "latitude": 14.72535,
    "longitude": -61.13408
  },
  {
    "city": "Beauvallon",
    "city_zh": "Beauvallon",
    "country": "Martinique",
    "country_zh": "Martinique",
    "country_iso_code": "MQ",
    "timezone": "America/Martinique",
    "latitude": 14.71375,
    "longitude": -61.14216
  },
  {
    "city": "Quartier Beauregard",
    "city_zh": "Quartier Beauregard",
    "country": "Martinique",
    "country_zh": "Martinique",
    "country_iso_code": "MQ",
    "timezone": "America/Martinique",
    "latitude": 14.52815,
    "longitude": -60.87697
  },
  {
    "city": "Beaujolais",
    "city_zh": "Beaujolais",
    "country": "Martinique",
    "country_zh": "Martinique",
    "country_iso_code": "MQ",
    "timezone": "America/Martinique",
    "latitude": 14.5244,
    "longitude": -60.8605
  },
  {
    "city": "Bas Céron",
    "city_zh": "Bas Céron",
    "country": "Martinique",
    "country_zh": "Martinique",
    "country_iso_code": "MQ",
    "timezone": "America/Martinique",
    "latitude": 14.81557,
    "longitude": -61.07121
  },
  {
    "city": "Quartier Balata",
    "city_zh": "Quartier Balata",
    "country": "Martinique",
    "country_zh": "Martinique",
    "country_iso_code": "MQ",
    "timezone": "America/Martinique",
    "latitude": 14.68333,
    "longitude": -61.03333
  },
  {
    "city": "Quartier Bac",
    "city_zh": "Quartier Bac",
    "country": "Martinique",
    "country_zh": "Martinique",
    "country_iso_code": "MQ",
    "timezone": "America/Martinique",
    "latitude": 14.58333,
    "longitude": -60.9
  },
  {
    "city": "Quartier Anse Azerot",
    "city_zh": "Quartier Anse Azerot",
    "country": "Martinique",
    "country_zh": "Martinique",
    "country_iso_code": "MQ",
    "timezone": "America/Martinique",
    "latitude": 14.76667,
    "longitude": -60.98333
  },
  {
    "city": "Quartier Abricot",
    "city_zh": "Quartier Abricot",
    "country": "Martinique",
    "country_zh": "Martinique",
    "country_iso_code": "MQ",
    "timezone": "America/Martinique",
    "latitude": 14.53283,
    "longitude": -60.92665
  },
  {
    "city": "Puyferrat",
    "city_zh": "Puyferrat",
    "country": "Martinique",
    "country_zh": "Martinique",
    "country_iso_code": "MQ",
    "timezone": "America/Martinique",
    "latitude": 14.50494,
    "longitude": -60.84546
  },
  {
    "city": "Providence",
    "city_zh": "Providence",
    "country": "Martinique",
    "country_zh": "Martinique",
    "country_iso_code": "MQ",
    "timezone": "America/Martinique",
    "latitude": 14.69142,
    "longitude": -60.98222
  },
  {
    "city": "Propriété Poulet",
    "city_zh": "Propriété Poulet",
    "country": "Martinique",
    "country_zh": "Martinique",
    "country_iso_code": "MQ",
    "timezone": "America/Martinique",
    "latitude": 14.8,
    "longitude": -61.13333
  },
  {
    "city": "Propreté",
    "city_zh": "Propreté",
    "country": "Martinique",
    "country_zh": "Martinique",
    "country_iso_code": "MQ",
    "timezone": "America/Martinique",
    "latitude": 14.75018,
    "longitude": -61.10474
  },
  {
    "city": "Presqu'île",
    "city_zh": "Presqu'île",
    "country": "Martinique",
    "country_zh": "Martinique",
    "country_iso_code": "MQ",
    "timezone": "America/Martinique",
    "latitude": 14.67451,
    "longitude": -61.00491
  },
  {
    "city": "Poste Colon",
    "city_zh": "Poste Colon",
    "country": "Martinique",
    "country_zh": "Martinique",
    "country_iso_code": "MQ",
    "timezone": "America/Martinique",
    "latitude": 14.64662,
    "longitude": -61.06878
  },
  {
    "city": "Pont de Chaînes",
    "city_zh": "Pont de Chaînes",
    "country": "Martinique",
    "country_zh": "Martinique",
    "country_iso_code": "MQ",
    "timezone": "America/Martinique",
    "latitude": 14.61807,
    "longitude": -61.071
  },
  {
    "city": "Pontaléry",
    "city_zh": "Pontaléry",
    "country": "Martinique",
    "country_zh": "Martinique",
    "country_iso_code": "MQ",
    "timezone": "America/Martinique",
    "latitude": 14.66804,
    "longitude": -60.9425
  },
  {
    "city": "Pomponne",
    "city_zh": "Pomponne",
    "country": "Martinique",
    "country_zh": "Martinique",
    "country_iso_code": "MQ",
    "timezone": "America/Martinique",
    "latitude": 14.48406,
    "longitude": -60.90537
  },
  {
    "city": "Pomaré",
    "city_zh": "Pomaré",
    "country": "Martinique",
    "country_zh": "Martinique",
    "country_iso_code": "MQ",
    "timezone": "America/Martinique",
    "latitude": 14.53174,
    "longitude": -60.88495
  },
  {
    "city": "Poirier",
    "city_zh": "Poirier",
    "country": "Martinique",
    "country_zh": "Martinique",
    "country_iso_code": "MQ",
    "timezone": "America/Martinique",
    "latitude": 14.72376,
    "longitude": -61.00158
  },
  {
    "city": "Poirier",
    "city_zh": "Poirier",
    "country": "Martinique",
    "country_zh": "Martinique",
    "country_iso_code": "MQ",
    "timezone": "America/Martinique",
    "latitude": 14.46281,
    "longitude": -60.91072
  },
  {
    "city": "Poirier",
    "city_zh": "Poirier",
    "country": "Martinique",
    "country_zh": "Martinique",
    "country_iso_code": "MQ",
    "timezone": "America/Martinique",
    "latitude": 14.46238,
    "longitude": -60.85979
  },
  {
    "city": "Poirer",
    "city_zh": "Poirer",
    "country": "Martinique",
    "country_zh": "Martinique",
    "country_iso_code": "MQ",
    "timezone": "America/Martinique",
    "latitude": 14.77461,
    "longitude": -60.87553
  },
  {
    "city": "Pointe Larose",
    "city_zh": "Pointe Larose",
    "country": "Martinique",
    "country_zh": "Martinique",
    "country_iso_code": "MQ",
    "timezone": "America/Martinique",
    "latitude": 14.63333,
    "longitude": -60.9
  },
  {
    "city": "Pointe Lamare",
    "city_zh": "Pointe Lamare",
    "country": "Martinique",
    "country_zh": "Martinique",
    "country_iso_code": "MQ",
    "timezone": "America/Martinique",
    "latitude": 14.78295,
    "longitude": -61.21413
  },
  {
    "city": "Pointe Jean-Claude",
    "city_zh": "Pointe Jean-Claude",
    "country": "Martinique",
    "country_zh": "Martinique",
    "country_iso_code": "MQ",
    "timezone": "America/Martinique",
    "latitude": 14.71526,
    "longitude": -60.93154
  },
  {
    "city": "Pointe Fort",
    "city_zh": "Pointe Fort",
    "country": "Martinique",
    "country_zh": "Martinique",
    "country_iso_code": "MQ",
    "timezone": "America/Martinique",
    "latitude": 14.66667,
    "longitude": -60.91667
  },
  {
    "city": "Pointe Athanase",
    "city_zh": "Pointe Athanase",
    "country": "Martinique",
    "country_zh": "Martinique",
    "country_iso_code": "MQ",
    "timezone": "America/Martinique",
    "latitude": 14.54424,
    "longitude": -60.83383
  },
  {
    "city": "Plateforme",
    "city_zh": "Plateforme",
    "country": "Martinique",
    "country_zh": "Martinique",
    "country_iso_code": "MQ",
    "timezone": "America/Martinique",
    "latitude": 14.81792,
    "longitude": -61.02408
  },
  {
    "city": "Didier",
    "city_zh": "Didier",
    "country": "Martinique",
    "country_zh": "Martinique",
    "country_iso_code": "MQ",
    "timezone": "America/Martinique",
    "latitude": 14.62481,
    "longitude": -61.08061
  },
  {
    "city": "Plaisable",
    "city_zh": "Plaisable",
    "country": "Martinique",
    "country_zh": "Martinique",
    "country_iso_code": "MQ",
    "timezone": "America/Martinique",
    "latitude": 14.7,
    "longitude": -61.96667
  },
  {
    "city": "Placide",
    "city_zh": "Placide",
    "country": "Martinique",
    "country_zh": "Martinique",
    "country_iso_code": "MQ",
    "timezone": "America/Martinique",
    "latitude": 14.55642,
    "longitude": -60.86558
  },
  {
    "city": "Place d'Armes",
    "city_zh": "Place d'Armes",
    "country": "Martinique",
    "country_zh": "Martinique",
    "country_iso_code": "MQ",
    "timezone": "America/Martinique",
    "latitude": 14.6144,
    "longitude": -60.98611
  },
  {
    "city": "Petit Versailles",
    "city_zh": "Petit Versailles",
    "country": "Martinique",
    "country_zh": "Martinique",
    "country_iso_code": "MQ",
    "timezone": "America/Martinique",
    "latitude": 14.4588,
    "longitude": -60.85842
  },
  {
    "city": "Petit Trou",
    "city_zh": "Petit Trou",
    "country": "Martinique",
    "country_zh": "Martinique",
    "country_iso_code": "MQ",
    "timezone": "America/Martinique",
    "latitude": 14.49526,
    "longitude": -60.85636
  },
  {
    "city": "Petit Sable",
    "city_zh": "Petit Sable",
    "country": "Martinique",
    "country_zh": "Martinique",
    "country_iso_code": "MQ",
    "timezone": "America/Martinique",
    "latitude": 14.42918,
    "longitude": -60.83303
  },
  {
    "city": "Petit Paradis",
    "city_zh": "Petit Paradis",
    "country": "Martinique",
    "country_zh": "Martinique",
    "country_iso_code": "MQ",
    "timezone": "America/Martinique",
    "latitude": 14.55614,
    "longitude": -60.95474
  },
  {
    "city": "Petit Morne",
    "city_zh": "Petit Morne",
    "country": "Martinique",
    "country_zh": "Martinique",
    "country_iso_code": "MQ",
    "timezone": "America/Martinique",
    "latitude": 14.54475,
    "longitude": -60.9636
  },
  {
    "city": "Petit Morne",
    "city_zh": "Petit Morne",
    "country": "Martinique",
    "country_zh": "Martinique",
    "country_iso_code": "MQ",
    "timezone": "America/Martinique",
    "latitude": 14.62395,
    "longitude": -60.97867
  },
  {
    "city": "Petite Savane",
    "city_zh": "Petite Savane",
    "country": "Martinique",
    "country_zh": "Martinique",
    "country_iso_code": "MQ",
    "timezone": "America/Martinique",
    "latitude": 14.79093,
    "longitude": -61.13762
  },
  {
    "city": "Petite Rivière Salée",
    "city_zh": "Petite Rivière Salée",
    "country": "Martinique",
    "country_zh": "Martinique",
    "country_iso_code": "MQ",
    "timezone": "America/Martinique",
    "latitude": 14.75452,
    "longitude": -60.96843
  },
  {
    "city": "Habitation Petite Rivière",
    "city_zh": "Habitation Petite Rivière",
    "country": "Martinique",
    "country_zh": "Martinique",
    "country_iso_code": "MQ",
    "timezone": "America/Martinique",
    "latitude": 14.65442,
    "longitude": -60.96769
  },
  {
    "city": "Petite Lézarde",
    "city_zh": "Petite Lézarde",
    "country": "Martinique",
    "country_zh": "Martinique",
    "country_iso_code": "MQ",
    "timezone": "America/Martinique",
    "latitude": 14.68924,
    "longitude": -60.99546
  },
  {
    "city": "Petite Gamelle",
    "city_zh": "Petite Gamelle",
    "country": "Martinique",
    "country_zh": "Martinique",
    "country_iso_code": "MQ",
    "timezone": "America/Martinique",
    "latitude": 14.59647,
    "longitude": -60.928
  },
  {
    "city": "Petite France",
    "city_zh": "Petite France",
    "country": "Martinique",
    "country_zh": "Martinique",
    "country_iso_code": "MQ",
    "timezone": "America/Martinique",
    "latitude": 14.59261,
    "longitude": -60.87322
  },
  {
    "city": "Petite Anse",
    "city_zh": "Petite Anse",
    "country": "Martinique",
    "country_zh": "Martinique",
    "country_iso_code": "MQ",
    "timezone": "America/Martinique",
    "latitude": 14.46749,
    "longitude": -61.06726
  },
  {
    "city": "Petit Campêche",
    "city_zh": "Petit Campêche",
    "country": "Martinique",
    "country_zh": "Martinique",
    "country_iso_code": "MQ",
    "timezone": "America/Martinique",
    "latitude": 14.52968,
    "longitude": -60.85634
  },
  {
    "city": "Petit Brésil",
    "city_zh": "Petit Brésil",
    "country": "Martinique",
    "country_zh": "Martinique",
    "country_iso_code": "MQ",
    "timezone": "America/Martinique",
    "latitude": 14.73333,
    "longitude": -60.96667
  },
  {
    "city": "Petit Bourg",
    "city_zh": "Petit Bourg",
    "country": "Martinique",
    "country_zh": "Martinique",
    "country_iso_code": "MQ",
    "timezone": "America/Martinique",
    "latitude": 14.54753,
    "longitude": -60.96492
  },
  {
    "city": "Pérou",
    "city_zh": "Pérou",
    "country": "Martinique",
    "country_zh": "Martinique",
    "country_iso_code": "MQ",
    "timezone": "America/Martinique",
    "latitude": 14.50634,
    "longitude": -60.86257
  },
  {
    "city": "Pelletier",
    "city_zh": "Pelletier",
    "country": "Martinique",
    "country_zh": "Martinique",
    "country_iso_code": "MQ",
    "timezone": "America/Martinique",
    "latitude": 14.65617,
    "longitude": -60.97925
  },
  {
    "city": "Parnasse",
    "city_zh": "Parnasse",
    "country": "Martinique",
    "country_zh": "Martinique",
    "country_iso_code": "MQ",
    "timezone": "America/Martinique",
    "latitude": 14.75525,
    "longitude": -61.13588
  },
  {
    "city": "Palmistes",
    "city_zh": "Palmistes",
    "country": "Martinique",
    "country_zh": "Martinique",
    "country_iso_code": "MQ",
    "timezone": "America/Martinique",
    "latitude": 14.48977,
    "longitude": -61.05595
  },
  {
    "city": "Palmiste",
    "city_zh": "Palmiste",
    "country": "Martinique",
    "country_zh": "Martinique",
    "country_iso_code": "MQ",
    "timezone": "America/Martinique",
    "latitude": 14.63922,
    "longitude": -61.02137
  },
  {
    "city": "Palmistes",
    "city_zh": "Palmistes",
    "country": "Martinique",
    "country_zh": "Martinique",
    "country_iso_code": "MQ",
    "timezone": "America/Martinique",
    "latitude": 14.57782,
    "longitude": -60.87074
  },
  {
    "city": "Pain de Sucre",
    "city_zh": "Pain de Sucre",
    "country": "Martinique",
    "country_zh": "Martinique",
    "country_iso_code": "MQ",
    "timezone": "America/Martinique",
    "latitude": 14.79463,
    "longitude": -61.02605
  },
  {
    "city": "Pain de Sucre",
    "city_zh": "Pain de Sucre",
    "country": "Martinique",
    "country_zh": "Martinique",
    "country_iso_code": "MQ",
    "timezone": "America/Martinique",
    "latitude": 14.80437,
    "longitude": -61.00921
  },
  {
    "city": "Nouvelle Cité",
    "city_zh": "Nouvelle Cité",
    "country": "Martinique",
    "country_zh": "Martinique",
    "country_iso_code": "MQ",
    "timezone": "America/Martinique",
    "latitude": 14.76913,
    "longitude": -61.00327
  },
  {
    "city": "Moulin l'Étang",
    "city_zh": "Moulin l'Étang",
    "country": "Martinique",
    "country_zh": "Martinique",
    "country_iso_code": "MQ",
    "timezone": "America/Martinique",
    "latitude": 14.85986,
    "longitude": -61.10224
  },
  {
    "city": "Moulin à Vent",
    "city_zh": "Moulin à Vent",
    "country": "Martinique",
    "country_zh": "Martinique",
    "country_iso_code": "MQ",
    "timezone": "America/Martinique",
    "latitude": 14.68467,
    "longitude": -60.94296
  },
  {
    "city": "Moulin à Eau",
    "city_zh": "Moulin à Eau",
    "country": "Martinique",
    "country_zh": "Martinique",
    "country_iso_code": "MQ",
    "timezone": "America/Martinique",
    "latitude": 14.67245,
    "longitude": -60.96727
  },
  {
    "city": "Morne-Vert",
    "city_zh": "Morne-Vert",
    "country": "Martinique",
    "country_zh": "Martinique",
    "country_iso_code": "MQ",
    "timezone": "America/Martinique",
    "latitude": 14.70518,
    "longitude": -61.15169
  },
  {
    "city": "Morne Vent",
    "city_zh": "Morne Vent",
    "country": "Martinique",
    "country_zh": "Martinique",
    "country_iso_code": "MQ",
    "timezone": "America/Martinique",
    "latitude": 14.5752,
    "longitude": -60.93986
  },
  {
    "city": "Morne Venté",
    "city_zh": "Morne Venté",
    "country": "Martinique",
    "country_zh": "Martinique",
    "country_iso_code": "MQ",
    "timezone": "America/Martinique",
    "latitude": 14.65,
    "longitude": -61.15
  },
  {
    "city": "Morne Vent",
    "city_zh": "Morne Vent",
    "country": "Martinique",
    "country_zh": "Martinique",
    "country_iso_code": "MQ",
    "timezone": "America/Martinique",
    "latitude": 14.49254,
    "longitude": -60.85172
  },
  {
    "city": "Morne Vallon",
    "city_zh": "Morne Vallon",
    "country": "Martinique",
    "country_zh": "Martinique",
    "country_iso_code": "MQ",
    "timezone": "America/Martinique",
    "latitude": 14.82377,
    "longitude": -61.05449
  },
  {
    "city": "Morne Sulpice",
    "city_zh": "Morne Sulpice",
    "country": "Martinique",
    "country_zh": "Martinique",
    "country_iso_code": "MQ",
    "timezone": "America/Martinique",
    "latitude": 14.49933,
    "longitude": -60.86821
  },
  {
    "city": "Morne Serpent",
    "city_zh": "Morne Serpent",
    "country": "Martinique",
    "country_zh": "Martinique",
    "country_iso_code": "MQ",
    "timezone": "America/Martinique",
    "latitude": 14.62397,
    "longitude": -60.94129
  },
  {
    "city": "Morne Rouge",
    "city_zh": "Morne Rouge",
    "country": "Martinique",
    "country_zh": "Martinique",
    "country_iso_code": "MQ",
    "timezone": "America/Martinique",
    "latitude": 14.48103,
    "longitude": -60.88231
  },
  {
    "city": "Morne Pois",
    "city_zh": "Morne Pois",
    "country": "Martinique",
    "country_zh": "Martinique",
    "country_iso_code": "MQ",
    "timezone": "America/Martinique",
    "latitude": 14.43979,
    "longitude": -60.85915
  },
  {
    "city": "Morne Poirier",
    "city_zh": "Morne Poirier",
    "country": "Martinique",
    "country_zh": "Martinique",
    "country_iso_code": "MQ",
    "timezone": "America/Martinique",
    "latitude": 14.74372,
    "longitude": -60.97826
  },
  {
    "city": "Morne Poirier",
    "city_zh": "Morne Poirier",
    "country": "Martinique",
    "country_zh": "Martinique",
    "country_iso_code": "MQ",
    "timezone": "America/Martinique",
    "latitude": 14.66704,
    "longitude": -61.04868
  },
  {
    "city": "Morne Pitault",
    "city_zh": "Morne Pitault",
    "country": "Martinique",
    "country_zh": "Martinique",
    "country_iso_code": "MQ",
    "timezone": "America/Martinique",
    "latitude": 14.61176,
    "longitude": -60.95532
  },
  {
    "city": "Morne-Pichevin",
    "city_zh": "Morne-Pichevin",
    "country": "Martinique",
    "country_zh": "Martinique",
    "country_iso_code": "MQ",
    "timezone": "America/Martinique",
    "latitude": 14.6,
    "longitude": -61.06667
  },
  {
    "city": "Morne Pavillon",
    "city_zh": "Morne Pavillon",
    "country": "Martinique",
    "country_zh": "Martinique",
    "country_iso_code": "MQ",
    "timezone": "America/Martinique",
    "latitude": 14.75376,
    "longitude": -60.90976
  },
  {
    "city": "Morne Pavillon",
    "city_zh": "Morne Pavillon",
    "country": "Martinique",
    "country_zh": "Martinique",
    "country_iso_code": "MQ",
    "timezone": "America/Martinique",
    "latitude": 14.62527,
    "longitude": -60.94932
  },
  {
    "city": "Morne la Valeur",
    "city_zh": "Morne la Valeur",
    "country": "Martinique",
    "country_zh": "Martinique",
    "country_iso_code": "MQ",
    "timezone": "America/Martinique",
    "latitude": 14.56658,
    "longitude": -60.94777
  },
  {
    "city": "Morne Honoré",
    "city_zh": "Morne Honoré",
    "country": "Martinique",
    "country_zh": "Martinique",
    "country_iso_code": "MQ",
    "timezone": "America/Martinique",
    "latitude": 14.52239,
    "longitude": -60.92062
  },
  {
    "city": "Morne Gamelle",
    "city_zh": "Morne Gamelle",
    "country": "Martinique",
    "country_zh": "Martinique",
    "country_iso_code": "MQ",
    "timezone": "America/Martinique",
    "latitude": 14.59566,
    "longitude": -60.92092
  },
  {
    "city": "Morne Galbas",
    "city_zh": "Morne Galbas",
    "country": "Martinique",
    "country_zh": "Martinique",
    "country_iso_code": "MQ",
    "timezone": "America/Martinique",
    "latitude": 14.70065,
    "longitude": -60.96302
  },
  {
    "city": "Morne Flambeau",
    "city_zh": "Morne Flambeau",
    "country": "Martinique",
    "country_zh": "Martinique",
    "country_iso_code": "MQ",
    "timezone": "America/Martinique",
    "latitude": 14.4836,
    "longitude": -60.83399
  },
  {
    "city": "Morne des Esses",
    "city_zh": "Morne des Esses",
    "country": "Martinique",
    "country_zh": "Martinique",
    "country_iso_code": "MQ",
    "timezone": "America/Martinique",
    "latitude": 14.74478,
    "longitude": -61.01669
  },
  {
    "city": "Morne Courbaril",
    "city_zh": "Morne Courbaril",
    "country": "Martinique",
    "country_zh": "Martinique",
    "country_iso_code": "MQ",
    "timezone": "America/Martinique",
    "latitude": 14.63941,
    "longitude": -60.91298
  },
  {
    "city": "Morne Courbaril",
    "city_zh": "Morne Courbaril",
    "country": "Martinique",
    "country_zh": "Martinique",
    "country_iso_code": "MQ",
    "timezone": "America/Martinique",
    "latitude": 14.49792,
    "longitude": -60.86196
  },
  {
    "city": "Morne Congo",
    "city_zh": "Morne Congo",
    "country": "Martinique",
    "country_zh": "Martinique",
    "country_iso_code": "MQ",
    "timezone": "America/Martinique",
    "latitude": 14.74626,
    "longitude": -60.97919
  },
  {
    "city": "Morne Céron",
    "city_zh": "Morne Céron",
    "country": "Martinique",
    "country_zh": "Martinique",
    "country_iso_code": "MQ",
    "timezone": "America/Martinique",
    "latitude": 14.8238,
    "longitude": -61.06286
  },
  {
    "city": "Morne Capot",
    "city_zh": "Morne Capot",
    "country": "Martinique",
    "country_zh": "Martinique",
    "country_iso_code": "MQ",
    "timezone": "America/Martinique",
    "latitude": 14.81948,
    "longitude": -61.09676
  },
  {
    "city": "Morne Bois",
    "city_zh": "Morne Bois",
    "country": "Martinique",
    "country_zh": "Martinique",
    "country_iso_code": "MQ",
    "timezone": "America/Martinique",
    "latitude": 14.81232,
    "longitude": -61.05602
  },
  {
    "city": "Morne Blanc",
    "city_zh": "Morne Blanc",
    "country": "Martinique",
    "country_zh": "Martinique",
    "country_iso_code": "MQ",
    "timezone": "America/Martinique",
    "latitude": 14.4944,
    "longitude": -61.04503
  },
  {
    "city": "Morne Bel",
    "city_zh": "Morne Bel",
    "country": "Martinique",
    "country_zh": "Martinique",
    "country_iso_code": "MQ",
    "timezone": "America/Martinique",
    "latitude": 14.73333,
    "longitude": -60.96667
  },
  {
    "city": "Baldara",
    "city_zh": "Baldara",
    "country": "Martinique",
    "country_zh": "Martinique",
    "country_iso_code": "MQ",
    "timezone": "America/Martinique",
    "latitude": 14.56967,
    "longitude": -60.90465
  },
  {
    "city": "Morne Balai",
    "city_zh": "Morne Balai",
    "country": "Martinique",
    "country_zh": "Martinique",
    "country_iso_code": "MQ",
    "timezone": "America/Martinique",
    "latitude": 14.83179,
    "longitude": -61.12841
  },
  {
    "city": "Morne Baguidi",
    "city_zh": "Morne Baguidi",
    "country": "Martinique",
    "country_zh": "Martinique",
    "country_iso_code": "MQ",
    "timezone": "America/Martinique",
    "latitude": 14.51042,
    "longitude": -61.09706
  },
  {
    "city": "Montravail",
    "city_zh": "Montravail",
    "country": "Martinique",
    "country_zh": "Martinique",
    "country_iso_code": "MQ",
    "timezone": "America/Martinique",
    "latitude": 14.49444,
    "longitude": -60.93389
  },
  {
    "city": "Montjoly",
    "city_zh": "Montjoly",
    "country": "Martinique",
    "country_zh": "Martinique",
    "country_iso_code": "MQ",
    "timezone": "America/Martinique",
    "latitude": 14.70081,
    "longitude": -61.1301
  },
  {
    "city": "Montgérald",
    "city_zh": "Montgérald",
    "country": "Martinique",
    "country_zh": "Martinique",
    "country_iso_code": "MQ",
    "timezone": "America/Martinique",
    "latitude": 14.476,
    "longitude": -60.87328
  },
  {
    "city": "Monnerot",
    "city_zh": "Monnerot",
    "country": "Martinique",
    "country_zh": "Martinique",
    "country_iso_code": "MQ",
    "timezone": "America/Martinique",
    "latitude": 14.61416,
    "longitude": -60.88364
  },
  {
    "city": "Monésie",
    "city_zh": "Monésie",
    "country": "Martinique",
    "country_zh": "Martinique",
    "country_iso_code": "MQ",
    "timezone": "America/Martinique",
    "latitude": 14.49907,
    "longitude": -60.94393
  },
  {
    "city": "Mondésir-Pointe Sable",
    "city_zh": "Mondésir-Pointe Sable",
    "country": "Martinique",
    "country_zh": "Martinique",
    "country_iso_code": "MQ",
    "timezone": "America/Martinique",
    "latitude": 14.44751,
    "longitude": -60.85309
  },
  {
    "city": "Mondésir",
    "city_zh": "Mondésir",
    "country": "Martinique",
    "country_zh": "Martinique",
    "country_iso_code": "MQ",
    "timezone": "America/Martinique",
    "latitude": 14.4695,
    "longitude": -60.86267
  },
  {
    "city": "Mondésir",
    "city_zh": "Mondésir",
    "country": "Martinique",
    "country_zh": "Martinique",
    "country_iso_code": "MQ",
    "timezone": "America/Martinique",
    "latitude": 14.44619,
    "longitude": -60.86208
  },
  {
    "city": "Merveilleuse",
    "city_zh": "Merveilleuse",
    "country": "Martinique",
    "country_zh": "Martinique",
    "country_iso_code": "MQ",
    "timezone": "America/Martinique",
    "latitude": 14.75383,
    "longitude": -60.97902
  },
  {
    "city": "Médecin",
    "city_zh": "Médecin",
    "country": "Martinique",
    "country_zh": "Martinique",
    "country_iso_code": "MQ",
    "timezone": "America/Martinique",
    "latitude": 14.50784,
    "longitude": -60.98583
  },
  {
    "city": "Mayol",
    "city_zh": "Mayol",
    "country": "Martinique",
    "country_zh": "Martinique",
    "country_iso_code": "MQ",
    "timezone": "America/Martinique",
    "latitude": 14.49657,
    "longitude": -60.89924
  },
  {
    "city": "Maximin",
    "city_zh": "Maximin",
    "country": "Martinique",
    "country_zh": "Martinique",
    "country_iso_code": "MQ",
    "timezone": "America/Martinique",
    "latitude": 14.71667,
    "longitude": -61.0
  },
  {
    "city": "Maxime",
    "city_zh": "Maxime",
    "country": "Martinique",
    "country_zh": "Martinique",
    "country_iso_code": "MQ",
    "timezone": "America/Martinique",
    "latitude": 14.83093,
    "longitude": -61.07888
  },
  {
    "city": "Maupéou",
    "city_zh": "Maupéou",
    "country": "Martinique",
    "country_zh": "Martinique",
    "country_iso_code": "MQ",
    "timezone": "America/Martinique",
    "latitude": 14.52387,
    "longitude": -60.98625
  },
  {
    "city": "Mathilde",
    "city_zh": "Mathilde",
    "country": "Martinique",
    "country_zh": "Martinique",
    "country_iso_code": "MQ",
    "timezone": "America/Martinique",
    "latitude": 14.55197,
    "longitude": -60.91902
  },
  {
    "city": "Marlet",
    "city_zh": "Marlet",
    "country": "Martinique",
    "country_zh": "Martinique",
    "country_iso_code": "MQ",
    "timezone": "America/Martinique",
    "latitude": 14.66314,
    "longitude": -60.91522
  },
  {
    "city": "Le Marigot",
    "city_zh": "Le Marigot",
    "country": "Martinique",
    "country_zh": "Martinique",
    "country_iso_code": "MQ",
    "timezone": "America/Martinique",
    "latitude": 14.82189,
    "longitude": -61.03071
  },
  {
    "city": "Marie Noire",
    "city_zh": "Marie Noire",
    "country": "Martinique",
    "country_zh": "Martinique",
    "country_iso_code": "MQ",
    "timezone": "America/Martinique",
    "latitude": 14.46935,
    "longitude": -60.90161
  },
  {
    "city": "Mare Poirier",
    "city_zh": "Mare Poirier",
    "country": "Martinique",
    "country_zh": "Martinique",
    "country_iso_code": "MQ",
    "timezone": "America/Martinique",
    "latitude": 14.48861,
    "longitude": -61.00849
  },
  {
    "city": "Mare Capron",
    "city_zh": "Mare Capron",
    "country": "Martinique",
    "country_zh": "Martinique",
    "country_iso_code": "MQ",
    "timezone": "America/Martinique",
    "latitude": 14.48954,
    "longitude": -60.87983
  },
  {
    "city": "Mansarde Rancée",
    "city_zh": "Mansarde Rancée",
    "country": "Martinique",
    "country_zh": "Martinique",
    "country_iso_code": "MQ",
    "timezone": "America/Martinique",
    "latitude": 14.65015,
    "longitude": -60.90263
  },
  {
    "city": "Mansarde Catalogne",
    "city_zh": "Mansarde Catalogne",
    "country": "Martinique",
    "country_zh": "Martinique",
    "country_iso_code": "MQ",
    "timezone": "America/Martinique",
    "latitude": 14.67733,
    "longitude": -60.94701
  },
  {
    "city": "Malgré Tout",
    "city_zh": "Malgré Tout",
    "country": "Martinique",
    "country_zh": "Martinique",
    "country_iso_code": "MQ",
    "timezone": "America/Martinique",
    "latitude": 14.42467,
    "longitude": -60.86106
  },
  {
    "city": "Malevaut",
    "city_zh": "Malevaut",
    "country": "Martinique",
    "country_zh": "Martinique",
    "country_iso_code": "MQ",
    "timezone": "America/Martinique",
    "latitude": 14.50646,
    "longitude": -60.83352
  },
  {
    "city": "Maison Rouge",
    "city_zh": "Maison Rouge",
    "country": "Martinique",
    "country_zh": "Martinique",
    "country_iso_code": "MQ",
    "timezone": "America/Martinique",
    "latitude": 14.46589,
    "longitude": -60.85547
  },
  {
    "city": "Mahault",
    "city_zh": "Mahault",
    "country": "Martinique",
    "country_zh": "Martinique",
    "country_iso_code": "MQ",
    "timezone": "America/Martinique",
    "latitude": 14.62136,
    "longitude": -61.00945
  },
  {
    "city": "Macré",
    "city_zh": "Macré",
    "country": "Martinique",
    "country_zh": "Martinique",
    "country_iso_code": "MQ",
    "timezone": "America/Martinique",
    "latitude": 14.47714,
    "longitude": -60.83278
  },
  {
    "city": "Macouba",
    "city_zh": "Macouba",
    "country": "Martinique",
    "country_zh": "Martinique",
    "country_iso_code": "MQ",
    "timezone": "America/Martinique",
    "latitude": 14.8764,
    "longitude": -61.14196
  },
  {
    "city": "Macédoine",
    "city_zh": "Macédoine",
    "country": "Martinique",
    "country_zh": "Martinique",
    "country_iso_code": "MQ",
    "timezone": "America/Martinique",
    "latitude": 14.81051,
    "longitude": -61.07218
  },
  {
    "city": "Pointe Lynch",
    "city_zh": "Pointe Lynch",
    "country": "Martinique",
    "country_zh": "Martinique",
    "country_iso_code": "MQ",
    "timezone": "America/Martinique",
    "latitude": 14.68301,
    "longitude": -60.92986
  },
  {
    "city": "Lunette Bouillé",
    "city_zh": "Lunette Bouillé",
    "country": "Martinique",
    "country_zh": "Martinique",
    "country_iso_code": "MQ",
    "timezone": "America/Martinique",
    "latitude": 14.62387,
    "longitude": -61.05792
  },
  {
    "city": "Luciole",
    "city_zh": "Luciole",
    "country": "Martinique",
    "country_zh": "Martinique",
    "country_iso_code": "MQ",
    "timezone": "America/Martinique",
    "latitude": 14.76099,
    "longitude": -60.97015
  },
  {
    "city": "Lourdes",
    "city_zh": "Lourdes",
    "country": "Martinique",
    "country_zh": "Martinique",
    "country_iso_code": "MQ",
    "timezone": "America/Martinique",
    "latitude": 14.57334,
    "longitude": -60.96287
  },
  {
    "city": "Lourdes",
    "city_zh": "Lourdes",
    "country": "Martinique",
    "country_zh": "Martinique",
    "country_iso_code": "MQ",
    "timezone": "America/Martinique",
    "latitude": 14.4948,
    "longitude": -60.8911
  },
  {
    "city": "Long Pré",
    "city_zh": "Long Pré",
    "country": "Martinique",
    "country_zh": "Martinique",
    "country_iso_code": "MQ",
    "timezone": "America/Martinique",
    "latitude": 14.63162,
    "longitude": -61.00627
  },
  {
    "city": "Long Bois",
    "city_zh": "Long Bois",
    "country": "Martinique",
    "country_zh": "Martinique",
    "country_iso_code": "MQ",
    "timezone": "America/Martinique",
    "latitude": 14.66816,
    "longitude": -61.02686
  },
  {
    "city": "Long Bois",
    "city_zh": "Long Bois",
    "country": "Martinique",
    "country_zh": "Martinique",
    "country_iso_code": "MQ",
    "timezone": "America/Martinique",
    "latitude": 14.64045,
    "longitude": -60.99451
  },
  {
    "city": "Limbé",
    "city_zh": "Limbé",
    "country": "Martinique",
    "country_zh": "Martinique",
    "country_iso_code": "MQ",
    "timezone": "America/Martinique",
    "latitude": 14.77615,
    "longitude": -61.01136
  },
  {
    "city": "L'Heureux",
    "city_zh": "L'Heureux",
    "country": "Martinique",
    "country_zh": "Martinique",
    "country_iso_code": "MQ",
    "timezone": "America/Martinique",
    "latitude": 14.68428,
    "longitude": -60.97216
  },
  {
    "city": "Le Vauclin",
    "city_zh": "Le Vauclin",
    "country": "Martinique",
    "country_zh": "Martinique",
    "country_iso_code": "MQ",
    "timezone": "America/Martinique",
    "latitude": 14.5454,
    "longitude": -60.83831
  },
  {
    "city": "Le Trou",
    "city_zh": "Le Trou",
    "country": "Martinique",
    "country_zh": "Martinique",
    "country_iso_code": "MQ",
    "timezone": "America/Martinique",
    "latitude": 14.71592,
    "longitude": -61.18308
  },
  {
    "city": "Les Trois Ponts",
    "city_zh": "Les Trois Ponts",
    "country": "Martinique",
    "country_zh": "Martinique",
    "country_iso_code": "MQ",
    "timezone": "America/Martinique",
    "latitude": 14.75648,
    "longitude": -61.16263
  },
  {
    "city": "Les Trois-Îlets",
    "city_zh": "Les Trois-Îlets",
    "country": "Martinique",
    "country_zh": "Martinique",
    "country_iso_code": "MQ",
    "timezone": "America/Martinique",
    "latitude": 14.53912,
    "longitude": -61.03354
  },
  {
    "city": "Lestrade",
    "city_zh": "Lestrade",
    "country": "Martinique",
    "country_zh": "Martinique",
    "country_iso_code": "MQ",
    "timezone": "America/Martinique",
    "latitude": 14.69996,
    "longitude": -60.94326
  },
  {
    "city": "Les Quatre Chemins",
    "city_zh": "Les Quatre Chemins",
    "country": "Martinique",
    "country_zh": "Martinique",
    "country_iso_code": "MQ",
    "timezone": "America/Martinique",
    "latitude": 14.47047,
    "longitude": -60.85644
  },
  {
    "city": "L'Espérance",
    "city_zh": "L'Espérance",
    "country": "Martinique",
    "country_zh": "Martinique",
    "country_iso_code": "MQ",
    "timezone": "America/Martinique",
    "latitude": 14.53721,
    "longitude": -61.05287
  },
  {
    "city": "Les Flamboyants",
    "city_zh": "Les Flamboyants",
    "country": "Martinique",
    "country_zh": "Martinique",
    "country_iso_code": "MQ",
    "timezone": "America/Martinique",
    "latitude": 14.43279,
    "longitude": -60.88225
  },
  {
    "city": "Les Deux Terres",
    "city_zh": "Les Deux Terres",
    "country": "Martinique",
    "country_zh": "Martinique",
    "country_iso_code": "MQ",
    "timezone": "America/Martinique",
    "latitude": 14.70163,
    "longitude": -61.01386
  },
  {
    "city": "Deux Courants",
    "city_zh": "Deux Courants",
    "country": "Martinique",
    "country_zh": "Martinique",
    "country_iso_code": "MQ",
    "timezone": "America/Martinique",
    "latitude": 14.60637,
    "longitude": -60.91075
  },
  {
    "city": "Lescouët",
    "city_zh": "Lescouët",
    "country": "Martinique",
    "country_zh": "Martinique",
    "country_iso_code": "MQ",
    "timezone": "America/Martinique",
    "latitude": 14.4983,
    "longitude": -60.88761
  },
  {
    "city": "Les Coteaux",
    "city_zh": "Les Coteaux",
    "country": "Martinique",
    "country_zh": "Martinique",
    "country_iso_code": "MQ",
    "timezone": "America/Martinique",
    "latitude": 14.49698,
    "longitude": -60.97919
  },
  {
    "city": "Les Boucaniers",
    "city_zh": "Les Boucaniers",
    "country": "Martinique",
    "country_zh": "Martinique",
    "country_iso_code": "MQ",
    "timezone": "America/Martinique",
    "latitude": 14.44808,
    "longitude": -60.88344
  },
  {
    "city": "Les Anses-d'Arlet",
    "city_zh": "Les Anses-d'Arlet",
    "country": "Martinique",
    "country_zh": "Martinique",
    "country_iso_code": "MQ",
    "timezone": "America/Martinique",
    "latitude": 14.49031,
    "longitude": -61.07937
  },
  {
    "city": "Les Anglais des Grottes",
    "city_zh": "Les Anglais des Grottes",
    "country": "Martinique",
    "country_zh": "Martinique",
    "country_iso_code": "MQ",
    "timezone": "America/Martinique",
    "latitude": 14.43637,
    "longitude": -60.85316
  },
  {
    "city": "Saint-Esprit",
    "city_zh": "Saint-Esprit",
    "country": "Martinique",
    "country_zh": "Martinique",
    "country_iso_code": "MQ",
    "timezone": "America/Martinique",
    "latitude": 14.55,
    "longitude": -60.93333
  },
  {
    "city": "Les Abymes",
    "city_zh": "Les Abymes",
    "country": "Martinique",
    "country_zh": "Martinique",
    "country_iso_code": "MQ",
    "timezone": "America/Martinique",
    "latitude": 14.80418,
    "longitude": -61.22634
  },
  {
    "city": "Le Robert",
    "city_zh": "Le Robert",
    "country": "Martinique",
    "country_zh": "Martinique",
    "country_iso_code": "MQ",
    "timezone": "America/Martinique",
    "latitude": 14.67751,
    "longitude": -60.94228
  },
  {
    "city": "Léro",
    "city_zh": "Léro",
    "country": "Martinique",
    "country_zh": "Martinique",
    "country_iso_code": "MQ",
    "timezone": "America/Martinique",
    "latitude": 14.74289,
    "longitude": -60.99589
  },
  {
    "city": "L'Ermitage",
    "city_zh": "L'Ermitage",
    "country": "Martinique",
    "country_zh": "Martinique",
    "country_iso_code": "MQ",
    "timezone": "America/Martinique",
    "latitude": 14.61437,
    "longitude": -61.07444
  },
  {
    "city": "L'Ermitage",
    "city_zh": "L'Ermitage",
    "country": "Martinique",
    "country_zh": "Martinique",
    "country_iso_code": "MQ",
    "timezone": "America/Martinique",
    "latitude": 14.66632,
    "longitude": -61.05938
  },
  {
    "city": "Le Prêcheur",
    "city_zh": "Le Prêcheur",
    "country": "Martinique",
    "country_zh": "Martinique",
    "country_iso_code": "MQ",
    "timezone": "America/Martinique",
    "latitude": 14.80114,
    "longitude": -61.22453
  },
  {
    "city": "Le Poteau",
    "city_zh": "Le Poteau",
    "country": "Martinique",
    "country_zh": "Martinique",
    "country_iso_code": "MQ",
    "timezone": "America/Martinique",
    "latitude": 14.85,
    "longitude": -61.1
  },
  {
    "city": "Lépinay",
    "city_zh": "Lépinay",
    "country": "Martinique",
    "country_zh": "Martinique",
    "country_iso_code": "MQ",
    "timezone": "America/Martinique",
    "latitude": 14.50555,
    "longitude": -60.92499
  },
  {
    "city": "L’Enclos",
    "city_zh": "L’Enclos",
    "country": "Martinique",
    "country_zh": "Martinique",
    "country_iso_code": "MQ",
    "timezone": "America/Martinique",
    "latitude": 14.62374,
    "longitude": -61.10488
  },
  {
    "city": "Le Mouillage",
    "city_zh": "Le Mouillage",
    "country": "Martinique",
    "country_zh": "Martinique",
    "country_iso_code": "MQ",
    "timezone": "America/Martinique",
    "latitude": 14.73873,
    "longitude": -61.17536
  },
  {
    "city": "Le Morne-Vert",
    "city_zh": "Le Morne-Vert",
    "country": "Martinique",
    "country_zh": "Martinique",
    "country_iso_code": "MQ",
    "timezone": "America/Martinique",
    "latitude": 14.70698,
    "longitude": -61.14617
  },
  {
    "city": "Le Morne-Rouge",
    "city_zh": "Le Morne-Rouge",
    "country": "Martinique",
    "country_zh": "Martinique",
    "country_iso_code": "MQ",
    "timezone": "America/Martinique",
    "latitude": 14.7761,
    "longitude": -61.13564
  },
  {
    "city": "Morne des Olives",
    "city_zh": "Morne des Olives",
    "country": "Martinique",
    "country_zh": "Martinique",
    "country_iso_code": "MQ",
    "timezone": "America/Martinique",
    "latitude": 14.69041,
    "longitude": -61.04274
  },
  {
    "city": "Le Morne aux Bœufs",
    "city_zh": "Le Morne aux Bœufs",
    "country": "Martinique",
    "country_zh": "Martinique",
    "country_iso_code": "MQ",
    "timezone": "America/Martinique",
    "latitude": 14.69453,
    "longitude": -61.17271
  },
  {
    "city": "Le Marin",
    "city_zh": "Le Marin",
    "country": "Martinique",
    "country_zh": "Martinique",
    "country_iso_code": "MQ",
    "timezone": "America/Martinique",
    "latitude": 14.47158,
    "longitude": -60.86989
  },
  {
    "city": "Le Lorrain",
    "city_zh": "Le Lorrain",
    "country": "Martinique",
    "country_zh": "Martinique",
    "country_iso_code": "MQ",
    "timezone": "America/Martinique",
    "latitude": 14.83257,
    "longitude": -61.05553
  },
  {
    "city": "Le Lamentin",
    "city_zh": "Le Lamentin",
    "country": "Martinique",
    "country_zh": "Martinique",
    "country_iso_code": "MQ",
    "timezone": "America/Martinique",
    "latitude": 14.61341,
    "longitude": -60.99964
  },
  {
    "city": "Le François",
    "city_zh": "Le François",
    "country": "Martinique",
    "country_zh": "Martinique",
    "country_iso_code": "MQ",
    "timezone": "America/Martinique",
    "latitude": 14.61513,
    "longitude": -60.90311
  },
  {
    "city": "Le Diamant",
    "city_zh": "Le Diamant",
    "country": "Martinique",
    "country_zh": "Martinique",
    "country_iso_code": "MQ",
    "timezone": "America/Martinique",
    "latitude": 14.4801,
    "longitude": -61.02542
  },
  {
    "city": "Le Coin",
    "city_zh": "Le Coin",
    "country": "Martinique",
    "country_zh": "Martinique",
    "country_iso_code": "MQ",
    "timezone": "America/Martinique",
    "latitude": 14.69808,
    "longitude": -61.1805
  },
  {
    "city": "Le Centre",
    "city_zh": "Le Centre",
    "country": "Martinique",
    "country_zh": "Martinique",
    "country_iso_code": "MQ",
    "timezone": "America/Martinique",
    "latitude": 14.74937,
    "longitude": -61.1782
  },
  {
    "city": "Le Carbet",
    "city_zh": "Le Carbet",
    "country": "Martinique",
    "country_zh": "Martinique",
    "country_iso_code": "MQ",
    "timezone": "America/Martinique",
    "latitude": 14.71129,
    "longitude": -61.18197
  },
  {
    "city": "Le Cap",
    "city_zh": "Le Cap",
    "country": "Martinique",
    "country_zh": "Martinique",
    "country_iso_code": "MQ",
    "timezone": "America/Martinique",
    "latitude": 14.4799,
    "longitude": -60.83768
  },
  {
    "city": "Lazaret",
    "city_zh": "Lazaret",
    "country": "Martinique",
    "country_zh": "Martinique",
    "country_iso_code": "MQ",
    "timezone": "America/Martinique",
    "latitude": 14.55,
    "longitude": -61.05
  },
  {
    "city": "Lavison",
    "city_zh": "Lavison",
    "country": "Martinique",
    "country_zh": "Martinique",
    "country_iso_code": "MQ",
    "timezone": "America/Martinique",
    "latitude": 14.4917,
    "longitude": -60.95153
  },
  {
    "city": "La Vierge",
    "city_zh": "La Vierge",
    "country": "Martinique",
    "country_zh": "Martinique",
    "country_iso_code": "MQ",
    "timezone": "America/Martinique",
    "latitude": 14.71347,
    "longitude": -61.01485
  },
  {
    "city": "La Vierge",
    "city_zh": "La Vierge",
    "country": "Martinique",
    "country_zh": "Martinique",
    "country_iso_code": "MQ",
    "timezone": "America/Martinique",
    "latitude": 14.4851,
    "longitude": -60.86031
  },
  {
    "city": "Vatable",
    "city_zh": "Vatable",
    "country": "Martinique",
    "country_zh": "Martinique",
    "country_iso_code": "MQ",
    "timezone": "America/Martinique",
    "latitude": 14.53164,
    "longitude": -61.0267
  },
  {
    "city": "La Laugier",
    "city_zh": "La Laugier",
    "country": "Martinique",
    "country_zh": "Martinique",
    "country_iso_code": "MQ",
    "timezone": "America/Martinique",
    "latitude": 14.52077,
    "longitude": -60.97769
  },
  {
    "city": "La Trinité",
    "city_zh": "La Trinité",
    "country": "Martinique",
    "country_zh": "Martinique",
    "country_iso_code": "MQ",
    "timezone": "America/Martinique",
    "latitude": 14.73807,
    "longitude": -60.96319
  },
  {
    "city": "La Tranchée",
    "city_zh": "La Tranchée",
    "country": "Martinique",
    "country_zh": "Martinique",
    "country_iso_code": "MQ",
    "timezone": "America/Martinique",
    "latitude": 14.73887,
    "longitude": -61.13685
  },
  {
    "city": "La Tracée",
    "city_zh": "La Tracée",
    "country": "Martinique",
    "country_zh": "Martinique",
    "country_iso_code": "MQ",
    "timezone": "America/Martinique",
    "latitude": 14.71148,
    "longitude": -60.98182
  },
  {
    "city": "La Tocnay",
    "city_zh": "La Tocnay",
    "country": "Martinique",
    "country_zh": "Martinique",
    "country_iso_code": "MQ",
    "timezone": "America/Martinique",
    "latitude": 14.49937,
    "longitude": -60.87305
  },
  {
    "city": "La Suin",
    "city_zh": "La Suin",
    "country": "Martinique",
    "country_zh": "Martinique",
    "country_iso_code": "MQ",
    "timezone": "America/Martinique",
    "latitude": 14.55116,
    "longitude": -60.90719
  },
  {
    "city": "La Suffrin",
    "city_zh": "La Suffrin",
    "country": "Martinique",
    "country_zh": "Martinique",
    "country_iso_code": "MQ",
    "timezone": "America/Martinique",
    "latitude": 14.48135,
    "longitude": -60.88486
  },
  {
    "city": "La Source",
    "city_zh": "La Source",
    "country": "Martinique",
    "country_zh": "Martinique",
    "country_iso_code": "MQ",
    "timezone": "America/Martinique",
    "latitude": 14.47423,
    "longitude": -60.86045
  },
  {
    "city": "La Salette",
    "city_zh": "La Salette",
    "country": "Martinique",
    "country_zh": "Martinique",
    "country_iso_code": "MQ",
    "timezone": "America/Martinique",
    "latitude": 14.58534,
    "longitude": -60.9785
  },
  {
    "city": "La Richard",
    "city_zh": "La Richard",
    "country": "Martinique",
    "country_zh": "Martinique",
    "country_iso_code": "MQ",
    "timezone": "America/Martinique",
    "latitude": 14.5865,
    "longitude": -60.95183
  },
  {
    "city": "Renée",
    "city_zh": "Renée",
    "country": "Martinique",
    "country_zh": "Martinique",
    "country_iso_code": "MQ",
    "timezone": "America/Martinique",
    "latitude": 14.52791,
    "longitude": -60.90322
  },
  {
    "city": "Lareinty",
    "city_zh": "Lareinty",
    "country": "Martinique",
    "country_zh": "Martinique",
    "country_iso_code": "MQ",
    "timezone": "America/Martinique",
    "latitude": 14.5984,
    "longitude": -60.99536
  },
  {
    "city": "La Régale",
    "city_zh": "La Régale",
    "country": "Martinique",
    "country_zh": "Martinique",
    "country_iso_code": "MQ",
    "timezone": "America/Martinique",
    "latitude": 14.64395,
    "longitude": -61.05868
  },
  {
    "city": "La Poulette",
    "city_zh": "La Poulette",
    "country": "Martinique",
    "country_zh": "Martinique",
    "country_iso_code": "MQ",
    "timezone": "America/Martinique",
    "latitude": 14.69417,
    "longitude": -60.98907
  },
  {
    "city": "La Plaine",
    "city_zh": "La Plaine",
    "country": "Martinique",
    "country_zh": "Martinique",
    "country_iso_code": "MQ",
    "timezone": "America/Martinique",
    "latitude": 14.50682,
    "longitude": -61.06633
  },
  {
    "city": "La Pagerie",
    "city_zh": "La Pagerie",
    "country": "Martinique",
    "country_zh": "Martinique",
    "country_iso_code": "MQ",
    "timezone": "America/Martinique",
    "latitude": 14.53137,
    "longitude": -61.05205
  },
  {
    "city": "L'Anse Dufour",
    "city_zh": "L'Anse Dufour",
    "country": "Martinique",
    "country_zh": "Martinique",
    "country_iso_code": "MQ",
    "timezone": "America/Martinique",
    "latitude": 14.52563,
    "longitude": -61.08915
  },
  {
    "city": "L'Anse Mitan",
    "city_zh": "L'Anse Mitan",
    "country": "Martinique",
    "country_zh": "Martinique",
    "country_iso_code": "MQ",
    "timezone": "America/Martinique",
    "latitude": 14.55009,
    "longitude": -61.05337
  },
  {
    "city": "Anse Cafard",
    "city_zh": "Anse Cafard",
    "country": "Martinique",
    "country_zh": "Martinique",
    "country_iso_code": "MQ",
    "timezone": "America/Martinique",
    "latitude": 14.46859,
    "longitude": -61.0471
  },
  {
    "city": "Monnerot",
    "city_zh": "Monnerot",
    "country": "Martinique",
    "country_zh": "Martinique",
    "country_iso_code": "MQ",
    "timezone": "America/Martinique",
    "latitude": 14.63709,
    "longitude": -60.92858
  },
  {
    "city": "La Moïse",
    "city_zh": "La Moïse",
    "country": "Martinique",
    "country_zh": "Martinique",
    "country_iso_code": "MQ",
    "timezone": "America/Martinique",
    "latitude": 14.74063,
    "longitude": -60.95027
  },
  {
    "city": "La Médaille",
    "city_zh": "La Médaille",
    "country": "Martinique",
    "country_zh": "Martinique",
    "country_iso_code": "MQ",
    "timezone": "America/Martinique",
    "latitude": 14.70162,
    "longitude": -61.08859
  },
  {
    "city": "Lamberton",
    "city_zh": "Lamberton",
    "country": "Martinique",
    "country_zh": "Martinique",
    "country_iso_code": "MQ",
    "timezone": "America/Martinique",
    "latitude": 14.53819,
    "longitude": -60.95126
  },
  {
    "city": "La Mauny",
    "city_zh": "La Mauny",
    "country": "Martinique",
    "country_zh": "Martinique",
    "country_iso_code": "MQ",
    "timezone": "America/Martinique",
    "latitude": 14.50682,
    "longitude": -60.9078
  },
  {
    "city": "La Massel",
    "city_zh": "La Massel",
    "country": "Martinique",
    "country_zh": "Martinique",
    "country_iso_code": "MQ",
    "timezone": "America/Martinique",
    "latitude": 14.49845,
    "longitude": -60.85322
  },
  {
    "city": "La Manzo",
    "city_zh": "La Manzo",
    "country": "Martinique",
    "country_zh": "Martinique",
    "country_iso_code": "MQ",
    "timezone": "America/Martinique",
    "latitude": 14.58784,
    "longitude": -60.93349
  },
  {
    "city": "Lajus",
    "city_zh": "Lajus",
    "country": "Martinique",
    "country_zh": "Martinique",
    "country_iso_code": "MQ",
    "timezone": "America/Martinique",
    "latitude": 14.7058,
    "longitude": -61.18222
  },
  {
    "city": "L'Ajoupa-Bouillon",
    "city_zh": "L'Ajoupa-Bouillon",
    "country": "Martinique",
    "country_zh": "Martinique",
    "country_iso_code": "MQ",
    "timezone": "America/Martinique",
    "latitude": 14.82094,
    "longitude": -61.11749
  },
  {
    "city": "La Huvet",
    "city_zh": "La Huvet",
    "country": "Martinique",
    "country_zh": "Martinique",
    "country_iso_code": "MQ",
    "timezone": "America/Martinique",
    "latitude": 14.49145,
    "longitude": -60.85682
  },
  {
    "city": "La Haut",
    "city_zh": "La Haut",
    "country": "Martinique",
    "country_zh": "Martinique",
    "country_iso_code": "MQ",
    "timezone": "America/Martinique",
    "latitude": 14.63333,
    "longitude": -60.94569
  },
  {
    "city": "Là-Haut",
    "city_zh": "Là-Haut",
    "country": "Martinique",
    "country_zh": "Martinique",
    "country_iso_code": "MQ",
    "timezone": "America/Martinique",
    "latitude": 14.52105,
    "longitude": -60.95773
  },
  {
    "city": "Là-Haut",
    "city_zh": "Là-Haut",
    "country": "Martinique",
    "country_zh": "Martinique",
    "country_iso_code": "MQ",
    "timezone": "America/Martinique",
    "latitude": 14.66599,
    "longitude": -60.9627
  },
  {
    "city": "La Garenne",
    "city_zh": "La Garenne",
    "country": "Martinique",
    "country_zh": "Martinique",
    "country_iso_code": "MQ",
    "timezone": "America/Martinique",
    "latitude": 14.81496,
    "longitude": -61.02708
  },
  {
    "city": "La Francisque",
    "city_zh": "La Francisque",
    "country": "Martinique",
    "country_zh": "Martinique",
    "country_iso_code": "MQ",
    "timezone": "America/Martinique",
    "latitude": 14.59253,
    "longitude": -60.91445
  },
  {
    "city": "La Fouquette",
    "city_zh": "La Fouquette",
    "country": "Martinique",
    "country_zh": "Martinique",
    "country_iso_code": "MQ",
    "timezone": "America/Martinique",
    "latitude": 14.47826,
    "longitude": -60.86303
  },
  {
    "city": "La Fontenay",
    "city_zh": "La Fontenay",
    "country": "Martinique",
    "country_zh": "Martinique",
    "country_iso_code": "MQ",
    "timezone": "America/Martinique",
    "latitude": 14.54117,
    "longitude": -60.92614
  },
  {
    "city": "La Ferme Saint-Jacques",
    "city_zh": "La Ferme Saint-Jacques",
    "country": "Martinique",
    "country_zh": "Martinique",
    "country_iso_code": "MQ",
    "timezone": "America/Martinique",
    "latitude": 14.78445,
    "longitude": -61.03615
  },
  {
    "city": "La Favorite",
    "city_zh": "La Favorite",
    "country": "Martinique",
    "country_zh": "Martinique",
    "country_iso_code": "MQ",
    "timezone": "America/Martinique",
    "latitude": 14.63571,
    "longitude": -61.03214
  },
  {
    "city": "La Farelle",
    "city_zh": "La Farelle",
    "country": "Martinique",
    "country_zh": "Martinique",
    "country_iso_code": "MQ",
    "timezone": "America/Martinique",
    "latitude": 14.5866,
    "longitude": -60.92989
  },
  {
    "city": "La Durand",
    "city_zh": "La Durand",
    "country": "Martinique",
    "country_zh": "Martinique",
    "country_iso_code": "MQ",
    "timezone": "America/Martinique",
    "latitude": 14.6829,
    "longitude": -61.05287
  },
  {
    "city": "La Duprey",
    "city_zh": "La Duprey",
    "country": "Martinique",
    "country_zh": "Martinique",
    "country_iso_code": "MQ",
    "timezone": "America/Martinique",
    "latitude": 14.46394,
    "longitude": -60.88714
  },
  {
    "city": "La Digue",
    "city_zh": "La Digue",
    "country": "Martinique",
    "country_zh": "Martinique",
    "country_iso_code": "MQ",
    "timezone": "America/Martinique",
    "latitude": 14.70178,
    "longitude": -60.9555
  },
  {
    "city": "La Dessaint",
    "city_zh": "La Dessaint",
    "country": "Martinique",
    "country_zh": "Martinique",
    "country_iso_code": "MQ",
    "timezone": "America/Martinique",
    "latitude": 14.71802,
    "longitude": -61.18169
  },
  {
    "city": "La Démarche",
    "city_zh": "La Démarche",
    "country": "Martinique",
    "country_zh": "Martinique",
    "country_iso_code": "MQ",
    "timezone": "America/Martinique",
    "latitude": 14.63966,
    "longitude": -61.11385
  },
  {
    "city": "La Debuc",
    "city_zh": "La Debuc",
    "country": "Martinique",
    "country_zh": "Martinique",
    "country_iso_code": "MQ",
    "timezone": "America/Martinique",
    "latitude": 14.45,
    "longitude": -60.88333
  },
  {
    "city": "La Croix",
    "city_zh": "La Croix",
    "country": "Martinique",
    "country_zh": "Martinique",
    "country_iso_code": "MQ",
    "timezone": "America/Martinique",
    "latitude": 14.49278,
    "longitude": -61.06443
  },
  {
    "city": "La Crique",
    "city_zh": "La Crique",
    "country": "Martinique",
    "country_zh": "Martinique",
    "country_iso_code": "MQ",
    "timezone": "America/Martinique",
    "latitude": 14.74488,
    "longitude": -60.96942
  },
  {
    "city": "La Cotonnerie",
    "city_zh": "La Cotonnerie",
    "country": "Martinique",
    "country_zh": "Martinique",
    "country_iso_code": "MQ",
    "timezone": "America/Martinique",
    "latitude": 14.61357,
    "longitude": -60.90941
  },
  {
    "city": "La Citerne",
    "city_zh": "La Citerne",
    "country": "Martinique",
    "country_zh": "Martinique",
    "country_iso_code": "MQ",
    "timezone": "America/Martinique",
    "latitude": 14.73333,
    "longitude": -60.96667
  },
  {
    "city": "Chopotte",
    "city_zh": "Chopotte",
    "country": "Martinique",
    "country_zh": "Martinique",
    "country_iso_code": "MQ",
    "timezone": "America/Martinique",
    "latitude": 14.63382,
    "longitude": -60.92218
  },
  {
    "city": "Quartier Chapelle",
    "city_zh": "Quartier Chapelle",
    "country": "Martinique",
    "country_zh": "Martinique",
    "country_iso_code": "MQ",
    "timezone": "America/Martinique",
    "latitude": 14.68157,
    "longitude": -61.01897
  },
  {
    "city": "Césaire",
    "city_zh": "Césaire",
    "country": "Martinique",
    "country_zh": "Martinique",
    "country_iso_code": "MQ",
    "timezone": "America/Martinique",
    "latitude": 14.61853,
    "longitude": -60.9981
  },
  {
    "city": "La Casse",
    "city_zh": "La Casse",
    "country": "Martinique",
    "country_zh": "Martinique",
    "country_iso_code": "MQ",
    "timezone": "America/Martinique",
    "latitude": 14.46815,
    "longitude": -60.8312
  },
  {
    "city": "La Carrière",
    "city_zh": "La Carrière",
    "country": "Martinique",
    "country_zh": "Martinique",
    "country_iso_code": "MQ",
    "timezone": "America/Martinique",
    "latitude": 14.51185,
    "longitude": -60.85581
  },
  {
    "city": "La Capoul",
    "city_zh": "La Capoul",
    "country": "Martinique",
    "country_zh": "Martinique",
    "country_iso_code": "MQ",
    "timezone": "America/Martinique",
    "latitude": 14.56706,
    "longitude": -60.93558
  },
  {
    "city": "Cannelle",
    "city_zh": "Cannelle",
    "country": "Martinique",
    "country_zh": "Martinique",
    "country_iso_code": "MQ",
    "timezone": "America/Martinique",
    "latitude": 14.67064,
    "longitude": -60.97598
  },
  {
    "city": "La Camille",
    "city_zh": "La Camille",
    "country": "Martinique",
    "country_zh": "Martinique",
    "country_iso_code": "MQ",
    "timezone": "America/Martinique",
    "latitude": 14.72726,
    "longitude": -60.97879
  },
  {
    "city": "Californie",
    "city_zh": "Californie",
    "country": "Martinique",
    "country_zh": "Martinique",
    "country_iso_code": "MQ",
    "timezone": "America/Martinique",
    "latitude": 14.61381,
    "longitude": -61.0272
  },
  {
    "city": "Bonny",
    "city_zh": "Bonny",
    "country": "Martinique",
    "country_zh": "Martinique",
    "country_iso_code": "MQ",
    "timezone": "America/Martinique",
    "latitude": 14.6388,
    "longitude": -60.92161
  },
  {
    "city": "Laboissière",
    "city_zh": "Laboissière",
    "country": "Martinique",
    "country_zh": "Martinique",
    "country_iso_code": "MQ",
    "timezone": "America/Martinique",
    "latitude": 14.5512,
    "longitude": -60.89871
  },
  {
    "city": "La Berry",
    "city_zh": "La Berry",
    "country": "Martinique",
    "country_zh": "Martinique",
    "country_iso_code": "MQ",
    "timezone": "America/Martinique",
    "latitude": 14.48056,
    "longitude": -60.86607
  },
  {
    "city": "Bélème",
    "city_zh": "Bélème",
    "country": "Martinique",
    "country_zh": "Martinique",
    "country_iso_code": "MQ",
    "timezone": "America/Martinique",
    "latitude": 14.65157,
    "longitude": -61.00906
  },
  {
    "city": "La Baume",
    "city_zh": "La Baume",
    "country": "Martinique",
    "country_zh": "Martinique",
    "country_iso_code": "MQ",
    "timezone": "America/Martinique",
    "latitude": 14.54116,
    "longitude": -60.86976
  },
  {
    "city": "La Batterie",
    "city_zh": "La Batterie",
    "country": "Martinique",
    "country_zh": "Martinique",
    "country_iso_code": "MQ",
    "timezone": "America/Martinique",
    "latitude": 14.64443,
    "longitude": -61.14052
  },
  {
    "city": "Quartier Batelière",
    "city_zh": "Quartier Batelière",
    "country": "Martinique",
    "country_zh": "Martinique",
    "country_iso_code": "MQ",
    "timezone": "America/Martinique",
    "latitude": 14.60265,
    "longitude": -61.09288
  },
  {
    "city": "La Baie des Anglais",
    "city_zh": "La Baie des Anglais",
    "country": "Martinique",
    "country_zh": "Martinique",
    "country_iso_code": "MQ",
    "timezone": "America/Martinique",
    "latitude": 14.42154,
    "longitude": -60.85326
  },
  {
    "city": "Josseaud",
    "city_zh": "Josseaud",
    "country": "Martinique",
    "country_zh": "Martinique",
    "country_iso_code": "MQ",
    "timezone": "America/Martinique",
    "latitude": 14.52559,
    "longitude": -60.88169
  },
  {
    "city": "Jeanne d'Arc",
    "city_zh": "Jeanne d'Arc",
    "country": "Martinique",
    "country_zh": "Martinique",
    "country_iso_code": "MQ",
    "timezone": "America/Martinique",
    "latitude": 14.63363,
    "longitude": -61.01257
  },