[
  {
    "city": "Ch’ero",
    "city_zh": "Ch’ero",
    "country": "Georgia",
    "country_zh": "喬治亞",
    "country_iso_code": "GE",
    "timezone": "Asia/Tbilisi",
    "latitude": 42.40581,
    "longitude": 45.72695
  },
  {
    "city": "Abastumani",
    "city_zh": "Abastumani",
    "country": "Georgia",
    "country_zh": "喬治亞",
    "country_iso_code": "GE",
    "timezone": "Asia/Tbilisi",
    "latitude": 41.75339,
    "longitude": 42.83203
  },
  {
    "city": "Abashisp’iri",
    "city_zh": "Abashisp’iri",
    "country": "Georgia",
    "country_zh": "喬治亞",
    "country_iso_code": "GE",
    "timezone": "Asia/Tbilisi",
    "latitude": 42.19718,
    "longitude": 42.19092
  },
  {
    "city": "Vashlovani",
    "city_zh": "Vashlovani",
    "country": "Georgia",
    "country_zh": "喬治亞",
    "country_iso_code": "GE",
    "timezone": "Asia/Tbilisi",
    "latitude": 41.85,
    "longitude": 46.26667
  },
  {
    "city": "Seva",
    "city_zh": "Seva",
    "country": "Georgia",
    "country_zh": "喬治亞",
    "country_iso_code": "GE",
    "timezone": "Asia/Tbilisi",
    "latitude": 42.55621,
    "longitude": 43.35424
  },
  {
    "city": "Ferma",
    "city_zh": "Ferma",
    "country": "Georgia",
    "country_zh": "喬治亞",
    "country_iso_code": "GE",
    "timezone": "Asia/Tbilisi",
    "latitude": 41.95,
    "longitude": 44.51667
  },
  {
    "city": "Bekami",
    "city_zh": "Bekami",
    "country": "Georgia",
    "country_zh": "喬治亞",
    "country_iso_code": "GE",
    "timezone": "Asia/Tbilisi",
    "latitude": 42.16667,
    "longitude": 43.55
  },
  {
    "city": "Ach’arists’q’ali",
    "city_zh": "Ach’arists’q’ali",
    "country": "Georgia",
    "country_zh": "喬治亞",
    "country_iso_code": "GE",
    "timezone": "Asia/Tbilisi",
    "latitude": 41.54375,
    "longitude": 41.72749
  },
  {
    "city": "Zvareti",
    "city_zh": "Zvareti",
    "country": "Georgia",
    "country_zh": "喬治亞",
    "country_iso_code": "GE",
    "timezone": "Asia/Tbilisi",
    "latitude": 42.53652,
    "longitude": 43.37648
  },
  {
    "city": "Zvare",
    "city_zh": "Zvare",
    "country": "Georgia",
    "country_zh": "喬治亞",
    "country_iso_code": "GE",
    "timezone": "Asia/Tbilisi",
    "latitude": 41.9763,
    "longitude": 43.40193
  },
  {
    "city": "Zvare",
    "city_zh": "Zvare",
    "country": "Georgia",
    "country_zh": "喬治亞",
    "country_iso_code": "GE",
    "timezone": "Asia/Tbilisi",
    "latitude": 41.62972,
    "longitude": 41.97611
  },
  {
    "city": "Zvandripshi",
    "city_zh": "Zvandripshi",
    "country": "Georgia",
    "country_zh": "喬治亞",
    "country_iso_code": "GE",
    "timezone": "Asia/Tbilisi",
    "latitude": 43.15995,
    "longitude": 40.56424
  },
  {
    "city": "Zurzutebi",
    "city_zh": "Zurzutebi",
    "country": "Georgia",
    "country_zh": "喬治亞",
    "country_iso_code": "GE",
    "timezone": "Asia/Tbilisi",
    "latitude": 41.9,
    "longitude": 45.16667
  },
  {
    "city": "Zundaga",
    "city_zh": "Zundaga",
    "country": "Georgia",
    "country_zh": "喬治亞",
    "country_iso_code": "GE",
    "timezone": "Asia/Tbilisi",
    "latitude": 41.57917,
    "longitude": 41.82806
  },
  {
    "city": "Zugdidi",
    "city_zh": "Zugdidi",
    "country": "Georgia",
    "country_zh": "喬治亞",
    "country_iso_code": "GE",
    "timezone": "Asia/Tbilisi",
    "latitude": 42.5088,
    "longitude": 41.87088
  },
  {
    "city": "Zudali",
    "city_zh": "Zudali",
    "country": "Georgia",
    "country_zh": "喬治亞",
    "country_iso_code": "GE",
    "timezone": "Asia/Tbilisi",
    "latitude": 42.56973,
    "longitude": 43.38138
  },
  {
    "city": "Zumi",
    "city_zh": "Zumi",
    "country": "Georgia",
    "country_zh": "喬治亞",
    "country_iso_code": "GE",
    "timezone": "Asia/Tbilisi",
    "latitude": 42.60504,
    "longitude": 42.16028
  },
  {
    "city": "Zubi",
    "city_zh": "Zubi",
    "country": "Georgia",
    "country_zh": "喬治亞",
    "country_iso_code": "GE",
    "timezone": "Asia/Tbilisi",
    "latitude": 42.56777,
    "longitude": 42.66887
  },
  {
    "city": "Zubi",
    "city_zh": "Zubi",
    "country": "Georgia",
    "country_zh": "喬治亞",
    "country_iso_code": "GE",
    "timezone": "Asia/Tbilisi",
    "latitude": 42.40824,
    "longitude": 42.03236
  },
  {
    "city": "Zovreti",
    "city_zh": "Zovreti",
    "country": "Georgia",
    "country_zh": "喬治亞",
    "country_iso_code": "GE",
    "timezone": "Asia/Tbilisi",
    "latitude": 42.18605,
    "longitude": 43.04129
  },
  {
    "city": "Zot’ik’iantk’ari",
    "city_zh": "Zot’ik’iantk’ari",
    "country": "Georgia",
    "country_zh": "喬治亞",
    "country_iso_code": "GE",
    "timezone": "Asia/Tbilisi",
    "latitude": 42.14823,
    "longitude": 44.69074
  },
  {
    "city": "Zot’i",
    "city_zh": "Zot’i",
    "country": "Georgia",
    "country_zh": "喬治亞",
    "country_iso_code": "GE",
    "timezone": "Asia/Tbilisi",
    "latitude": 41.894,
    "longitude": 42.44993
  },
  {
    "city": "Zomleti",
    "city_zh": "Zomleti",
    "country": "Georgia",
    "country_zh": "喬治亞",
    "country_iso_code": "GE",
    "timezone": "Asia/Tbilisi",
    "latitude": 42.03314,
    "longitude": 42.14437
  },
  {
    "city": "Zogishi",
    "city_zh": "Zogishi",
    "country": "Georgia",
    "country_zh": "喬治亞",
    "country_iso_code": "GE",
    "timezone": "Asia/Tbilisi",
    "latitude": 42.55246,
    "longitude": 42.84088
  },
  {
    "city": "Zodi",
    "city_zh": "Zodi",
    "country": "Georgia",
    "country_zh": "喬治亞",
    "country_iso_code": "GE",
    "timezone": "Asia/Tbilisi",
    "latitude": 42.3443,
    "longitude": 43.32182
  },
  {
    "city": "Zodekhi",
    "city_zh": "Zodekhi",
    "country": "Georgia",
    "country_zh": "喬治亞",
    "country_iso_code": "GE",
    "timezone": "Asia/Tbilisi",
    "latitude": 42.29514,
    "longitude": 44.53236
  },
  {
    "city": "Znaur",
    "city_zh": "Znaur",
    "country": "Georgia",
    "country_zh": "喬治亞",
    "country_iso_code": "GE",
    "timezone": "Asia/Tbilisi",
    "latitude": 42.19432,
    "longitude": 43.77361
  },
  {
    "city": "Znak’va",
    "city_zh": "Znak’va",
    "country": "Georgia",
    "country_zh": "喬治亞",
    "country_iso_code": "GE",
    "timezone": "Asia/Tbilisi",
    "latitude": 42.51312,
    "longitude": 43.081
  },
  {
    "city": "Zirbiti",
    "city_zh": "Zirbiti",
    "country": "Georgia",
    "country_zh": "喬治亞",
    "country_iso_code": "GE",
    "timezone": "Asia/Tbilisi",
    "latitude": 41.65181,
    "longitude": 44.35385
  },
  {
    "city": "Zik’ilia",
    "city_zh": "Zik’ilia",
    "country": "Georgia",
    "country_zh": "喬治亞",
    "country_iso_code": "GE",
    "timezone": "Asia/Tbilisi",
    "latitude": 41.69456,
    "longitude": 43.1128
  },
  {
    "city": "Ziari",
    "city_zh": "Ziari",
    "country": "Georgia",
    "country_zh": "喬治亞",
    "country_iso_code": "GE",
    "timezone": "Asia/Tbilisi",
    "latitude": 41.71793,
    "longitude": 45.74261
  },
  {
    "city": "Zhvelurta",
    "city_zh": "Zhvelurta",
    "country": "Georgia",
    "country_zh": "喬治亞",
    "country_iso_code": "GE",
    "timezone": "Asia/Tbilisi",
    "latitude": 42.34972,
    "longitude": 45.58543
  },
  {
    "city": "Zhozhoni",
    "city_zh": "Zhozhoni",
    "country": "Georgia",
    "country_zh": "喬治亞",
    "country_iso_code": "GE",
    "timezone": "Asia/Tbilisi",
    "latitude": 42.45222,
    "longitude": 44.55722
  },
  {
    "city": "Zhoneti",
    "city_zh": "Zhoneti",
    "country": "Georgia",
    "country_zh": "喬治亞",
    "country_iso_code": "GE",
    "timezone": "Asia/Tbilisi",
    "latitude": 42.37374,
    "longitude": 42.70152
  },
  {
    "city": "Zhirghalishk’a",
    "city_zh": "Zhirghalishk’a",
    "country": "Georgia",
    "country_zh": "喬治亞",
    "country_iso_code": "GE",
    "timezone": "Asia/Tbilisi",
    "latitude": 42.69659,
    "longitude": 41.9222
  },
  {
    "city": "Zhinvali",
    "city_zh": "Zhinvali",
    "country": "Georgia",
    "country_zh": "喬治亞",
    "country_iso_code": "GE",
    "timezone": "Asia/Tbilisi",
    "latitude": 42.13181,
    "longitude": 44.77264
  },
  {
    "city": "Zhinota",
    "city_zh": "Zhinota",
    "country": "Georgia",
    "country_zh": "喬治亞",
    "country_iso_code": "GE",
    "timezone": "Asia/Tbilisi",
    "latitude": 42.51167,
    "longitude": 42.31279
  },
  {
    "city": "Zhebot’a",
    "city_zh": "Zhebot’a",
    "country": "Georgia",
    "country_zh": "喬治亞",
    "country_iso_code": "GE",
    "timezone": "Asia/Tbilisi",
    "latitude": 42.10657,
    "longitude": 44.98468
  },
  {
    "city": "Zhdanovi",
    "city_zh": "Zhdanovi",
    "country": "Georgia",
    "country_zh": "喬治亞",
    "country_iso_code": "GE",
    "timezone": "Asia/Tbilisi",
    "latitude": 41.16758,
    "longitude": 43.77205
  },
  {
    "city": "Zhashkva",
    "city_zh": "Zhashkva",
    "country": "Georgia",
    "country_zh": "喬治亞",
    "country_iso_code": "GE",
    "timezone": "Asia/Tbilisi",
    "latitude": 42.55296,
    "longitude": 43.46293
  },
  {
    "city": "Zhanivri",
    "city_zh": "Zhanivri",
    "country": "Georgia",
    "country_zh": "喬治亞",
    "country_iso_code": "GE",
    "timezone": "Asia/Tbilisi",
    "latitude": 41.71471,
    "longitude": 42.20982
  },
  {
    "city": "Zhamushi",
    "city_zh": "Zhamushi",
    "country": "Georgia",
    "country_zh": "喬治亞",
    "country_iso_code": "GE",
    "timezone": "Asia/Tbilisi",
    "latitude": 43.05064,
    "longitude": 42.81199
  },
  {
    "city": "Zhabna",
    "city_zh": "Zhabna",
    "country": "Georgia",
    "country_zh": "喬治亞",
    "country_iso_code": "GE",
    "timezone": "Asia/Tbilisi",
    "latitude": 43.22833,
    "longitude": 40.51472
  },
  {
    "city": "Zhibiani",
    "city_zh": "Zhibiani",
    "country": "Georgia",
    "country_zh": "喬治亞",
    "country_iso_code": "GE",
    "timezone": "Asia/Tbilisi",
    "latitude": 42.91763,
    "longitude": 43.01621
  },
  {
    "city": "Zhabeshi",
    "city_zh": "Zhabeshi",
    "country": "Georgia",
    "country_zh": "喬治亞",
    "country_iso_code": "GE",
    "timezone": "Asia/Tbilisi",
    "latitude": 43.04682,
    "longitude": 42.86749
  },
  {
    "city": "Zghuderi",
    "city_zh": "Zghuderi",
    "country": "Georgia",
    "country_zh": "喬治亞",
    "country_iso_code": "GE",
    "timezone": "Asia/Tbilisi",
    "latitude": 41.968,
    "longitude": 43.80338
  },
  {
    "city": "Zgubiri",
    "city_zh": "Zgubiri",
    "country": "Georgia",
    "country_zh": "喬治亞",
    "country_iso_code": "GE",
    "timezone": "Asia/Tbilisi",
    "latitude": 42.54778,
    "longitude": 44.16556
  },
  {
    "city": "Zeubani",
    "city_zh": "Zeubani",
    "country": "Georgia",
    "country_zh": "喬治亞",
    "country_iso_code": "GE",
    "timezone": "Asia/Tbilisi",
    "latitude": 41.68333,
    "longitude": 43.01667
  },
  {
    "city": "Zest’aponi",
    "city_zh": "Zest’aponi",
    "country": "Georgia",
    "country_zh": "喬治亞",
    "country_iso_code": "GE",
    "timezone": "Asia/Tbilisi",
    "latitude": 42.10752,
    "longitude": 43.03291
  },
  {
    "city": "Zesopeli",
    "city_zh": "Zesopeli",
    "country": "Georgia",
    "country_zh": "喬治亞",
    "country_iso_code": "GE",
    "timezone": "Asia/Tbilisi",
    "latitude": 41.61978,
    "longitude": 41.96169
  },
  {
    "city": "Zeskho",
    "city_zh": "Zeskho",
    "country": "Georgia",
    "country_zh": "喬治亞",
    "country_iso_code": "GE",
    "timezone": "Asia/Tbilisi",
    "latitude": 42.89085,
    "longitude": 43.18937
  },
  {
    "city": "Zerti",
    "city_zh": "Zerti",
    "country": "Georgia",
    "country_zh": "喬治亞",
    "country_iso_code": "GE",
    "timezone": "Asia/Tbilisi",
    "latitude": 42.10417,
    "longitude": 44.22104
  },
  {
    "city": "Zeraboseli",
    "city_zh": "Zeraboseli",
    "country": "Georgia",
    "country_zh": "喬治亞",
    "country_iso_code": "GE",
    "timezone": "Asia/Tbilisi",
    "latitude": 41.73333,
    "longitude": 41.98333
  },
  {
    "city": "Zenubani",
    "city_zh": "Zenubani",
    "country": "Georgia",
    "country_zh": "喬治亞",
    "country_iso_code": "GE",
    "timezone": "Asia/Tbilisi",
    "latitude": 42.26495,
    "longitude": 44.64904
  },
  {
    "city": "Zenobani",
    "city_zh": "Zenobani",
    "country": "Georgia",
    "country_zh": "喬治亞",
    "country_iso_code": "GE",
    "timezone": "Asia/Tbilisi",
    "latitude": 43.04071,
    "longitude": 41.40278
  },
  {
    "city": "Zenobani",
    "city_zh": "Zenobani",
    "country": "Georgia",
    "country_zh": "喬治亞",
    "country_iso_code": "GE",
    "timezone": "Asia/Tbilisi",
    "latitude": 41.96683,
    "longitude": 42.23219
  },
  {
    "city": "Zeniti",
    "city_zh": "Zeniti",
    "country": "Georgia",
    "country_zh": "喬治亞",
    "country_iso_code": "GE",
    "timezone": "Asia/Tbilisi",
    "latitude": 41.81444,
    "longitude": 41.90583
  },
  {
    "city": "Zeni",
    "city_zh": "Zeni",
    "country": "Georgia",
    "country_zh": "喬治亞",
    "country_iso_code": "GE",
    "timezone": "Asia/Tbilisi",
    "latitude": 42.37999,
    "longitude": 41.96874
  },
  {
    "city": "Zeni",
    "city_zh": "Zeni",
    "country": "Georgia",
    "country_zh": "喬治亞",
    "country_iso_code": "GE",
    "timezone": "Asia/Tbilisi",
    "latitude": 42.30931,
    "longitude": 41.92167
  },
  {
    "city": "Zendidi",
    "city_zh": "Zendidi",
    "country": "Georgia",
    "country_zh": "喬治亞",
    "country_iso_code": "GE",
    "timezone": "Asia/Tbilisi",
    "latitude": 41.60238,
    "longitude": 41.92951
  },
  {
    "city": "Zenamkhari",
    "city_zh": "Zenamkhari",
    "country": "Georgia",
    "country_zh": "喬治亞",
    "country_iso_code": "GE",
    "timezone": "Asia/Tbilisi",
    "latitude": 42.20806,
    "longitude": 44.90225
  },
  {
    "city": "Zenadrisi",
    "city_zh": "Zenadrisi",
    "country": "Georgia",
    "country_zh": "喬治亞",
    "country_iso_code": "GE",
    "timezone": "Asia/Tbilisi",
    "latitude": 41.8718,
    "longitude": 44.26025
  },
  {
    "city": "Zemo Zhoshkha",
    "city_zh": "Zemo Zhoshkha",
    "country": "Georgia",
    "country_zh": "喬治亞",
    "country_iso_code": "GE",
    "timezone": "Asia/Tbilisi",
    "latitude": 42.58237,
    "longitude": 42.9594
  },
  {
    "city": "Zemo Zonkari",
    "city_zh": "Zemo Zonkari",
    "country": "Georgia",
    "country_zh": "喬治亞",
    "country_iso_code": "GE",
    "timezone": "Asia/Tbilisi",
    "latitude": 42.29194,
    "longitude": 44.1725
  },
  {
    "city": "Zemo Zakhori",
    "city_zh": "Zemo Zakhori",
    "country": "Georgia",
    "country_zh": "喬治亞",
    "country_iso_code": "GE",
    "timezone": "Asia/Tbilisi",
    "latitude": 42.17518,
    "longitude": 44.35347
  },
  {
    "city": "Zemo Iashtkhva",
    "city_zh": "Zemo Iashtkhva",
    "country": "Georgia",
    "country_zh": "喬治亞",
    "country_iso_code": "GE",
    "timezone": "Asia/Tbilisi",
    "latitude": 43.05388,
    "longitude": 41.04097
  },
  {
    "city": "Zemo Vilda",
    "city_zh": "Zemo Vilda",
    "country": "Georgia",
    "country_zh": "喬治亞",
    "country_iso_code": "GE",
    "timezone": "Asia/Tbilisi",
    "latitude": 42.25861,
    "longitude": 44.28389
  },
  {
    "city": "Zemo Ubani",
    "city_zh": "Zemo Ubani",
    "country": "Georgia",
    "country_zh": "喬治亞",
    "country_iso_code": "GE",
    "timezone": "Asia/Tbilisi",
    "latitude": 42.0346,
    "longitude": 44.8088
  },
  {
    "city": "Zemo Tsolda",
    "city_zh": "Zemo Tsolda",
    "country": "Georgia",
    "country_zh": "喬治亞",
    "country_iso_code": "GE",
    "timezone": "Asia/Tbilisi",
    "latitude": 42.17437,
    "longitude": 44.32442
  },
  {
    "city": "Zemo Ts’khiloni",
    "city_zh": "Zemo Ts’khiloni",
    "country": "Georgia",
    "country_zh": "喬治亞",
    "country_iso_code": "GE",
    "timezone": "Asia/Tbilisi",
    "latitude": 42.08806,
    "longitude": 44.3625
  },
  {
    "city": "Zemo Ts’q’aro",
    "city_zh": "Zemo Ts’q’aro",
    "country": "Georgia",
    "country_zh": "喬治亞",
    "country_iso_code": "GE",
    "timezone": "Asia/Tbilisi",
    "latitude": 43.04691,
    "longitude": 41.2662
  },
  {
    "city": "Zemo Tsiri",
    "city_zh": "Zemo Tsiri",
    "country": "Georgia",
    "country_zh": "喬治亞",
    "country_iso_code": "GE",
    "timezone": "Asia/Tbilisi",
    "latitude": 42.15181,
    "longitude": 44.38207
  },
  {
    "city": "Zemo-Tianeti",
    "city_zh": "Zemo-Tianeti",
    "country": "Georgia",
    "country_zh": "喬治亞",
    "country_iso_code": "GE",
    "timezone": "Asia/Tbilisi",
    "latitude": 42.16667,
    "longitude": 44.88333
  },
  {
    "city": "Zemo Teleti",
    "city_zh": "Zemo Teleti",
    "country": "Georgia",
    "country_zh": "喬治亞",
    "country_iso_code": "GE",
    "timezone": "Asia/Tbilisi",
    "latitude": 41.6408,
    "longitude": 44.8235
  },
  {
    "city": "Zemo Surebi",
    "city_zh": "Zemo Surebi",
    "country": "Georgia",
    "country_zh": "喬治亞",
    "country_iso_code": "GE",
    "timezone": "Asia/Tbilisi",
    "latitude": 41.95238,
    "longitude": 42.46798
  },
  {
    "city": "Zemo Sobisi",
    "city_zh": "Zemo Sobisi",
    "country": "Georgia",
    "country_zh": "喬治亞",
    "country_iso_code": "GE",
    "timezone": "Asia/Tbilisi",
    "latitude": 42.08036,
    "longitude": 44.24539
  },
  {
    "city": "Zemo-Snekvi",
    "city_zh": "Zemo-Snekvi",
    "country": "Georgia",
    "country_zh": "喬治亞",
    "country_iso_code": "GE",
    "timezone": "Asia/Tbilisi",
    "latitude": 42.28695,
    "longitude": 44.10319
  },
  {
    "city": "Zemo Skhvilisi",
    "city_zh": "Zemo Skhvilisi",
    "country": "Georgia",
    "country_zh": "喬治亞",
    "country_iso_code": "GE",
    "timezone": "Asia/Tbilisi",
    "latitude": 41.63369,
    "longitude": 42.93208
  },
  {
    "city": "Zemo-Skhvava",
    "city_zh": "Zemo-Skhvava",
    "country": "Georgia",
    "country_zh": "喬治亞",
    "country_iso_code": "GE",
    "timezone": "Asia/Tbilisi",
    "latitude": 42.50887,
    "longitude": 43.24658
  },
  {
    "city": "Zemo Shukhuti",
    "city_zh": "Zemo Shukhuti",
    "country": "Georgia",
    "country_zh": "喬治亞",
    "country_iso_code": "GE",
    "timezone": "Asia/Tbilisi",
    "latitude": 42.08154,
    "longitude": 42.09459
  },
  {
    "city": "Zemo Shuakhevi",
    "city_zh": "Zemo Shuakhevi",
    "country": "Georgia",
    "country_zh": "喬治亞",
    "country_iso_code": "GE",
    "timezone": "Asia/Tbilisi",
    "latitude": 42.02894,
    "longitude": 44.56413
  },
  {
    "city": "Zemo-Shakshaketi",
    "city_zh": "Zemo-Shakshaketi",
    "country": "Georgia",
    "country_zh": "喬治亞",
    "country_iso_code": "GE",
    "timezone": "Asia/Tbilisi",
    "latitude": 42.06667,
    "longitude": 43.78534
  },
  {
    "city": "Zemo Sarali",
    "city_zh": "Zemo Sarali",
    "country": "Georgia",
    "country_zh": "喬治亞",
    "country_iso_code": "GE",
    "timezone": "Asia/Tbilisi",
    "latitude": 41.32514,
    "longitude": 44.79673
  },
  {
    "city": "Zemo-Sarabuki",
    "city_zh": "Zemo-Sarabuki",
    "country": "Georgia",
    "country_zh": "喬治亞",
    "country_iso_code": "GE",
    "timezone": "Asia/Tbilisi",
    "latitude": 42.26986,
    "longitude": 44.03695
  },
  {
    "city": "Zemo Roka",
    "city_zh": "Zemo Roka",
    "country": "Georgia",
    "country_zh": "喬治亞",
    "country_iso_code": "GE",
    "timezone": "Asia/Tbilisi",
    "latitude": 42.5771,
    "longitude": 44.11875
  },
  {
    "city": "Zemo-Riyeti",
    "city_zh": "Zemo-Riyeti",
    "country": "Georgia",
    "country_zh": "喬治亞",
    "country_iso_code": "GE",
    "timezone": "Asia/Tbilisi",
    "latitude": 41.95,
    "longitude": 43.98333
  },
  {
    "city": "Zemo Rene",
    "city_zh": "Zemo Rene",
    "country": "Georgia",
    "country_zh": "喬治亞",
    "country_iso_code": "GE",
    "timezone": "Asia/Tbilisi",
    "latitude": 41.99548,
    "longitude": 44.38609
  },
  {
    "city": "Zemo Rekha",
    "city_zh": "Zemo Rekha",
    "country": "Georgia",
    "country_zh": "喬治亞",
    "country_iso_code": "GE",
    "timezone": "Asia/Tbilisi",
    "latitude": 42.03917,
    "longitude": 44.11444
  },
  {
    "city": "Zemo P’shap’i",
    "city_zh": "Zemo P’shap’i",
    "country": "Georgia",
    "country_zh": "喬治亞",
    "country_iso_code": "GE",
    "timezone": "Asia/Tbilisi",
    "latitude": 42.88611,
    "longitude": 41.14639
  },
  {
    "city": "Zemo Partskhma",
    "city_zh": "Zemo Partskhma",
    "country": "Georgia",
    "country_zh": "喬治亞",
    "country_iso_code": "GE",
    "timezone": "Asia/Tbilisi",
    "latitude": 42.03382,
    "longitude": 42.24664
  },
  {
    "city": "Zemo-Otrevi",
    "city_zh": "Zemo-Otrevi",
    "country": "Georgia",
    "country_zh": "喬治亞",
    "country_iso_code": "GE",
    "timezone": "Asia/Tbilisi",
    "latitude": 42.18776,
    "longitude": 44.1205
  },
  {
    "city": "Zemo Osiauri",
    "city_zh": "Zemo Osiauri",
    "country": "Georgia",
    "country_zh": "喬治亞",
    "country_iso_code": "GE",
    "timezone": "Asia/Tbilisi",
    "latitude": 42.00561,
    "longitude": 43.63376
  },
  {
    "city": "Zemo Orozmani",
    "city_zh": "Zemo Orozmani",
    "country": "Georgia",
    "country_zh": "喬治亞",
    "country_iso_code": "GE",
    "timezone": "Asia/Tbilisi",
    "latitude": 41.2984,
    "longitude": 44.18141
  },
  {
    "city": "Zemo Onch’iketi",
    "city_zh": "Zemo Onch’iketi",
    "country": "Georgia",
    "country_zh": "喬治亞",
    "country_iso_code": "GE",
    "timezone": "Asia/Tbilisi",
    "latitude": 41.97503,
    "longitude": 42.30114
  },
  {
    "city": "Zemo Okroq’ana",
    "city_zh": "Zemo Okroq’ana",
    "country": "Georgia",
    "country_zh": "喬治亞",
    "country_iso_code": "GE",
    "timezone": "Asia/Tbilisi",
    "latitude": 42.58395,
    "longitude": 44.46585
  },
  {
    "city": "Zemo-Okona",
    "city_zh": "Zemo-Okona",
    "country": "Georgia",
    "country_zh": "喬治亞",
    "country_iso_code": "GE",
    "timezone": "Asia/Tbilisi",
    "latitude": 42.16848,
    "longitude": 43.78855
  },
  {
    "city": "Zemo Nikozi",
    "city_zh": "Zemo Nikozi",
    "country": "Georgia",
    "country_zh": "喬治亞",
    "country_iso_code": "GE",
    "timezone": "Asia/Tbilisi",
    "latitude": 42.19663,
    "longitude": 43.95732
  },
  {
    "city": "Zemo Nichbisi",
    "city_zh": "Zemo Nichbisi",
    "country": "Georgia",
    "country_zh": "喬治亞",
    "country_iso_code": "GE",
    "timezone": "Asia/Tbilisi",
    "latitude": 41.82344,
    "longitude": 44.51697
  },
  {
    "city": "Zemo Natanebi",
    "city_zh": "Zemo Natanebi",
    "country": "Georgia",
    "country_zh": "喬治亞",
    "country_iso_code": "GE",
    "timezone": "Asia/Tbilisi",
    "latitude": 41.93759,
    "longitude": 41.81148
  },
  {
    "city": "Zemo Nashovari",
    "city_zh": "Zemo Nashovari",
    "country": "Georgia",
    "country_zh": "喬治亞",
    "country_iso_code": "GE",
    "timezone": "Asia/Tbilisi",
    "latitude": 41.81528,
    "longitude": 46.02
  },
  {
    "city": "Zemo Nagvazavo",
    "city_zh": "Zemo Nagvazavo",
    "country": "Georgia",
    "country_zh": "喬治亞",
    "country_iso_code": "GE",
    "timezone": "Asia/Tbilisi",
    "latitude": 42.37647,
    "longitude": 42.35779
  },
  {
    "city": "Zemo Mskhalgori",
    "city_zh": "Zemo Mskhalgori",
    "country": "Georgia",
    "country_zh": "喬治亞",
    "country_iso_code": "GE",
    "timezone": "Asia/Tbilisi",
    "latitude": 41.85278,
    "longitude": 46.165
  },
  {
    "city": "Zemo-Monasteri",
    "city_zh": "Zemo-Monasteri",
    "country": "Georgia",
    "country_zh": "喬治亞",
    "country_iso_code": "GE",
    "timezone": "Asia/Tbilisi",
    "latitude": 42.28583,
    "longitude": 43.91485
  },
  {
    "city": "Mna",
    "city_zh": "Mna",
    "country": "Georgia",
    "country_zh": "喬治亞",
    "country_iso_code": "GE",
    "timezone": "Asia/Tbilisi",
    "latitude": 42.61072,
    "longitude": 44.46294
  },
  {
    "city": "Zemo Mleta",
    "city_zh": "Zemo Mleta",
    "country": "Georgia",
    "country_zh": "喬治亞",
    "country_iso_code": "GE",
    "timezone": "Asia/Tbilisi",
    "latitude": 42.43175,
    "longitude": 44.49804
  },
  {
    "city": "Zemo Marghi",
    "city_zh": "Zemo Marghi",
    "country": "Georgia",
    "country_zh": "喬治亞",
    "country_iso_code": "GE",
    "timezone": "Asia/Tbilisi",
    "latitude": 43.04472,
    "longitude": 42.2037
  },
  {
    "city": "Zemo Mak’vaneti",
    "city_zh": "Zemo Mak’vaneti",
    "country": "Georgia",
    "country_zh": "喬治亞",
    "country_iso_code": "GE",
    "timezone": "Asia/Tbilisi",
    "latitude": 41.89,
    "longitude": 42.042
  },
  {
    "city": "Zemo-Makhisi",
    "city_zh": "Zemo-Makhisi",
    "country": "Georgia",
    "country_zh": "喬治亞",
    "country_iso_code": "GE",
    "timezone": "Asia/Tbilisi",
    "latitude": 42.22389,
    "longitude": 44.23042
  },
  {
    "city": "Zemo Magharo",
    "city_zh": "Zemo Magharo",
    "country": "Georgia",
    "country_zh": "喬治亞",
    "country_iso_code": "GE",
    "timezone": "Asia/Tbilisi",
    "latitude": 41.60294,
    "longitude": 45.89958
  },
  {
    "city": "Zemo-Machkhara",
    "city_zh": "Zemo-Machkhara",
    "country": "Georgia",
    "country_zh": "喬治亞",
    "country_iso_code": "GE",
    "timezone": "Asia/Tbilisi",
    "latitude": 42.5,
    "longitude": 43.86667
  },
  {
    "city": "Zemo Machkhaani",
    "city_zh": "Zemo Machkhaani",
    "country": "Georgia",
    "country_zh": "喬治亞",
    "country_iso_code": "GE",
    "timezone": "Asia/Tbilisi",
    "latitude": 41.56593,
    "longitude": 45.95328
  },
  {
    "city": "Zemo Leteti",
    "city_zh": "Zemo Leteti",
    "country": "Georgia",
    "country_zh": "喬治亞",
    "country_iso_code": "GE",
    "timezone": "Asia/Tbilisi",
    "latitude": 41.98052,
    "longitude": 43.86909
  },
  {
    "city": "Zemo Lata",
    "city_zh": "Zemo Lata",
    "country": "Georgia",
    "country_zh": "喬治亞",
    "country_iso_code": "GE",
    "timezone": "Asia/Tbilisi",
    "latitude": 43.02975,
    "longitude": 41.53774
  },
  {
    "city": "Zemo-Kvatetri",
    "city_zh": "Zemo-Kvatetri",
    "country": "Georgia",
    "country_zh": "喬治亞",
    "country_iso_code": "GE",
    "timezone": "Asia/Tbilisi",
    "latitude": 42.12882,
    "longitude": 43.84275
  },
  {
    "city": "Zemo-Koshka",
    "city_zh": "Zemo-Koshka",
    "country": "Georgia",
    "country_zh": "喬治亞",
    "country_iso_code": "GE",
    "timezone": "Asia/Tbilisi",
    "latitude": 42.46048,
    "longitude": 44.05003
  },
  {
    "city": "Zemo-Kuri",
    "city_zh": "Zemo-Kuri",
    "country": "Georgia",
    "country_zh": "喬治亞",
    "country_iso_code": "GE",
    "timezone": "Asia/Tbilisi",
    "latitude": 42.0632,
    "longitude": 44.33972
  },
  {
    "city": "Zemo Q’ulari",
    "city_zh": "Zemo Q’ulari",
    "country": "Georgia",
    "country_zh": "喬治亞",
    "country_iso_code": "GE",
    "timezone": "Asia/Tbilisi",
    "latitude": 41.38564,
    "longitude": 44.8791
  },
  {
    "city": "Zemo Ksovrisi",
    "city_zh": "Zemo Ksovrisi",
    "country": "Georgia",
    "country_zh": "喬治亞",
    "country_iso_code": "GE",
    "timezone": "Asia/Tbilisi",
    "latitude": 41.94824,
    "longitude": 44.01821
  },
  {
    "city": "Zemo K’rikhi",
    "city_zh": "Zemo K’rikhi",
    "country": "Georgia",
    "country_zh": "喬治亞",
    "country_iso_code": "GE",
    "timezone": "Asia/Tbilisi",
    "latitude": 42.49646,
    "longitude": 43.19641
  },
  {
    "city": "Zemo Kozi",
    "city_zh": "Zemo Kozi",
    "country": "Georgia",
    "country_zh": "喬治亞",
    "country_iso_code": "GE",
    "timezone": "Asia/Tbilisi",
    "latitude": 42.60639,
    "longitude": 43.66861
  },
  {
    "city": "Zemo Arkevani",
    "city_zh": "Zemo Arkevani",
    "country": "Georgia",
    "country_zh": "喬治亞",
    "country_iso_code": "GE",
    "timezone": "Asia/Tbilisi",
    "latitude": 41.42821,
    "longitude": 44.72565
  },
  {
    "city": "Zemo-Korkula",
    "city_zh": "Zemo-Korkula",
    "country": "Georgia",
    "country_zh": "喬治亞",
    "country_iso_code": "GE",
    "timezone": "Asia/Tbilisi",
    "latitude": 42.21181,
    "longitude": 44.12514
  },
  {
    "city": "Zemo K’odists’q’aro",
    "city_zh": "Zemo K’odists’q’aro",
    "country": "Georgia",
    "country_zh": "喬治亞",
    "country_iso_code": "GE",
    "timezone": "Asia/Tbilisi",
    "latitude": 42.01316,
    "longitude": 44.56008
  },
  {
    "city": "Zemo K’livana",
    "city_zh": "Zemo K’livana",
    "country": "Georgia",
    "country_zh": "喬治亞",
    "country_iso_code": "GE",
    "timezone": "Asia/Tbilisi",
    "latitude": 42.185,
    "longitude": 44.17583
  },
  {
    "city": "Zemo Khviti",
    "city_zh": "Zemo Khviti",
    "country": "Georgia",
    "country_zh": "喬治亞",
    "country_iso_code": "GE",
    "timezone": "Asia/Tbilisi",
    "latitude": 42.18504,
    "longitude": 43.9559
  },
  {
    "city": "Zemo Khvedureti",
    "city_zh": "Zemo Khvedureti",
    "country": "Georgia",
    "country_zh": "喬治亞",
    "country_iso_code": "GE",
    "timezone": "Asia/Tbilisi",
    "latitude": 41.98235,
    "longitude": 43.92702
  },
  {
    "city": "Zemo Khunts’i",
    "city_zh": "Zemo Khunts’i",
    "country": "Georgia",
    "country_zh": "喬治亞",
    "country_iso_code": "GE",
    "timezone": "Asia/Tbilisi",
    "latitude": 42.4037,
    "longitude": 42.43545
  },
  {
    "city": "Zemo Khorkhi",
    "city_zh": "Zemo Khorkhi",
    "country": "Georgia",
    "country_zh": "喬治亞",
    "country_iso_code": "GE",
    "timezone": "Asia/Tbilisi",
    "latitude": 42.25833,
    "longitude": 44.78333
  },
  {
    "city": "Zemo Khodasheni",
    "city_zh": "Zemo Khodasheni",
    "country": "Georgia",
    "country_zh": "喬治亞",
    "country_iso_code": "GE",
    "timezone": "Asia/Tbilisi",
    "latitude": 41.95972,
    "longitude": 45.34972
  },
  {
    "city": "Khiza",
    "city_zh": "Khiza",
    "country": "Georgia",
    "country_zh": "喬治亞",
    "country_iso_code": "GE",
    "timezone": "Asia/Tbilisi",
    "latitude": 41.84361,
    "longitude": 46.23181
  },
  {
    "city": "Zemo Khevi",
    "city_zh": "Zemo Khevi",
    "country": "Georgia",
    "country_zh": "喬治亞",
    "country_iso_code": "GE",
    "timezone": "Asia/Tbilisi",
    "latitude": 41.68274,
    "longitude": 42.18921
  },
  {
    "city": "Zemo-Kheti",
    "city_zh": "Zemo-Kheti",
    "country": "Georgia",
    "country_zh": "喬治亞",
    "country_iso_code": "GE",
    "timezone": "Asia/Tbilisi",
    "latitude": 42.0425,
    "longitude": 42.35278
  },
  {
    "city": "Zemo Khechili",
    "city_zh": "Zemo Khechili",
    "country": "Georgia",
    "country_zh": "喬治亞",
    "country_iso_code": "GE",
    "timezone": "Asia/Tbilisi",
    "latitude": 41.88639,
    "longitude": 46.14472
  },
  {
    "city": "Zemo Khandak’i",
    "city_zh": "Zemo Khandak’i",
    "country": "Georgia",
    "country_zh": "喬治亞",
    "country_iso_code": "GE",
    "timezone": "Asia/Tbilisi",
    "latitude": 41.90062,
    "longitude": 44.31141
  },
  {
    "city": "Zemo Khalats’ani",
    "city_zh": "Zemo Khalats’ani",
    "country": "Georgia",
    "country_zh": "喬治亞",
    "country_iso_code": "GE",
    "timezone": "Asia/Tbilisi",
    "latitude": 42.14083,
    "longitude": 45.33861
  },
  {
    "city": "Zemo-Kere",
    "city_zh": "Zemo-Kere",
    "country": "Georgia",
    "country_zh": "喬治亞",
    "country_iso_code": "GE",
    "timezone": "Asia/Tbilisi",
    "latitude": 42.21583,
    "longitude": 44.11278
  },
  {
    "city": "Zemo Kedi",
    "city_zh": "Zemo Kedi",
    "country": "Georgia",
    "country_zh": "喬治亞",
    "country_iso_code": "GE",
    "timezone": "Asia/Tbilisi",
    "latitude": 41.42515,
    "longitude": 46.39238
  },
  {
    "city": "Zeda Kardzmani",
    "city_zh": "Zeda Kardzmani",
    "country": "Georgia",
    "country_zh": "喬治亞",
    "country_iso_code": "GE",
    "timezone": "Asia/Tbilisi",
    "latitude": 42.36462,
    "longitude": 43.62882
  },
  {
    "city": "Zemo K’arabulakhi",
    "city_zh": "Zemo K’arabulakhi",
    "country": "Georgia",
    "country_zh": "喬治亞",
    "country_iso_code": "GE",
    "timezone": "Asia/Tbilisi",
    "latitude": 41.41428,
    "longitude": 44.09777
  },
  {
    "city": "Zemo Q’andaura",
    "city_zh": "Zemo Q’andaura",
    "country": "Georgia",
    "country_zh": "喬治亞",
    "country_iso_code": "GE",
    "timezone": "Asia/Tbilisi",
    "latitude": 41.67956,
    "longitude": 45.59036
  },
  {
    "city": "Zemo Ghumurishi",
    "city_zh": "Zemo Ghumurishi",
    "country": "Georgia",
    "country_zh": "喬治亞",
    "country_iso_code": "GE",
    "timezone": "Asia/Tbilisi",
    "latitude": 42.71598,
    "longitude": 41.78782
  },
  {
    "city": "Zemo Gulripshi",
    "city_zh": "Zemo Gulripshi",
    "country": "Georgia",
    "country_zh": "喬治亞",
    "country_iso_code": "GE",
    "timezone": "Asia/Tbilisi",
    "latitude": 42.94916,
    "longitude": 41.13684
  },
  {
    "city": "Ts’ipori",
    "city_zh": "Ts’ipori",
    "country": "Georgia",
    "country_zh": "喬治亞",
    "country_iso_code": "GE",
    "timezone": "Asia/Tbilisi",
    "latitude": 41.43505,
    "longitude": 44.36365
  },
  {
    "city": "Zemo Ghru",
    "city_zh": "Zemo Ghru",
    "country": "Georgia",
    "country_zh": "喬治亞",
    "country_iso_code": "GE",
    "timezone": "Asia/Tbilisi",
    "latitude": 42.21597,
    "longitude": 44.54819
  },
  {
    "city": "Zemo-Goreti",
    "city_zh": "Zemo-Goreti",
    "country": "Georgia",
    "country_zh": "喬治亞",
    "country_iso_code": "GE",
    "timezone": "Asia/Tbilisi",
    "latitude": 42.20583,
    "longitude": 44.19417
  },
  {
    "city": "Zemo Erk’eti",
    "city_zh": "Zemo Erk’eti",
    "country": "Georgia",
    "country_zh": "喬治亞",
    "country_iso_code": "GE",
    "timezone": "Asia/Tbilisi",
    "latitude": 41.98664,
    "longitude": 42.26688
  },
  {
    "city": "Zemo Enteli",
    "city_zh": "Zemo Enteli",
    "country": "Georgia",
    "country_zh": "喬治亞",
    "country_iso_code": "GE",
    "timezone": "Asia/Tbilisi",
    "latitude": 41.68565,
    "longitude": 42.79643
  },
  {
    "city": "Zemo-Jomagha",
    "city_zh": "Zemo-Jomagha",
    "country": "Georgia",
    "country_zh": "喬治亞",
    "country_iso_code": "GE",
    "timezone": "Asia/Tbilisi",
    "latitude": 42.56923,
    "longitude": 44.02048
  },
  {
    "city": "Zemo Joch’o",
    "city_zh": "Zemo Joch’o",
    "country": "Georgia",
    "country_zh": "喬治亞",
    "country_iso_code": "GE",
    "timezone": "Asia/Tbilisi",
    "latitude": 41.57417,
    "longitude": 41.71222
  },
  {
    "city": "Zemo-Dvani",
    "city_zh": "Zemo-Dvani",
    "country": "Georgia",
    "country_zh": "喬治亞",
    "country_iso_code": "GE",
    "timezone": "Asia/Tbilisi",
    "latitude": 42.16968,
    "longitude": 43.86424
  },
  {
    "city": "Zemo-Dodoti",
    "city_zh": "Zemo-Dodoti",
    "country": "Georgia",
    "country_zh": "喬治亞",
    "country_iso_code": "GE",
    "timezone": "Asia/Tbilisi",
    "latitude": 42.26625,
    "longitude": 43.88695
  },
  {
    "city": "Zemo-Desi",
    "city_zh": "Zemo-Desi",
    "country": "Georgia",
    "country_zh": "喬治亞",
    "country_iso_code": "GE",
    "timezone": "Asia/Tbilisi",
    "latitude": 42.6,
    "longitude": 44.35
  },
  {
    "city": "Zemo Chocheti",
    "city_zh": "Zemo Chocheti",
    "country": "Georgia",
    "country_zh": "喬治亞",
    "country_iso_code": "GE",
    "timezone": "Asia/Tbilisi",
    "latitude": 41.89815,
    "longitude": 44.33805
  },
  {
    "city": "Zemo-Chkhortoli",
    "city_zh": "Zemo-Chkhortoli",
    "country": "Georgia",
    "country_zh": "喬治亞",
    "country_iso_code": "GE",
    "timezone": "Asia/Tbilisi",
    "latitude": 42.78333,
    "longitude": 41.73333
  },
  {
    "city": "Zemo Chibati",
    "city_zh": "Zemo Chibati",
    "country": "Georgia",
    "country_zh": "喬治亞",
    "country_iso_code": "GE",
    "timezone": "Asia/Tbilisi",
    "latitude": 42.07458,
    "longitude": 41.98662
  },
  {
    "city": "Bitaga",
    "city_zh": "Bitaga",
    "country": "Georgia",
    "country_zh": "喬治亞",
    "country_iso_code": "GE",
    "timezone": "Asia/Tbilisi",
    "latitude": 43.36126,
    "longitude": 40.85566
  },
  {
    "city": "Zemo Brolosani",
    "city_zh": "Zemo Brolosani",
    "country": "Georgia",
    "country_zh": "喬治亞",
    "country_iso_code": "GE",
    "timezone": "Asia/Tbilisi",
    "latitude": 42.11928,
    "longitude": 43.66727
  },
  {
    "city": "Zemo Boshuri",
    "city_zh": "Zemo Boshuri",
    "country": "Georgia",
    "country_zh": "喬治亞",
    "country_iso_code": "GE",
    "timezone": "Asia/Tbilisi",
    "latitude": 41.8643,
    "longitude": 43.90998
  },
  {
    "city": "Zemo-Bolkvi",
    "city_zh": "Zemo-Bolkvi",
    "country": "Georgia",
    "country_zh": "喬治亞",
    "country_iso_code": "GE",
    "timezone": "Asia/Tbilisi",
    "latitude": 41.85,
    "longitude": 46.03333
  },
  {
    "city": "Zemo Boli",
    "city_zh": "Zemo Boli",
    "country": "Georgia",
    "country_zh": "喬治亞",
    "country_iso_code": "GE",
    "timezone": "Asia/Tbilisi",
    "latitude": 42.12722,
    "longitude": 44.47139
  },
  {
    "city": "Zemo Bodbe",
    "city_zh": "Zemo Bodbe",
    "country": "Georgia",
    "country_zh": "喬治亞",
    "country_iso_code": "GE",
    "timezone": "Asia/Tbilisi",
    "latitude": 41.58488,
    "longitude": 45.91512
  },
  {
    "city": "Zemo Biqari",
    "city_zh": "Zemo Biqari",
    "country": "Georgia",
    "country_zh": "喬治亞",
    "country_iso_code": "GE",
    "timezone": "Asia/Tbilisi",
    "latitude": 42.20319,
    "longitude": 44.28639
  },
  {
    "city": "Zemo Bia",
    "city_zh": "Zemo Bia",
    "country": "Georgia",
    "country_zh": "喬治亞",
    "country_iso_code": "GE",
    "timezone": "Asia/Tbilisi",
    "latitude": 42.33987,
    "longitude": 41.95652
  },
  {
    "city": "Zemo Bari",
    "city_zh": "Zemo Bari",
    "country": "Georgia",
    "country_zh": "喬治亞",
    "country_iso_code": "GE",
    "timezone": "Asia/Tbilisi",
    "latitude": 42.52303,
    "longitude": 43.30327
  },
  {
    "city": "Zemo-Barghebi",
    "city_zh": "Zemo-Barghebi",
    "country": "Georgia",
    "country_zh": "喬治亞",
    "country_iso_code": "GE",
    "timezone": "Asia/Tbilisi",
    "latitude": 42.56661,
    "longitude": 41.65418
  },
  {
    "city": "Zemo Bagebi",
    "city_zh": "Zemo Bagebi",
    "country": "Georgia",
    "country_zh": "喬治亞",
    "country_iso_code": "GE",
    "timezone": "Asia/Tbilisi",
    "latitude": 42.11639,
    "longitude": 44.32097
  },
  {
    "city": "Zemo Azhara",
    "city_zh": "Zemo Azhara",
    "country": "Georgia",
    "country_zh": "喬治亞",
    "country_iso_code": "GE",
    "timezone": "Asia/Tbilisi",
    "latitude": 43.11212,
    "longitude": 41.76688
  },
  {
    "city": "Zemo-Avchala",
    "city_zh": "Zemo-Avchala",
    "country": "Georgia",
    "country_zh": "喬治亞",
    "country_iso_code": "GE",
    "timezone": "Asia/Tbilisi",
    "latitude": 41.81667,
    "longitude": 44.8
  },
  {
    "city": "Zemo Art’ani",
    "city_zh": "Zemo Art’ani",
    "country": "Georgia",
    "country_zh": "喬治亞",
    "country_iso_code": "GE",
    "timezone": "Asia/Tbilisi",
    "latitude": 42.22872,
    "longitude": 45.00268
  },
  {
    "city": "Zemo-Ambreti",
    "city_zh": "Zemo-Ambreti",
    "country": "Georgia",
    "country_zh": "喬治亞",
    "country_iso_code": "GE",
    "timezone": "Asia/Tbilisi",
    "latitude": 42.25167,
    "longitude": 43.84597
  },
  {
    "city": "Zemo Alvani",
    "city_zh": "Zemo Alvani",
    "country": "Georgia",
    "country_zh": "喬治亞",
    "country_iso_code": "GE",
    "timezone": "Asia/Tbilisi",
    "latitude": 42.04444,
    "longitude": 45.30083
  },
  {
    "city": "Zemo Akhk’alapa",
    "city_zh": "Zemo Akhk’alapa",
    "country": "Georgia",
    "country_zh": "喬治亞",
    "country_iso_code": "GE",
    "timezone": "Asia/Tbilisi",
    "latitude": 41.49733,
    "longitude": 44.27408
  },
  {
    "city": "Zemo Akhalsopeli",
    "city_zh": "Zemo Akhalsopeli",
    "country": "Georgia",
    "country_zh": "喬治亞",
    "country_iso_code": "GE",
    "timezone": "Asia/Tbilisi",
    "latitude": 41.79342,
    "longitude": 44.09578
  },
  {
    "city": "Zemo Ak’eti",
    "city_zh": "Zemo Ak’eti",
    "country": "Georgia",
    "country_zh": "喬治亞",
    "country_iso_code": "GE",
    "timezone": "Asia/Tbilisi",
    "latitude": 42.04619,
    "longitude": 42.09492
  },
  {
    "city": "Kveda Agara",
    "city_zh": "Kveda Agara",
    "country": "Georgia",
    "country_zh": "喬治亞",
    "country_iso_code": "GE",
    "timezone": "Asia/Tbilisi",
    "latitude": 41.59847,
    "longitude": 41.8978
  },
  {
    "city": "Zemo Adzvisi",
    "city_zh": "Zemo Adzvisi",
    "country": "Georgia",
    "country_zh": "喬治亞",
    "country_iso_code": "GE",
    "timezone": "Asia/Tbilisi",
    "latitude": 42.04929,
    "longitude": 43.68423
  },
  {
    "city": "Zemo-Achabeti",
    "city_zh": "Zemo-Achabeti",
    "country": "Georgia",
    "country_zh": "喬治亞",
    "country_iso_code": "GE",
    "timezone": "Asia/Tbilisi",
    "latitude": 42.27833,
    "longitude": 43.95667
  },
  {
    "city": "Zemo Abasha",
    "city_zh": "Zemo Abasha",
    "country": "Georgia",
    "country_zh": "喬治亞",
    "country_iso_code": "GE",
    "timezone": "Asia/Tbilisi",
    "latitude": 42.07038,
    "longitude": 42.32035
  },
  {
    "city": "Mts’vane K’ontskhi",
    "city_zh": "Mts’vane K’ontskhi",
    "country": "Georgia",
    "country_zh": "喬治亞",
    "country_iso_code": "GE",
    "timezone": "Asia/Tbilisi",
    "latitude": 41.68722,
    "longitude": 41.70444
  },
  {
    "city": "Zek’ot’a",
    "city_zh": "Zek’ot’a",
    "country": "Georgia",
    "country_zh": "喬治亞",
    "country_iso_code": "GE",
    "timezone": "Asia/Tbilisi",
    "latitude": 42.03815,
    "longitude": 43.53884
  },
  {
    "city": "Zek’ari",
    "city_zh": "Zek’ari",
    "country": "Georgia",
    "country_zh": "喬治亞",
    "country_iso_code": "GE",
    "timezone": "Asia/Tbilisi",
    "latitude": 41.94211,
    "longitude": 42.90826
  },
  {
    "city": "Zeist’echo",
    "city_zh": "Zeist’echo",
    "country": "Georgia",
    "country_zh": "喬治亞",
    "country_iso_code": "GE",
    "timezone": "Asia/Tbilisi",
    "latitude": 42.57133,
    "longitude": 44.95826
  },
  {
    "city": "Zeindari",
    "city_zh": "Zeindari",
    "country": "Georgia",
    "country_zh": "喬治亞",
    "country_iso_code": "GE",
    "timezone": "Asia/Tbilisi",
    "latitude": 42.09361,
    "longitude": 42.67576
  },
  {
    "city": "Zeghduleti",
    "city_zh": "Zeghduleti",
    "country": "Georgia",
    "country_zh": "喬治亞",
    "country_iso_code": "GE",
    "timezone": "Asia/Tbilisi",
    "latitude": 42.0535,
    "longitude": 44.22373
  },
  {
    "city": "Zegarda",
    "city_zh": "Zegarda",
    "country": "Georgia",
    "country_zh": "喬治亞",
    "country_iso_code": "GE",
    "timezone": "Asia/Tbilisi",
    "latitude": 41.98333,
    "longitude": 44.31667
  },
  {
    "city": "Zegani",
    "city_zh": "Zegani",
    "country": "Georgia",
    "country_zh": "喬治亞",
    "country_iso_code": "GE",
    "timezone": "Asia/Tbilisi",
    "latitude": 43.00417,
    "longitude": 42.81377
  },
  {
    "city": "Zegaani",
    "city_zh": "Zegaani",
    "country": "Georgia",
    "country_zh": "喬治亞",
    "country_iso_code": "GE",
    "timezone": "Asia/Tbilisi",
    "latitude": 41.79778,
    "longitude": 45.73306
  },
  {
    "city": "Zedubani",
    "city_zh": "Zedubani",
    "country": "Georgia",
    "country_zh": "喬治亞",
    "country_iso_code": "GE",
    "timezone": "Asia/Tbilisi",
    "latitude": 42.36638,
    "longitude": 43.32445
  },
  {
    "city": "Zedubani",
    "city_zh": "Zedubani",
    "country": "Georgia",
    "country_zh": "喬治亞",
    "country_iso_code": "GE",
    "timezone": "Asia/Tbilisi",
    "latitude": 42.33493,
    "longitude": 42.92095
  },
  {
    "city": "Zedubani",
    "city_zh": "Zedubani",
    "country": "Georgia",
    "country_zh": "喬治亞",
    "country_iso_code": "GE",
    "timezone": "Asia/Tbilisi",
    "latitude": 41.98167,
    "longitude": 41.87611
  },
  {
    "city": "Zedubani",
    "city_zh": "Zedubani",
    "country": "Georgia",
    "country_zh": "喬治亞",
    "country_iso_code": "GE",
    "timezone": "Asia/Tbilisi",
    "latitude": 41.95804,
    "longitude": 43.3041
  },
  {
    "city": "Zedubani",
    "city_zh": "Zedubani",
    "country": "Georgia",
    "country_zh": "喬治亞",
    "country_iso_code": "GE",
    "timezone": "Asia/Tbilisi",
    "latitude": 41.7081,
    "longitude": 42.63655
  },
  {
    "city": "Zedubani",
    "city_zh": "Zedubani",
    "country": "Georgia",
    "country_zh": "喬治亞",
    "country_iso_code": "GE",
    "timezone": "Asia/Tbilisi",
    "latitude": 41.65278,
    "longitude": 45.77944
  },
  {
    "city": "Zeda Zegani",
    "city_zh": "Zeda Zegani",
    "country": "Georgia",
    "country_zh": "喬治亞",
    "country_iso_code": "GE",
    "timezone": "Asia/Tbilisi",
    "latitude": 42.03755,
    "longitude": 42.92503
  },
  {
    "city": "Zeda Vedi",
    "city_zh": "Zeda Vedi",
    "country": "Georgia",
    "country_zh": "喬治亞",
    "country_iso_code": "GE",
    "timezone": "Asia/Tbilisi",
    "latitude": 42.89227,
    "longitude": 42.25997
  },
  {
    "city": "Zeda Vardzia",
    "city_zh": "Zeda Vardzia",
    "country": "Georgia",
    "country_zh": "喬治亞",
    "country_iso_code": "GE",
    "timezone": "Asia/Tbilisi",
    "latitude": 41.38333,
    "longitude": 43.25
  },
  {
    "city": "Zeda Vani",
    "city_zh": "Zeda Vani",
    "country": "Georgia",
    "country_zh": "喬治亞",
    "country_iso_code": "GE",
    "timezone": "Asia/Tbilisi",
    "latitude": 42.0678,
    "longitude": 42.51801
  },
  {
    "city": "Sachino",
    "city_zh": "Sachino",
    "country": "Georgia",
    "country_zh": "喬治亞",
    "country_iso_code": "GE",
    "timezone": "Asia/Tbilisi",
    "latitude": 41.72715,
    "longitude": 41.76089
  },
  {
    "city": "Zeda Uchkhubi",
    "city_zh": "Zeda Uchkhubi",
    "country": "Georgia",
    "country_zh": "喬治亞",
    "country_iso_code": "GE",
    "timezone": "Asia/Tbilisi",
    "latitude": 41.93149,
    "longitude": 42.07108
  },
  {
    "city": "Zeda Ts’virmindi",
    "city_zh": "Zeda Ts’virmindi",
    "country": "Georgia",
    "country_zh": "喬治亞",
    "country_iso_code": "GE",
    "timezone": "Asia/Tbilisi",
    "latitude": 42.94075,
    "longitude": 42.24591
  },
  {
    "city": "Zeda Ts’iplavak’e",
    "city_zh": "Zeda Ts’iplavak’e",
    "country": "Georgia",
    "country_zh": "喬治亞",
    "country_iso_code": "GE",
    "timezone": "Asia/Tbilisi",
    "latitude": 42.11453,
    "longitude": 43.13223
  },
  {
    "city": "Zeda Tsikhesulori",
    "city_zh": "Zeda Tsikhesulori",
    "country": "Georgia",
    "country_zh": "喬治亞",
    "country_iso_code": "GE",
    "timezone": "Asia/Tbilisi",
    "latitude": 42.08307,
    "longitude": 42.49292
  },
  {
    "city": "Zeda Tlughi",
    "city_zh": "Zeda Tlughi",
    "country": "Georgia",
    "country_zh": "喬治亞",
    "country_iso_code": "GE",
    "timezone": "Asia/Tbilisi",
    "latitude": 42.45013,
    "longitude": 43.15006
  },
  {
    "city": "Zemo Sort’a",
    "city_zh": "Zemo Sort’a",
    "country": "Georgia",
    "country_zh": "喬治亞",
    "country_iso_code": "GE",
    "timezone": "Asia/Tbilisi",
    "latitude": 42.30909,
    "longitude": 42.142
  },
  {
    "city": "Zeda Shavra",
    "city_zh": "Zeda Shavra",
    "country": "Georgia",
    "country_zh": "喬治亞",
    "country_iso_code": "GE",
    "timezone": "Asia/Tbilisi",
    "latitude": 42.49947,
    "longitude": 42.98824
  },
  {
    "city": "Zeda Sameba",
    "city_zh": "Zeda Sameba",
    "country": "Georgia",
    "country_zh": "喬治亞",
    "country_iso_code": "GE",
    "timezone": "Asia/Tbilisi",
    "latitude": 41.79611,
    "longitude": 41.87107
  },
  {
    "city": "Zeda Sakara",
    "city_zh": "Zeda Sakara",
    "country": "Georgia",
    "country_zh": "喬治亞",
    "country_iso_code": "GE",
    "timezone": "Asia/Tbilisi",
    "latitude": 42.1439,
    "longitude": 43.06559
  },
  {
    "city": "Zeda Sairme",
    "city_zh": "Zeda Sairme",
    "country": "Georgia",
    "country_zh": "喬治亞",
    "country_iso_code": "GE",
    "timezone": "Asia/Tbilisi",
    "latitude": 42.56062,
    "longitude": 42.88739
  },
  {
    "city": "Zeda Rgani",
    "city_zh": "Zeda Rgani",
    "country": "Georgia",
    "country_zh": "喬治亞",
    "country_iso_code": "GE",
    "timezone": "Asia/Tbilisi",
    "latitude": 42.31049,
    "longitude": 43.27632
  },
  {
    "city": "Zeda Orghuli",
    "city_zh": "Zeda Orghuli",
    "country": "Georgia",
    "country_zh": "喬治亞",
    "country_iso_code": "GE",
    "timezone": "Asia/Tbilisi",
    "latitude": 42.33858,
    "longitude": 43.48666
  },
  {
    "city": "Zeda Onch’eishi",
    "city_zh": "Zeda Onch’eishi",
    "country": "Georgia",
    "country_zh": "喬治亞",
    "country_iso_code": "GE",
    "timezone": "Asia/Tbilisi",
    "latitude": 42.44556,
    "longitude": 42.77
  },
  {
    "city": "Zeda Mukedi",
    "city_zh": "Zeda Mukedi",
    "country": "Georgia",
    "country_zh": "喬治亞",
    "country_iso_code": "GE",
    "timezone": "Asia/Tbilisi",
    "latitude": 42.05954,
    "longitude": 42.46313
  },
  {
    "city": "Zeda Meskheti",
    "city_zh": "Zeda Meskheti",
    "country": "Georgia",
    "country_zh": "喬治亞",
    "country_iso_code": "GE",
    "timezone": "Asia/Tbilisi",
    "latitude": 42.2225,
    "longitude": 42.66458
  },
  {
    "city": "Zeda Makhuntseti",
    "city_zh": "Zeda Makhuntseti",
    "country": "Georgia",
    "country_zh": "喬治亞",
    "country_iso_code": "GE",
    "timezone": "Asia/Tbilisi",
    "latitude": 41.58228,
    "longitude": 41.85715
  },
  {
    "city": "Zeda Maghlak’i",
    "city_zh": "Zeda Maghlak’i",
    "country": "Georgia",
    "country_zh": "喬治亞",
    "country_iso_code": "GE",
    "timezone": "Asia/Tbilisi",
    "latitude": 42.259,
    "longitude": 42.59
  },
  {
    "city": "Zeda Lukhvano",
    "city_zh": "Zeda Lukhvano",
    "country": "Georgia",
    "country_zh": "喬治亞",
    "country_iso_code": "GE",
    "timezone": "Asia/Tbilisi",
    "latitude": 42.64693,
    "longitude": 42.7117
  },
  {
    "city": "Zeda K’virik’e",
    "city_zh": "Zeda K’virik’e",
    "country": "Georgia",
    "country_zh": "喬治亞",
    "country_iso_code": "GE",
    "timezone": "Asia/Tbilisi",
    "latitude": 41.78556,
    "longitude": 41.82667
  },
  {
    "city": "Zeda K’valiti",
    "city_zh": "Zeda K’valiti",
    "country": "Georgia",
    "country_zh": "喬治亞",
    "country_iso_code": "GE",
    "timezone": "Asia/Tbilisi",
    "latitude": 42.07052,
    "longitude": 43.00831
  },
  {
    "city": "Zeda-Kondidi",
    "city_zh": "Zeda-Kondidi",
    "country": "Georgia",
    "country_zh": "喬治亞",
    "country_iso_code": "GE",
    "timezone": "Asia/Tbilisi",
    "latitude": 41.81667,
    "longitude": 41.86667
  },
  {
    "city": "Zeda K’ldeeti",
    "city_zh": "Zeda K’ldeeti",
    "country": "Georgia",
    "country_zh": "喬治亞",
    "country_iso_code": "GE",
    "timezone": "Asia/Tbilisi",
    "latitude": 42.06575,
    "longitude": 43.04046
  },
  {
    "city": "Zeda K’inchkha",
    "city_zh": "Zeda K’inchkha",
    "country": "Georgia",
    "country_zh": "喬治亞",
    "country_iso_code": "GE",
    "timezone": "Asia/Tbilisi",
    "latitude": 42.49878,
    "longitude": 42.56838
  },
  {
    "city": "Zeda Ilemi",
    "city_zh": "Zeda Ilemi",
    "country": "Georgia",
    "country_zh": "喬治亞",
    "country_iso_code": "GE",
    "timezone": "Asia/Tbilisi",
    "latitude": 42.07275,
    "longitude": 43.1146
  },
  {
    "city": "Zeda Ghvirishi",
    "city_zh": "Zeda Ghvirishi",
    "country": "Georgia",
    "country_zh": "喬治亞",
    "country_iso_code": "GE",
    "timezone": "Asia/Tbilisi",
    "latitude": 42.56606,
    "longitude": 42.78413
  },
  {
    "city": "Zeda Ghvardia",
    "city_zh": "Zeda Ghvardia",
    "country": "Georgia",
    "country_zh": "喬治亞",
    "country_iso_code": "GE",
    "timezone": "Asia/Tbilisi",
    "latitude": 42.53624,
    "longitude": 42.89356
  },
  {
    "city": "Zeda Gordi",
    "city_zh": "Zeda Gordi",
    "country": "Georgia",
    "country_zh": "喬治亞",
    "country_iso_code": "GE",
    "timezone": "Asia/Tbilisi",
    "latitude": 42.45914,
    "longitude": 42.52702
  },
  {
    "city": "Zeda Gora",
    "city_zh": "Zeda Gora",
    "country": "Georgia",
    "country_zh": "喬治亞",
    "country_iso_code": "GE",
    "timezone": "Asia/Tbilisi",
    "latitude": 42.05586,
    "longitude": 42.69896
  },
  {
    "city": "Zeda Ets’er-T’obanieri",
    "city_zh": "Zeda Ets’er-T’obanieri",
    "country": "Georgia",
    "country_zh": "喬治亞",
    "country_iso_code": "GE",
    "timezone": "Asia/Tbilisi",
    "latitude": 42.06594,
    "longitude": 42.43499
  },
  {
    "city": "Zeda Ets’eri",
    "city_zh": "Zeda Ets’eri",
    "country": "Georgia",
    "country_zh": "喬治亞",
    "country_iso_code": "GE",
    "timezone": "Asia/Tbilisi",
    "latitude": 42.58957,
    "longitude": 41.93836
  },
  {
    "city": "Zeda Ets’eri",
    "city_zh": "Zeda Ets’eri",
    "country": "Georgia",
    "country_zh": "喬治亞",
    "country_iso_code": "GE",
    "timezone": "Asia/Tbilisi",
    "latitude": 42.08587,
    "longitude": 42.41984
  },
  {
    "city": "Zeda Dzimiti",
    "city_zh": "Zeda Dzimiti",
    "country": "Georgia",
    "country_zh": "喬治亞",
    "country_iso_code": "GE",
    "timezone": "Asia/Tbilisi",
    "latitude": 42.00362,
    "longitude": 42.05237
  },
  {
    "city": "Zeda Dimi",
    "city_zh": "Zeda Dimi",
    "country": "Georgia",
    "country_zh": "喬治亞",
    "country_iso_code": "GE",
    "timezone": "Asia/Tbilisi",
    "latitude": 42.05864,
    "longitude": 42.83511
  },
  {
    "city": "Dagva",
    "city_zh": "Dagva",
    "country": "Georgia",
    "country_zh": "喬治亞",
    "country_iso_code": "GE",
    "timezone": "Asia/Tbilisi",
    "latitude": 41.75222,
    "longitude": 41.81389
  },
  {
    "city": "Zeda Ch’q’vishi",
    "city_zh": "Zeda Ch’q’vishi",
    "country": "Georgia",
    "country_zh": "喬治亞",
    "country_iso_code": "GE",
    "timezone": "Asia/Tbilisi",
    "latitude": 42.5746,
    "longitude": 42.92495
  },
  {
    "city": "Zeda Chkhut’uneti",
    "city_zh": "Zeda Chkhut’uneti",
    "country": "Georgia",
    "country_zh": "喬治亞",
    "country_iso_code": "GE",
    "timezone": "Asia/Tbilisi",
    "latitude": 41.49043,
    "longitude": 41.858
  },
  {
    "city": "Zeda Ch’q’ep’i",
    "city_zh": "Zeda Ch’q’ep’i",
    "country": "Georgia",
    "country_zh": "喬治亞",
    "country_iso_code": "GE",
    "timezone": "Asia/Tbilisi",
    "latitude": 42.33358,
    "longitude": 42.82836
  },
  {
    "city": "Zeda Ch’alovani",
    "city_zh": "Zeda Ch’alovani",
    "country": "Georgia",
    "country_zh": "喬治亞",
    "country_iso_code": "GE",
    "timezone": "Asia/Tbilisi",
    "latitude": 42.3726,
    "longitude": 43.25845
  },
  {
    "city": "Zeda Bzvani",
    "city_zh": "Zeda Bzvani",
    "country": "Georgia",
    "country_zh": "喬治亞",
    "country_iso_code": "GE",
    "timezone": "Asia/Tbilisi",
    "latitude": 42.06299,
    "longitude": 42.60578
  },
  {
    "city": "Zeda Bzubzu",
    "city_zh": "Zeda Bzubzu",
    "country": "Georgia",
    "country_zh": "喬治亞",
    "country_iso_code": "GE",
    "timezone": "Asia/Tbilisi",
    "latitude": 41.55167,
    "longitude": 41.84111
  },
  {
    "city": "Zeda Beretisa",
    "city_zh": "Zeda Beretisa",
    "country": "Georgia",
    "country_zh": "喬治亞",
    "country_iso_code": "GE",
    "timezone": "Asia/Tbilisi",
    "latitude": 42.19722,
    "longitude": 43.40222
  },
  {
    "city": "Zeda Bashi",
    "city_zh": "Zeda Bashi",
    "country": "Georgia",
    "country_zh": "喬治亞",
    "country_iso_code": "GE",
    "timezone": "Asia/Tbilisi",
    "latitude": 42.16606,
    "longitude": 42.49288
  },
  {
    "city": "Zeda Bakhvi",
    "city_zh": "Zeda Bakhvi",
    "country": "Georgia",
    "country_zh": "喬治亞",
    "country_iso_code": "GE",
    "timezone": "Asia/Tbilisi",
    "latitude": 41.94729,
    "longitude": 42.1117
  },
  {
    "city": "Zeda Alisubani",
    "city_zh": "Zeda Alisubani",
    "country": "Georgia",
    "country_zh": "喬治亞",
    "country_iso_code": "GE",
    "timezone": "Asia/Tbilisi",
    "latitude": 42.25953,
    "longitude": 43.02793
  },
  {
    "city": "Zeda Akhalsheni",
    "city_zh": "Zeda Akhalsheni",
    "country": "Georgia",
    "country_zh": "喬治亞",
    "country_iso_code": "GE",
    "timezone": "Asia/Tbilisi",
    "latitude": 41.6183,
    "longitude": 41.7147
  },
  {
    "city": "Zeda Aghvi",
    "city_zh": "Zeda Aghvi",
    "country": "Georgia",
    "country_zh": "喬治亞",
    "country_iso_code": "GE",
    "timezone": "Asia/Tbilisi",
    "latitude": 42.57313,
    "longitude": 42.7246
  },
  {
    "city": "Zeda Ach’q’va",
    "city_zh": "Zeda Ach’q’va",
    "country": "Georgia",
    "country_zh": "喬治亞",
    "country_iso_code": "GE",
    "timezone": "Asia/Tbilisi",
    "latitude": 41.73722,
    "longitude": 41.77333
  },
  {
    "city": "Zarzma",
    "city_zh": "Zarzma",
    "country": "Georgia",
    "country_zh": "喬治亞",
    "country_iso_code": "GE",
    "timezone": "Asia/Tbilisi",
    "latitude": 41.67806,
    "longitude": 42.6527
  },
  {
    "city": "Zarnadzeebi",
    "city_zh": "Zarnadzeebi",
    "country": "Georgia",
    "country_zh": "喬治亞",
    "country_iso_code": "GE",
    "timezone": "Asia/Tbilisi",
    "latitude": 42.24553,
    "longitude": 43.00999
  },
  {
    "city": "Zaridzeebi",
    "city_zh": "Zaridzeebi",
    "country": "Georgia",
    "country_zh": "喬治亞",
    "country_iso_code": "GE",
    "timezone": "Asia/Tbilisi",
    "latitude": 42.13681,
    "longitude": 44.8925
  },
  {
    "city": "Zardlashi",
    "city_zh": "Zardlashi",
    "country": "Georgia",
    "country_zh": "喬治亞",
    "country_iso_code": "GE",
    "timezone": "Asia/Tbilisi",
    "latitude": 43.05331,
    "longitude": 42.78294
  },
  {
    "city": "Zardiantkari",
    "city_zh": "Zardiantkari",
    "country": "Georgia",
    "country_zh": "喬治亞",
    "country_iso_code": "GE",
    "timezone": "Asia/Tbilisi",
    "latitude": 42.23903,
    "longitude": 44.08764
  },
  {
    "city": "Zarati",
    "city_zh": "Zarati",
    "country": "Georgia",
    "country_zh": "喬治亞",
    "country_iso_code": "GE",
    "timezone": "Asia/Tbilisi",
    "latitude": 42.35646,
    "longitude": 42.71972
  },
  {
    "city": "Zarani",
    "city_zh": "Zarani",
    "country": "Georgia",
    "country_zh": "喬治亞",
    "country_iso_code": "GE",
    "timezone": "Asia/Tbilisi",
    "latitude": 42.00527,
    "longitude": 43.23157
  },
  {
    "city": "Zaragula",
    "city_zh": "Zaragula",
    "country": "Georgia",
    "country_zh": "喬治亞",
    "country_iso_code": "GE",
    "timezone": "Asia/Tbilisi",
    "latitude": 42.62592,
    "longitude": 42.71348
  },
  {
    "city": "Zanduk’i",
    "city_zh": "Zanduk’i",
    "country": "Georgia",
    "country_zh": "喬治亞",
    "country_iso_code": "GE",
    "timezone": "Asia/Tbilisi",
    "latitude": 42.422,
    "longitude": 44.75069
  },
  {
    "city": "Zanavi",
    "city_zh": "Zanavi",
    "country": "Georgia",
    "country_zh": "喬治亞",
    "country_iso_code": "GE",
    "timezone": "Asia/Tbilisi",
    "latitude": 41.89271,
    "longitude": 43.43167
  },
  {
    "city": "Zanavi",
    "city_zh": "Zanavi",
    "country": "Georgia",
    "country_zh": "喬治亞",
    "country_iso_code": "GE",
    "timezone": "Asia/Tbilisi",
    "latitude": 41.69444,
    "longitude": 42.72711
  },
  {
    "city": "Zana",
    "city_zh": "Zana",
    "country": "Georgia",
    "country_zh": "喬治亞",
    "country_iso_code": "GE",
    "timezone": "Asia/Tbilisi",
    "latitude": 42.39046,
    "longitude": 42.08517
  },
  {
    "city": "Zamtareti",
    "city_zh": "Zamtareti",
    "country": "Georgia",
    "country_zh": "喬治亞",
    "country_iso_code": "GE",
    "timezone": "Asia/Tbilisi",
    "latitude": 42.48635,
    "longitude": 43.75391
  },
  {
    "city": "Zamleti",
    "city_zh": "Zamleti",
    "country": "Georgia",
    "country_zh": "喬治亞",
    "country_iso_code": "GE",
    "timezone": "Asia/Tbilisi",
    "latitude": 41.62889,
    "longitude": 42.26278
  },
  {
    "city": "Zalda",
    "city_zh": "Zalda",
    "country": "Georgia",
    "country_zh": "喬治亞",
    "country_iso_code": "GE",
    "timezone": "Asia/Tbilisi",
    "latitude": 42.33808,
    "longitude": 43.97355
  },
  {
    "city": "Zak’vi",
    "city_zh": "Zak’vi",
    "country": "Georgia",
    "country_zh": "喬治亞",
    "country_iso_code": "GE",
    "timezone": "Asia/Tbilisi",
    "latitude": 41.50497,
    "longitude": 43.50303
  },
  {
    "city": "Zakharovka",
    "city_zh": "Zakharovka",
    "country": "Georgia",
    "country_zh": "喬治亞",
    "country_iso_code": "GE",
    "timezone": "Asia/Tbilisi",
    "latitude": 43.03333,
    "longitude": 41.31667
  },
  {
    "city": "Zakatk’ari",
    "city_zh": "Zakatk’ari",
    "country": "Georgia",
    "country_zh": "喬治亞",
    "country_iso_code": "GE",
    "timezone": "Asia/Tbilisi",
    "latitude": 42.4404,
    "longitude": 44.52095
  },
  {
    "city": "Zakaro",
    "city_zh": "Zakaro",
    "country": "Georgia",
    "country_zh": "喬治亞",
    "country_iso_code": "GE",
    "timezone": "Asia/Tbilisi",
    "latitude": 41.90917,
    "longitude": 44.83126
  },
  {
    "city": "Zahesi",
    "city_zh": "Zahesi",
    "country": "Georgia",
    "country_zh": "喬治亞",
    "country_iso_code": "GE",
    "timezone": "Asia/Tbilisi",
    "latitude": 41.82458,
    "longitude": 44.75361
  },
  {
    "city": "Zagari",
    "city_zh": "Zagari",
    "country": "Georgia",
    "country_zh": "喬治亞",
    "country_iso_code": "GE",
    "timezone": "Asia/Tbilisi",
    "latitude": 43.05076,
    "longitude": 42.49829
  },
  {
    "city": "Zagani",
    "city_zh": "Zagani",
    "country": "Georgia",
    "country_zh": "喬治亞",
    "country_iso_code": "GE",
    "timezone": "Asia/Tbilisi",
    "latitude": 42.81132,
    "longitude": 41.56278
  },
  {
    "city": "Zadiantkari",
    "city_zh": "Zadiantkari",
    "country": "Georgia",
    "country_zh": "喬治亞",
    "country_iso_code": "GE",
    "timezone": "Asia/Tbilisi",
    "latitude": 42.03917,
    "longitude": 44.34222
  },
  {
    "city": "Yur’yevka",
    "city_zh": "Yur’yevka",
    "country": "Georgia",
    "country_zh": "喬治亞",
    "country_iso_code": "GE",
    "timezone": "Asia/Tbilisi",
    "latitude": 43.0,
    "longitude": 41.23333
  },
  {
    "city": "Yertoba",
    "city_zh": "Yertoba",
    "country": "Georgia",
    "country_zh": "喬治亞",
    "country_iso_code": "GE",
    "timezone": "Asia/Tbilisi",
    "latitude": 41.46667,
    "longitude": 45.08333
  },
  {
    "city": "Erinja",
    "city_zh": "Erinja",
    "country": "Georgia",
    "country_zh": "喬治亞",
    "country_iso_code": "GE",
    "timezone": "Asia/Tbilisi",
    "latitude": 41.28928,
    "longitude": 43.2816
  },
  {
    "city": "Enik’endi",
    "city_zh": "Enik’endi",
    "country": "Georgia",
    "country_zh": "喬治亞",
    "country_iso_code": "GE",
    "timezone": "Asia/Tbilisi",
    "latitude": 41.35731,
    "longitude": 44.88884
  },
  {
    "city": "Yeltura",
    "city_zh": "Yeltura",
    "country": "Georgia",
    "country_zh": "喬治亞",
    "country_iso_code": "GE",
    "timezone": "Asia/Tbilisi",
    "latitude": 42.3165,
    "longitude": 44.11356
  },
  {
    "city": "Yeloiani",
    "city_zh": "Yeloiani",
    "country": "Georgia",
    "country_zh": "喬治亞",
    "country_iso_code": "GE",
    "timezone": "Asia/Tbilisi",
    "latitude": 42.32,
    "longitude": 44.44278
  },
  {
    "city": "Yelbakita",
    "city_zh": "Yelbakita",
    "country": "Georgia",
    "country_zh": "喬治亞",
    "country_iso_code": "GE",
    "timezone": "Asia/Tbilisi",
    "latitude": 42.42843,
    "longitude": 44.0061
  },
  {
    "city": "Yefteluk",
    "city_zh": "Yefteluk",
    "country": "Georgia",
    "country_zh": "喬治亞",
    "country_iso_code": "GE",
    "timezone": "Asia/Tbilisi",
    "latitude": 43.06667,
    "longitude": 41.26667
  },
  {
    "city": "Epremovk’a",
    "city_zh": "Epremovk’a",
    "country": "Georgia",
    "country_zh": "喬治亞",
    "country_iso_code": "GE",
    "timezone": "Asia/Tbilisi",
    "latitude": 41.19089,
    "longitude": 43.74344
  },
  {
    "city": "Edisa",
    "city_zh": "Edisa",
    "country": "Georgia",
    "country_zh": "喬治亞",
    "country_iso_code": "GE",
    "timezone": "Asia/Tbilisi",
    "latitude": 42.5384,
    "longitude": 44.21447
  },
  {
    "city": "Saq’drioni",
    "city_zh": "Saq’drioni",
    "country": "Georgia",
    "country_zh": "喬治亞",
    "country_iso_code": "GE",
    "timezone": "Asia/Tbilisi",
    "latitude": 41.58968,
    "longitude": 43.93141
  },
  {
    "city": "Vuallag-Khvtse",
    "city_zh": "Vuallag-Khvtse",
    "country": "Georgia",
    "country_zh": "喬治亞",
    "country_iso_code": "GE",
    "timezone": "Asia/Tbilisi",
    "latitude": 42.41833,
    "longitude": 43.94917
  },
  {
    "city": "Vuallag-Gudisi",
    "city_zh": "Vuallag-Gudisi",
    "country": "Georgia",
    "country_zh": "喬治亞",
    "country_iso_code": "GE",
    "timezone": "Asia/Tbilisi",
    "latitude": 42.40083,
    "longitude": 44.14778
  },
  {
    "city": "Vuallag-Erman",
    "city_zh": "Vuallag-Erman",
    "country": "Georgia",
    "country_zh": "喬治亞",
    "country_iso_code": "GE",
    "timezone": "Asia/Tbilisi",
    "latitude": 42.51194,
    "longitude": 44.26722
  },
  {
    "city": "Vtoroy Arasadzykh",
    "city_zh": "Vtoroy Arasadzykh",
    "country": "Georgia",
    "country_zh": "喬治亞",
    "country_iso_code": "GE",
    "timezone": "Asia/Tbilisi",
    "latitude": 42.89674,
    "longitude": 41.58867
  },
  {
    "city": "Volodarskoye",
    "city_zh": "Volodarskoye",
    "country": "Georgia",
    "country_zh": "喬治亞",
    "country_iso_code": "GE",
    "timezone": "Asia/Tbilisi",
    "latitude": 43.00403,
    "longitude": 41.05512
  },
  {
    "city": "Vladimirovka",
    "city_zh": "Vladimirovka",
    "country": "Georgia",
    "country_zh": "喬治亞",
    "country_iso_code": "GE",
    "timezone": "Asia/Tbilisi",
    "latitude": 42.88903,
    "longitude": 41.23043
  },
  {
    "city": "Vladimirovk’a",
    "city_zh": "Vladimirovk’a",
    "country": "Georgia",
    "country_zh": "喬治亞",
    "country_iso_code": "GE",
    "timezone": "Asia/Tbilisi",
    "latitude": 41.41304,
    "longitude": 43.76935
  },
  {
    "city": "Vizirovk’a",
    "city_zh": "Vizirovk’a",
    "country": "Georgia",
    "country_zh": "喬治亞",
    "country_iso_code": "GE",
    "timezone": "Asia/Tbilisi",
    "latitude": 41.58555,
    "longitude": 44.32003
  },
  {
    "city": "Vichnashi",
    "city_zh": "Vichnashi",
    "country": "Georgia",
    "country_zh": "喬治亞",
    "country_iso_code": "GE",
    "timezone": "Asia/Tbilisi",
    "latitude": 42.94344,
    "longitude": 42.90275
  },
  {
    "city": "Vezuri",
    "city_zh": "Vezuri",
    "country": "Georgia",
    "country_zh": "喬治亞",
    "country_iso_code": "GE",
    "timezone": "Asia/Tbilisi",
    "latitude": 42.54191,
    "longitude": 43.71916
  },
  {
    "city": "Vedzatkhevi",
    "city_zh": "Vedzatkhevi",
    "country": "Georgia",
    "country_zh": "喬治亞",
    "country_iso_code": "GE",
    "timezone": "Asia/Tbilisi",
    "latitude": 41.95917,
    "longitude": 44.99056
  },
  {
    "city": "Vest’omta",
    "city_zh": "Vest’omta",
    "country": "Georgia",
    "country_zh": "喬治亞",
    "country_iso_code": "GE",
    "timezone": "Asia/Tbilisi",
    "latitude": 42.37861,
    "longitude": 45.52444
  },
  {
    "city": "Vest’mo",
    "city_zh": "Vest’mo",
    "country": "Georgia",
    "country_zh": "喬治亞",
    "country_iso_code": "GE",
    "timezone": "Asia/Tbilisi",
    "latitude": 42.37667,
    "longitude": 45.51167
  },
  {
    "city": "Veshagurni",
    "city_zh": "Veshagurni",
    "country": "Georgia",
    "country_zh": "喬治亞",
    "country_iso_code": "GE",
    "timezone": "Asia/Tbilisi",
    "latitude": 42.32833,
    "longitude": 44.63167
  },
  {
    "city": "Vesiolovk’a",
    "city_zh": "Vesiolovk’a",
    "country": "Georgia",
    "country_zh": "喬治亞",
    "country_iso_code": "GE",
    "timezone": "Asia/Tbilisi",
    "latitude": 43.1369,
    "longitude": 40.80552
  },
  {
    "city": "Vert’q’vila",
    "city_zh": "Vert’q’vila",
    "country": "Georgia",
    "country_zh": "喬治亞",
    "country_iso_code": "GE",
    "timezone": "Asia/Tbilisi",
    "latitude": 42.11242,
    "longitude": 43.33268
  },
  {
    "city": "Vert’q’vich’ala",
    "city_zh": "Vert’q’vich’ala",
    "country": "Georgia",
    "country_zh": "喬治亞",
    "country_iso_code": "GE",
    "timezone": "Asia/Tbilisi",
    "latitude": 42.10617,
    "longitude": 43.33103
  },
  {
    "city": "Verona",
    "city_zh": "Verona",
    "country": "Georgia",
    "country_zh": "喬治亞",
    "country_iso_code": "GE",
    "timezone": "Asia/Tbilisi",
    "latitude": 41.8523,
    "longitude": 45.24407
  },
  {
    "city": "Vernebi",
    "city_zh": "Vernebi",
    "country": "Georgia",
    "country_zh": "喬治亞",
    "country_iso_code": "GE",
    "timezone": "Asia/Tbilisi",
    "latitude": 41.55864,
    "longitude": 42.43321
  },
  {
    "city": "Verkhvis Mindori",
    "city_zh": "Verkhvis Mindori",
    "country": "Georgia",
    "country_zh": "喬治亞",
    "country_iso_code": "GE",
    "timezone": "Asia/Tbilisi",
    "latitude": 41.81472,
    "longitude": 46.04833
  },
  {
    "city": "Verkhveli",
    "city_zh": "Verkhveli",
    "country": "Georgia",
    "country_zh": "喬治亞",
    "country_iso_code": "GE",
    "timezone": "Asia/Tbilisi",
    "latitude": 42.17195,
    "longitude": 44.9118
  },
  {
    "city": "Verkhvani",
    "city_zh": "Verkhvani",
    "country": "Georgia",
    "country_zh": "喬治亞",
    "country_iso_code": "GE",
    "timezone": "Asia/Tbilisi",
    "latitude": 42.03756,
    "longitude": 42.41522
  },
  {
    "city": "Verkhovani",
    "city_zh": "Verkhovani",
    "country": "Georgia",
    "country_zh": "喬治亞",
    "country_iso_code": "GE",
    "timezone": "Asia/Tbilisi",
    "latitude": 42.42677,
    "longitude": 45.49364
  },
  {
    "city": "Zemo Eshera",
    "city_zh": "Zemo Eshera",
    "country": "Georgia",
    "country_zh": "喬治亞",
    "country_iso_code": "GE",
    "timezone": "Asia/Tbilisi",
    "latitude": 43.0747,
    "longitude": 40.87855
  },
  {
    "city": "Verkhniye Tsinubani",
    "city_zh": "Verkhniye Tsinubani",
    "country": "Georgia",
    "country_zh": "喬治亞",
    "country_iso_code": "GE",
    "timezone": "Asia/Tbilisi",
    "latitude": 42.11444,
    "longitude": 45.31056
  },
  {
    "city": "Verkhniye Sochi",
    "city_zh": "Verkhniye Sochi",
    "country": "Georgia",
    "country_zh": "喬治亞",
    "country_iso_code": "GE",
    "timezone": "Asia/Tbilisi",
    "latitude": 42.33389,
    "longitude": 44.15
  },
  {
    "city": "Verkhniye Laty",
    "city_zh": "Verkhniye Laty",
    "country": "Georgia",
    "country_zh": "喬治亞",
    "country_iso_code": "GE",
    "timezone": "Asia/Tbilisi",
    "latitude": 43.03333,
    "longitude": 41.48333
  },
  {
    "city": "Verkhniye Kharauli",
    "city_zh": "Verkhniye Kharauli",
    "country": "Georgia",
    "country_zh": "喬治亞",
    "country_iso_code": "GE",
    "timezone": "Asia/Tbilisi",
    "latitude": 42.21528,
    "longitude": 44.28528
  },
  {
    "city": "Verkhniye Gezruli",
    "city_zh": "Verkhniye Gezruli",
    "country": "Georgia",
    "country_zh": "喬治亞",
    "country_iso_code": "GE",
    "timezone": "Asia/Tbilisi",
    "latitude": 42.18032,
    "longitude": 43.2253
  },
  {
    "city": "Verkhniy Apiancha",
    "city_zh": "Verkhniy Apiancha",
    "country": "Georgia",
    "country_zh": "喬治亞",
    "country_iso_code": "GE",
    "timezone": "Asia/Tbilisi",
    "latitude": 42.96667,
    "longitude": 41.25
  },
  {
    "city": "Velura",
    "city_zh": "Velura",
    "country": "Georgia",
    "country_zh": "喬治亞",
    "country_iso_code": "GE",
    "timezone": "Asia/Tbilisi",
    "latitude": 42.11223,
    "longitude": 44.37903
  },
  {
    "city": "Veltaurtk’ari",
    "city_zh": "Veltaurtk’ari",
    "country": "Georgia",
    "country_zh": "喬治亞",
    "country_iso_code": "GE",
    "timezone": "Asia/Tbilisi",
    "latitude": 42.12212,
    "longitude": 44.67224
  },
  {
    "city": "Velistsikhe",
    "city_zh": "Velistsikhe",
    "country": "Georgia",
    "country_zh": "喬治亞",
    "country_iso_code": "GE",
    "timezone": "Asia/Tbilisi",
    "latitude": 41.90437,
    "longitude": 43.84237
  },
  {
    "city": "Velistsikhe",
    "city_zh": "Velistsikhe",
    "country": "Georgia",
    "country_zh": "喬治亞",
    "country_iso_code": "GE",
    "timezone": "Asia/Tbilisi",
    "latitude": 41.80861,
    "longitude": 45.75945
  },
  {
    "city": "Velisp’iri",
    "city_zh": "Velisp’iri",
    "country": "Georgia",
    "country_zh": "喬治亞",
    "country_iso_code": "GE",
    "timezone": "Asia/Tbilisi",
    "latitude": 41.47707,
    "longitude": 44.10423
  },
  {
    "city": "Velisa",
    "city_zh": "Velisa",
    "country": "Georgia",
    "country_zh": "喬治亞",
    "country_iso_code": "GE",
    "timezone": "Asia/Tbilisi",
    "latitude": 42.35753,
    "longitude": 44.41221
  },
  {
    "city": "Veli",
    "city_zh": "Veli",
    "country": "Georgia",
    "country_zh": "喬治亞",
    "country_iso_code": "GE",
    "timezone": "Asia/Tbilisi",
    "latitude": 43.41552,
    "longitude": 40.14488
  },
  {
    "city": "Veleyebi",
    "city_zh": "Veleyebi",
    "country": "Georgia",
    "country_zh": "喬治亞",
    "country_iso_code": "GE",
    "timezone": "Asia/Tbilisi",
    "latitude": 42.16242,
    "longitude": 43.85148
  },
  {
    "city": "Velevi",
    "city_zh": "Velevi",
    "country": "Georgia",
    "country_zh": "喬治亞",
    "country_iso_code": "GE",
    "timezone": "Asia/Tbilisi",
    "latitude": 42.46122,
    "longitude": 43.18405
  },
  {
    "city": "Velebi",
    "city_zh": "Velebi",
    "country": "Georgia",
    "country_zh": "喬治亞",
    "country_iso_code": "GE",
    "timezone": "Asia/Tbilisi",
    "latitude": 41.89758,
    "longitude": 44.14232
  },
  {
    "city": "Vedziskhevi",
    "city_zh": "Vedziskhevi",
    "country": "Georgia",
    "country_zh": "喬治亞",
    "country_iso_code": "GE",
    "timezone": "Asia/Tbilisi",
    "latitude": 42.41832,
    "longitude": 45.48444
  },
  {
    "city": "Vejini",
    "city_zh": "Vejini",
    "country": "Georgia",
    "country_zh": "喬治亞",
    "country_iso_code": "GE",
    "timezone": "Asia/Tbilisi",
    "latitude": 41.71043,
    "longitude": 45.8303
  },
  {
    "city": "Vedzebi",
    "city_zh": "Vedzebi",
    "country": "Georgia",
    "country_zh": "喬治亞",
    "country_iso_code": "GE",
    "timezone": "Asia/Tbilisi",
    "latitude": 42.04797,
    "longitude": 45.08004
  },
  {
    "city": "Vedzatkhevi",
    "city_zh": "Vedzatkhevi",
    "country": "Georgia",
    "country_zh": "喬治亞",
    "country_iso_code": "GE",
    "timezone": "Asia/Tbilisi",
    "latitude": 42.13153,
    "longitude": 44.66708
  },
  {
    "city": "Vedzatkheva",
    "city_zh": "Vedzatkheva",
    "country": "Georgia",
    "country_zh": "喬治亞",
    "country_iso_code": "GE",
    "timezone": "Asia/Tbilisi",
    "latitude": 41.95917,
    "longitude": 44.99056
  },
  {
    "city": "Vedreba",
    "city_zh": "Vedreba",
    "country": "Georgia",
    "country_zh": "喬治亞",
    "country_iso_code": "GE",
    "timezone": "Asia/Tbilisi",
    "latitude": 41.98287,
    "longitude": 43.8188
  },
  {
    "city": "Vedidk’ari",
    "city_zh": "Vedidk’ari",
    "country": "Georgia",
    "country_zh": "喬治亞",
    "country_iso_code": "GE",
    "timezone": "Asia/Tbilisi",
    "latitude": 42.33013,
    "longitude": 42.27214
  },
  {
    "city": "Vazisubani",
    "city_zh": "Vazisubani",
    "country": "Georgia",
    "country_zh": "喬治亞",
    "country_iso_code": "GE",
    "timezone": "Asia/Tbilisi",
    "latitude": 41.82458,
    "longitude": 45.69458
  },
  {
    "city": "Vaziani",
    "city_zh": "Vaziani",
    "country": "Georgia",
    "country_zh": "喬治亞",
    "country_iso_code": "GE",
    "timezone": "Asia/Tbilisi",
    "latitude": 41.96639,
    "longitude": 44.56753
  },
  {
    "city": "Vasht’iali",
    "city_zh": "Vasht’iali",
    "country": "Georgia",
    "country_zh": "喬治亞",
    "country_iso_code": "GE",
    "timezone": "Asia/Tbilisi",
    "latitude": 41.88333,
    "longitude": 41.98333
  },
  {
    "city": "Vashlovani",
    "city_zh": "Vashlovani",
    "country": "Georgia",
    "country_zh": "喬治亞",
    "country_iso_code": "GE",
    "timezone": "Asia/Tbilisi",
    "latitude": 42.10234,
    "longitude": 44.47331
  },
  {
    "city": "Kvemo Vashlovani",
    "city_zh": "Kvemo Vashlovani",
    "country": "Georgia",
    "country_zh": "喬治亞",
    "country_iso_code": "GE",
    "timezone": "Asia/Tbilisi",
    "latitude": 41.64626,
    "longitude": 42.27884
  },
  {
    "city": "Vashlovani",
    "city_zh": "Vashlovani",
    "country": "Georgia",
    "country_zh": "喬治亞",
    "country_iso_code": "GE",
    "timezone": "Asia/Tbilisi",
    "latitude": 41.61865,
    "longitude": 44.742
  },
  {
    "city": "Vashlobi",
    "city_zh": "Vashlobi",
    "country": "Georgia",
    "country_zh": "喬治亞",
    "country_iso_code": "GE",
    "timezone": "Asia/Tbilisi",
    "latitude": 42.29222,
    "longitude": 44.72889
  },
  {
    "city": "Vashliani",
    "city_zh": "Vashliani",
    "country": "Georgia",
    "country_zh": "喬治亞",
    "country_iso_code": "GE",
    "timezone": "Asia/Tbilisi",
    "latitude": 41.89067,
    "longitude": 45.16278
  },
  {
    "city": "Vashlevi",
    "city_zh": "Vashlevi",
    "country": "Georgia",
    "country_zh": "喬治亞",
    "country_iso_code": "GE",
    "timezone": "Asia/Tbilisi",
    "latitude": 42.12972,
    "longitude": 43.31156
  },
  {
    "city": "Vashaq’madzeebi",
    "city_zh": "Vashaq’madzeebi",
    "country": "Georgia",
    "country_zh": "喬治亞",
    "country_iso_code": "GE",
    "timezone": "Asia/Tbilisi",
    "latitude": 41.70171,
    "longitude": 42.37553
  },
  {
    "city": "Varjanauli",
    "city_zh": "Varjanauli",
    "country": "Georgia",
    "country_zh": "喬治亞",
    "country_iso_code": "GE",
    "timezone": "Asia/Tbilisi",
    "latitude": 41.78444,
    "longitude": 41.95667
  },
  {
    "city": "Vartsla",
    "city_zh": "Vartsla",
    "country": "Georgia",
    "country_zh": "喬治亞",
    "country_iso_code": "GE",
    "timezone": "Asia/Tbilisi",
    "latitude": 42.10843,
    "longitude": 44.84896
  },
  {
    "city": "Vartsikhe",
    "city_zh": "Vartsikhe",
    "country": "Georgia",
    "country_zh": "喬治亞",
    "country_iso_code": "GE",
    "timezone": "Asia/Tbilisi",
    "latitude": 42.14219,
    "longitude": 42.71601
  },
  {
    "city": "Varsimaani",
    "city_zh": "Varsimaani",
    "country": "Georgia",
    "country_zh": "喬治亞",
    "country_iso_code": "GE",
    "timezone": "Asia/Tbilisi",
    "latitude": 42.05,
    "longitude": 44.71667
  },
  {
    "city": "Varneti",
    "city_zh": "Varneti",
    "country": "Georgia",
    "country_zh": "喬治亞",
    "country_iso_code": "GE",
    "timezone": "Asia/Tbilisi",
    "latitude": 41.31667,
    "longitude": 43.18333
  },
  {
    "city": "Varkhuno",
    "city_zh": "Varkhuno",
    "country": "Georgia",
    "country_zh": "喬治亞",
    "country_iso_code": "GE",
    "timezone": "Asia/Tbilisi",
    "latitude": 41.55,
    "longitude": 44.45
  },
  {
    "city": "Varkhani",
    "city_zh": "Varkhani",
    "country": "Georgia",
    "country_zh": "喬治亞",
    "country_iso_code": "GE",
    "timezone": "Asia/Tbilisi",
    "latitude": 41.69268,
    "longitude": 42.84308
  },
  {
    "city": "Variani",
    "city_zh": "Variani",
    "country": "Georgia",
    "country_zh": "喬治亞",
    "country_iso_code": "GE",
    "timezone": "Asia/Tbilisi",
    "latitude": 42.07434,
    "longitude": 44.02988
  },
  {
    "city": "Vargavi",
    "city_zh": "Vargavi",
    "country": "Georgia",
    "country_zh": "喬治亞",
    "country_iso_code": "GE",
    "timezone": "Asia/Tbilisi",
    "latitude": 41.51377,
    "longitude": 43.35138
  },
  {
    "city": "Varevani",
    "city_zh": "Varevani",
    "country": "Georgia",
    "country_zh": "喬治亞",
    "country_iso_code": "GE",
    "timezone": "Asia/Tbilisi",
    "latitude": 41.51619,
    "longitude": 43.39281
  },
  {
    "city": "Vardzia",
    "city_zh": "Vardzia",
    "country": "Georgia",
    "country_zh": "喬治亞",
    "country_iso_code": "GE",
    "timezone": "Asia/Tbilisi",
    "latitude": 42.02813,
    "longitude": 43.10788
  },
  {
    "city": "Varjanauli",
    "city_zh": "Varjanauli",
    "country": "Georgia",
    "country_zh": "喬治亞",
    "country_iso_code": "GE",
    "timezone": "Asia/Tbilisi",
    "latitude": 41.6775,
    "longitude": 42.16233
  },
  {
    "city": "Vardisubani",
    "city_zh": "Vardisubani",
    "country": "Georgia",
    "country_zh": "喬治亞",
    "country_iso_code": "GE",
    "timezone": "Asia/Tbilisi",
    "latitude": 42.60061,
    "longitude": 44.58539
  },
  {
    "city": "Vardisubani",
    "city_zh": "Vardisubani",
    "country": "Georgia",
    "country_zh": "喬治亞",
    "country_iso_code": "GE",
    "timezone": "Asia/Tbilisi",
    "latitude": 41.93221,
    "longitude": 45.44424
  },
  {
    "city": "Vardisubani",
    "city_zh": "Vardisubani",
    "country": "Georgia",
    "country_zh": "喬治亞",
    "country_iso_code": "GE",
    "timezone": "Asia/Tbilisi",
    "latitude": 41.77278,
    "longitude": 46.14944
  },
  {
    "city": "Vardisubani",
    "city_zh": "Vardisubani",
    "country": "Georgia",
    "country_zh": "喬治亞",
    "country_iso_code": "GE",
    "timezone": "Asia/Tbilisi",
    "latitude": 41.35046,
    "longitude": 44.35692
  },
  {
    "city": "Vardigora",
    "city_zh": "Vardigora",
    "country": "Georgia",
    "country_zh": "喬治亞",
    "country_iso_code": "GE",
    "timezone": "Asia/Tbilisi",
    "latitude": 42.25135,
    "longitude": 43.08076
  },
  {
    "city": "Vardgineti",
    "city_zh": "Vardgineti",
    "country": "Georgia",
    "country_zh": "喬治亞",
    "country_iso_code": "GE",
    "timezone": "Asia/Tbilisi",
    "latitude": 41.87374,
    "longitude": 43.43013
  },
  {
    "city": "Vardevani",
    "city_zh": "Vardevani",
    "country": "Georgia",
    "country_zh": "喬治亞",
    "country_iso_code": "GE",
    "timezone": "Asia/Tbilisi",
    "latitude": 41.77574,
    "longitude": 43.64531
  },
  {
    "city": "Varch’a",
    "city_zh": "Varch’a",
    "country": "Georgia",
    "country_zh": "喬治亞",
    "country_iso_code": "GE",
    "timezone": "Asia/Tbilisi",
    "latitude": 42.844,
    "longitude": 41.14361
  },
  {
    "city": "Vanta",
    "city_zh": "Vanta",
    "country": "Georgia",
    "country_zh": "喬治亞",
    "country_iso_code": "GE",
    "timezone": "Asia/Tbilisi",
    "latitude": 41.87287,
    "longitude": 45.61295
  },
  {
    "city": "Vankhevi",
    "city_zh": "Vankhevi",
    "country": "Georgia",
    "country_zh": "喬治亞",
    "country_iso_code": "GE",
    "timezone": "Asia/Tbilisi",
    "latitude": 42.37694,
    "longitude": 44.9775
  },
  {
    "city": "Vaniskedi",
    "city_zh": "Vaniskedi",
    "country": "Georgia",
    "country_zh": "喬治亞",
    "country_iso_code": "GE",
    "timezone": "Asia/Tbilisi",
    "latitude": 41.93987,
    "longitude": 42.1803
  },
  {
    "city": "Vanisch’ala",
    "city_zh": "Vanisch’ala",
    "country": "Georgia",
    "country_zh": "喬治亞",
    "country_iso_code": "GE",
    "timezone": "Asia/Tbilisi",
    "latitude": 42.48685,
    "longitude": 42.75304
  },
  {
    "city": "Vani",
    "city_zh": "Vani",
    "country": "Georgia",
    "country_zh": "喬治亞",
    "country_iso_code": "GE",
    "timezone": "Asia/Tbilisi",
    "latitude": 42.08408,
    "longitude": 42.51189
  },
  {
    "city": "Vani",
    "city_zh": "Vani",
    "country": "Georgia",
    "country_zh": "喬治亞",
    "country_iso_code": "GE",
    "timezone": "Asia/Tbilisi",
    "latitude": 42.04463,
    "longitude": 42.1393
  },
  {
    "city": "Vani",
    "city_zh": "Vani",
    "country": "Georgia",
    "country_zh": "喬治亞",
    "country_iso_code": "GE",
    "timezone": "Asia/Tbilisi",
    "latitude": 42.08333,
    "longitude": 42.5
  },
  {
    "city": "Vani",
    "city_zh": "Vani",
    "country": "Georgia",
    "country_zh": "喬治亞",
    "country_iso_code": "GE",
    "timezone": "Asia/Tbilisi",
    "latitude": 41.68196,
    "longitude": 42.23038
  },
  {
    "city": "Vani",
    "city_zh": "Vani",
    "country": "Georgia",
    "country_zh": "喬治亞",
    "country_iso_code": "GE",
    "timezone": "Asia/Tbilisi",
    "latitude": 41.43333,
    "longitude": 43.13333
  },
  {
    "city": "Vanati",
    "city_zh": "Vanati",
    "country": "Georgia",
    "country_zh": "喬治亞",
    "country_iso_code": "GE",
    "timezone": "Asia/Tbilisi",
    "latitude": 41.71555,
    "longitude": 44.52028
  },
  {
    "city": "Vaneli",
    "city_zh": "Vaneli",
    "country": "Georgia",
    "country_zh": "喬治亞",
    "country_iso_code": "GE",
    "timezone": "Asia/Tbilisi",
    "latitude": 42.46829,
    "longitude": 44.07083
  },
  {
    "city": "Vanat’i",
    "city_zh": "Vanat’i",
    "country": "Georgia",
    "country_zh": "喬治亞",
    "country_iso_code": "GE",
    "timezone": "Asia/Tbilisi",
    "latitude": 42.28542,
    "longitude": 44.05222
  },
  {
    "city": "Vanadzeebi",
    "city_zh": "Vanadzeebi",
    "country": "Georgia",
    "country_zh": "喬治亞",
    "country_iso_code": "GE",
    "timezone": "Asia/Tbilisi",
    "latitude": 41.70187,
    "longitude": 42.3874
  },
  {
    "city": "Vallikau",
    "city_zh": "Vallikau",
    "country": "Georgia",
    "country_zh": "喬治亞",
    "country_iso_code": "GE",
    "timezone": "Asia/Tbilisi",
    "latitude": 42.56667,
    "longitude": 44.05
  },
  {
    "city": "Valita",
    "city_zh": "Valita",
    "country": "Georgia",
    "country_zh": "喬治亞",
    "country_iso_code": "GE",
    "timezone": "Asia/Tbilisi",
    "latitude": 42.17612,
    "longitude": 44.14022
  },
  {
    "city": "Vale",
    "city_zh": "Vale",
    "country": "Georgia",
    "country_zh": "喬治亞",
    "country_iso_code": "GE",
    "timezone": "Asia/Tbilisi",
    "latitude": 41.61608,
    "longitude": 42.88112
  },
  {
    "city": "Vak’isdziri",
    "city_zh": "Vak’isdziri",
    "country": "Georgia",
    "country_zh": "喬治亞",
    "country_iso_code": "GE",
    "timezone": "Asia/Tbilisi",
    "latitude": 42.40084,
    "longitude": 45.49129
  },
  {
    "city": "Vak’isa",
    "city_zh": "Vak’isa",
    "country": "Georgia",
    "country_zh": "喬治亞",
    "country_iso_code": "GE",
    "timezone": "Asia/Tbilisi",
    "latitude": 42.12194,
    "longitude": 43.47946
  },
  {
    "city": "Vakiri",
    "city_zh": "Vakiri",
    "country": "Georgia",
    "country_zh": "喬治亞",
    "country_iso_code": "GE",
    "timezone": "Asia/Tbilisi",
    "latitude": 41.64677,
    "longitude": 45.91743
  },
  {
    "city": "Vak’ijvari",
    "city_zh": "Vak’ijvari",
    "country": "Georgia",
    "country_zh": "喬治亞",
    "country_iso_code": "GE",
    "timezone": "Asia/Tbilisi",
    "latitude": 41.91604,
    "longitude": 42.14107
  },
  {
    "city": "Vakhtana",
    "city_zh": "Vakhtana",
    "country": "Georgia",
    "country_zh": "喬治亞",
    "country_iso_code": "GE",
    "timezone": "Asia/Tbilisi",
    "latitude": 42.26528,
    "longitude": 43.77472
  },
  {
    "city": "Vakhani",
    "city_zh": "Vakhani",
    "country": "Georgia",
    "country_zh": "喬治亞",
    "country_iso_code": "GE",
    "timezone": "Asia/Tbilisi",
    "latitude": 41.94581,
    "longitude": 43.31935
  },
  {
    "city": "Vakha",
    "city_zh": "Vakha",
    "country": "Georgia",
    "country_zh": "喬治亞",
    "country_iso_code": "GE",
    "timezone": "Asia/Tbilisi",
    "latitude": 42.53917,
    "longitude": 42.3481
  },
  {
    "city": "Vak’evisa",
    "city_zh": "Vak’evisa",
    "country": "Georgia",
    "country_zh": "喬治亞",
    "country_iso_code": "GE",
    "timezone": "Asia/Tbilisi",
    "latitude": 42.37754,
    "longitude": 43.2881
  },
  {
    "city": "Vak’e",
    "city_zh": "Vak’e",
    "country": "Georgia",
    "country_zh": "喬治亞",
    "country_iso_code": "GE",
    "timezone": "Asia/Tbilisi",
    "latitude": 43.37352,
    "longitude": 40.13706
  },
  {
    "city": "Vake",
    "city_zh": "Vake",
    "country": "Georgia",
    "country_zh": "喬治亞",
    "country_iso_code": "GE",
    "timezone": "Asia/Tbilisi",
    "latitude": 42.03222,
    "longitude": 44.43028
  },
  {
    "city": "Vak’e",
    "city_zh": "Vak’e",
    "country": "Georgia",
    "country_zh": "喬治亞",
    "country_iso_code": "GE",
    "timezone": "Asia/Tbilisi",
    "latitude": 41.98902,
    "longitude": 41.86259
  },
  {
    "city": "Vak’e",
    "city_zh": "Vak’e",
    "country": "Georgia",
    "country_zh": "喬治亞",
    "country_iso_code": "GE",
    "timezone": "Asia/Tbilisi",
    "latitude": 41.6051,
    "longitude": 44.46838
  },
  {
    "city": "Vak’e",
    "city_zh": "Vak’e",
    "country": "Georgia",
    "country_zh": "喬治亞",
    "country_iso_code": "GE",
    "timezone": "Asia/Tbilisi",
    "latitude": 41.30788,
    "longitude": 44.21771
  },
  {
    "city": "Vaq’a",
    "city_zh": "Vaq’a",
    "country": "Georgia",
    "country_zh": "喬治亞",
    "country_iso_code": "GE",
    "timezone": "Asia/Tbilisi",
    "latitude": 42.04408,
    "longitude": 43.71325
  },
  {
    "city": "Vaio",
    "city_zh": "Vaio",
    "country": "Georgia",
    "country_zh": "喬治亞",
    "country_iso_code": "GE",
    "timezone": "Asia/Tbilisi",
    "latitude": 41.61944,
    "longitude": 41.97889
  },
  {
    "city": "Varjanisi",
    "city_zh": "Varjanisi",
    "country": "Georgia",
    "country_zh": "喬治亞",
    "country_iso_code": "GE",
    "timezone": "Asia/Tbilisi",
    "latitude": 41.64905,
    "longitude": 42.00373
  },
  {
    "city": "Vachiani",
    "city_zh": "Vachiani",
    "country": "Georgia",
    "country_zh": "喬治亞",
    "country_iso_code": "GE",
    "timezone": "Asia/Tbilisi",
    "latitude": 41.35457,
    "longitude": 43.43271
  },
  {
    "city": "Vach’evi",
    "city_zh": "Vach’evi",
    "country": "Georgia",
    "country_zh": "喬治亞",
    "country_iso_code": "GE",
    "timezone": "Asia/Tbilisi",
    "latitude": 42.31915,
    "longitude": 43.20604
  },
  {
    "city": "Uzuntala",
    "city_zh": "Uzuntala",
    "country": "Georgia",
    "country_zh": "喬治亞",
    "country_iso_code": "GE",
    "timezone": "Asia/Tbilisi",
    "latitude": 41.85917,
    "longitude": 46.15111
  },
  {
    "city": "Uts’levi",
    "city_zh": "Uts’levi",
    "country": "Georgia",
    "country_zh": "喬治亞",
    "country_iso_code": "GE",
    "timezone": "Asia/Tbilisi",
    "latitude": 42.11687,
    "longitude": 43.63326
  },
  {
    "city": "Utskheri",
    "city_zh": "Utskheri",
    "country": "Georgia",
    "country_zh": "喬治亞",
    "country_iso_code": "GE",
    "timezone": "Asia/Tbilisi",
    "latitude": 42.59069,
    "longitude": 42.80107
  },
  {
    "city": "Uts’era",
    "city_zh": "Uts’era",
    "country": "Georgia",
    "country_zh": "喬治亞",
    "country_iso_code": "GE",
    "timezone": "Asia/Tbilisi",
    "latitude": 42.6367,
    "longitude": 43.5419
  },
  {
    "city": "Usholta",
    "city_zh": "Usholta",
    "country": "Georgia",
    "country_zh": "喬治亞",
    "country_iso_code": "GE",
    "timezone": "Asia/Tbilisi",
    "latitude": 42.5,
    "longitude": 43.40358
  },
  {
    "city": "Ushkhvanari",
    "city_zh": "Ushkhvanari",
    "country": "Georgia",
    "country_zh": "喬治亞",
    "country_iso_code": "GE",
    "timezone": "Asia/Tbilisi",
    "latitude": 43.04882,
    "longitude": 42.6091
  },
  {
    "city": "Usharni",
    "city_zh": "Usharni",
    "country": "Georgia",
    "country_zh": "喬治亞",
    "country_iso_code": "GE",
    "timezone": "Asia/Tbilisi",
    "latitude": 42.44264,
    "longitude": 44.56448
  },
  {
    "city": "Ushapati",
    "city_zh": "Ushapati",
    "country": "Georgia",
    "country_zh": "喬治亞",
    "country_iso_code": "GE",
    "timezone": "Asia/Tbilisi",
    "latitude": 42.39423,
    "longitude": 42.1377
  },
  {
    "city": "Usgviri",
    "city_zh": "Usgviri",
    "country": "Georgia",
    "country_zh": "喬治亞",
    "country_iso_code": "GE",
    "timezone": "Asia/Tbilisi",
    "latitude": 42.95194,
    "longitude": 42.41502
  },
  {
    "city": "Useinkendi",
    "city_zh": "Useinkendi",
    "country": "Georgia",
    "country_zh": "喬治亞",
    "country_iso_code": "GE",
    "timezone": "Asia/Tbilisi",
    "latitude": 41.43682,
    "longitude": 44.0657
  },
  {
    "city": "Usakhelo",
    "city_zh": "Usakhelo",
    "country": "Georgia",
    "country_zh": "喬治亞",
    "country_iso_code": "GE",
    "timezone": "Asia/Tbilisi",
    "latitude": 42.59492,
    "longitude": 42.82832
  },
  {
    "city": "Usakhelo",
    "city_zh": "Usakhelo",
    "country": "Georgia",
    "country_zh": "喬治亞",
    "country_iso_code": "GE",
    "timezone": "Asia/Tbilisi",
    "latitude": 42.23583,
    "longitude": 43.37139
  },
  {
    "city": "Uruna",
    "city_zh": "Uruna",
    "country": "Georgia",
    "country_zh": "喬治亞",
    "country_iso_code": "GE",
    "timezone": "Asia/Tbilisi",
    "latitude": 42.25278,
    "longitude": 43.56375
  },
  {
    "city": "Urtkhva",
    "city_zh": "Urtkhva",
    "country": "Georgia",
    "country_zh": "喬治亞",
    "country_iso_code": "GE",
    "timezone": "Asia/Tbilisi",
    "latitude": 42.04137,
    "longitude": 43.54818
  },
  {
    "city": "Urta",
    "city_zh": "Urta",
    "country": "Georgia",
    "country_zh": "喬治亞",
    "country_iso_code": "GE",
    "timezone": "Asia/Tbilisi",
    "latitude": 42.83159,
    "longitude": 41.61762
  },
  {
    "city": "Urta",
    "city_zh": "Urta",
    "country": "Georgia",
    "country_zh": "喬治亞",
    "country_iso_code": "GE",
    "timezone": "Asia/Tbilisi",
    "latitude": 42.4315,
    "longitude": 41.84111
  },
  {
    "city": "Urnuli",
    "city_zh": "Urnuli",
    "country": "Georgia",
    "country_zh": "喬治亞",
    "country_iso_code": "GE",
    "timezone": "Asia/Tbilisi",
    "latitude": 41.86852,
    "longitude": 44.15045
  },
  {
    "city": "Urek’i",
    "city_zh": "Urek’i",
    "country": "Georgia",
    "country_zh": "喬治亞",
    "country_iso_code": "GE",
    "timezone": "Asia/Tbilisi",
    "latitude": 41.99556,
    "longitude": 41.77861
  },
  {
    "city": "Urekhi",
    "city_zh": "Urekhi",
    "country": "Georgia",
    "country_zh": "喬治亞",
    "country_iso_code": "GE",
    "timezone": "Asia/Tbilisi",
    "latitude": 41.62258,
    "longitude": 41.6516
  },
  {
    "city": "Urbnisi",
    "city_zh": "Urbnisi",
    "country": "Georgia",
    "country_zh": "喬治亞",
    "country_iso_code": "GE",
    "timezone": "Asia/Tbilisi",
    "latitude": 42.01551,
    "longitude": 43.98088
  },
  {
    "city": "Uravi",
    "city_zh": "Uravi",
    "country": "Georgia",
    "country_zh": "喬治亞",
    "country_iso_code": "GE",
    "timezone": "Asia/Tbilisi",
    "latitude": 42.64951,
    "longitude": 43.29093
  },
  {
    "city": "Uraveli",
    "city_zh": "Uraveli",
    "country": "Georgia",
    "country_zh": "喬治亞",
    "country_iso_code": "GE",
    "timezone": "Asia/Tbilisi",
    "latitude": 41.55827,
    "longitude": 43.07458
  },
  {
    "city": "Upureti",
    "city_zh": "Upureti",
    "country": "Georgia",
    "country_zh": "喬治亞",
    "country_iso_code": "GE",
    "timezone": "Asia/Tbilisi",
    "latitude": 42.15972,
    "longitude": 44.58778
  },
  {
    "city": "Upureti",
    "city_zh": "Upureti",
    "country": "Georgia",
    "country_zh": "喬治亞",
    "country_iso_code": "GE",
    "timezone": "Asia/Tbilisi",
    "latitude": 41.98256,
    "longitude": 44.68375
  },
  {
    "city": "Uplistsikhe",
    "city_zh": "Uplistsikhe",
    "country": "Georgia",
    "country_zh": "喬治亞",
    "country_iso_code": "GE",
    "timezone": "Asia/Tbilisi",
    "latitude": 41.96553,
    "longitude": 44.17119
  },
  {
    "city": "Unts’a",
    "city_zh": "Unts’a",
    "country": "Georgia",
    "country_zh": "喬治亞",
    "country_iso_code": "GE",
    "timezone": "Asia/Tbilisi",
    "latitude": 41.67743,
    "longitude": 42.83057
  },
  {
    "city": "Undilaantkari",
    "city_zh": "Undilaantkari",
    "country": "Georgia",
    "country_zh": "喬治亞",
    "country_iso_code": "GE",
    "timezone": "Asia/Tbilisi",
    "latitude": 42.10889,
    "longitude": 44.74972
  },
  {
    "city": "Ul'yanovka",
    "city_zh": "Ul'yanovka",
    "country": "Georgia",
    "country_zh": "喬治亞",
    "country_iso_code": "GE",
    "timezone": "Asia/Tbilisi",
    "latitude": 41.75,
    "longitude": 41.75
  },
  {
    "city": "Ch’iauri",
    "city_zh": "Ch’iauri",
    "country": "Georgia",
    "country_zh": "喬治亞",
    "country_iso_code": "GE",
    "timezone": "Asia/Tbilisi",
    "latitude": 41.70322,
    "longitude": 46.15035
  },
  {
    "city": "Iliats’minda",
    "city_zh": "Iliats’minda",
    "country": "Georgia",
    "country_zh": "喬治亞",
    "country_iso_code": "GE",
    "timezone": "Asia/Tbilisi",
    "latitude": 41.57139,
    "longitude": 45.84143
  },
  {
    "city": "Vakht’angisi",
    "city_zh": "Vakht’angisi",
    "country": "Georgia",
    "country_zh": "喬治亞",
    "country_iso_code": "GE",
    "timezone": "Asia/Tbilisi",
    "latitude": 41.39164,
    "longitude": 45.11601
  },
  {
    "city": "Ulianovk’a",
    "city_zh": "Ulianovk’a",
    "country": "Georgia",
    "country_zh": "喬治亞",
    "country_iso_code": "GE",
    "timezone": "Asia/Tbilisi",
    "latitude": 41.24403,
    "longitude": 44.56301
  },
  {
    "city": "Ulumba",
    "city_zh": "Ulumba",
    "country": "Georgia",
    "country_zh": "喬治亞",
    "country_iso_code": "GE",
    "timezone": "Asia/Tbilisi",
    "latitude": 42.12943,
    "longitude": 43.59589
  },
  {
    "city": "Ulashlo",
    "city_zh": "Ulashlo",
    "country": "Georgia",
    "country_zh": "喬治亞",
    "country_iso_code": "GE",
    "timezone": "Asia/Tbilisi",
    "latitude": 41.32321,
    "longitude": 44.8766
  },
  {
    "city": "Ukhuti",
    "city_zh": "Ukhuti",
    "country": "Georgia",
    "country_zh": "喬治亞",
    "country_iso_code": "GE",
    "timezone": "Asia/Tbilisi",
    "latitude": 42.03731,
    "longitude": 42.68884
  },
  {
    "city": "Ukhati",
    "city_zh": "Ukhati",
    "country": "Georgia",
    "country_zh": "喬治亞",
    "country_iso_code": "GE",
    "timezone": "Asia/Tbilisi",
    "latitude": 42.5575,
    "longitude": 44.52194
  },
  {
    "city": "Uq’eshi",
    "city_zh": "Uq’eshi",
    "country": "Georgia",
    "country_zh": "喬治亞",
    "country_iso_code": "GE",
    "timezone": "Asia/Tbilisi",
    "latitude": 42.44882,
    "longitude": 43.11514
  },
  {
    "city": "Zemo-Tsiri",
    "city_zh": "Zemo-Tsiri",
    "country": "Georgia",
    "country_zh": "喬治亞",
    "country_iso_code": "GE",
    "timezone": "Asia/Tbilisi",
    "latitude": 42.15306,
    "longitude": 44.38194
  },
  {
    "city": "Uk’angora",
    "city_zh": "Uk’angora",
    "country": "Georgia",
    "country_zh": "喬治亞",
    "country_iso_code": "GE",
    "timezone": "Asia/Tbilisi",
    "latitude": 41.32583,
    "longitude": 44.39488
  },
  {
    "city": "Uk’aneti",
    "city_zh": "Uk’aneti",
    "country": "Georgia",
    "country_zh": "喬治亞",
    "country_iso_code": "GE",
    "timezone": "Asia/Tbilisi",
    "latitude": 42.18116,
    "longitude": 42.64709
  },
  {
    "city": "Uk’anava",
    "city_zh": "Uk’anava",
    "country": "Georgia",
    "country_zh": "喬治亞",
    "country_iso_code": "GE",
    "timezone": "Asia/Tbilisi",
    "latitude": 41.9267,
    "longitude": 42.18348
  },
  {
    "city": "Uk’anapshavi",
    "city_zh": "Uk’anapshavi",
    "country": "Georgia",
    "country_zh": "喬治亞",
    "country_iso_code": "GE",
    "timezone": "Asia/Tbilisi",
    "latitude": 42.407,
    "longitude": 45.12954
  },
  {
    "city": "Uk’anamkhari",
    "city_zh": "Uk’anamkhari",
    "country": "Georgia",
    "country_zh": "喬治亞",
    "country_iso_code": "GE",
    "timezone": "Asia/Tbilisi",
    "latitude": 42.33274,
    "longitude": 44.61629
  },
  {
    "city": "Uk’anakho",
    "city_zh": "Uk’anakho",
    "country": "Georgia",
    "country_zh": "喬治亞",
    "country_iso_code": "GE",
    "timezone": "Asia/Tbilisi",
    "latitude": 42.48345,
    "longitude": 44.87361
  },
  {
    "city": "Ughvali",
    "city_zh": "Ughvali",
    "country": "Georgia",
    "country_zh": "喬治亞",
    "country_iso_code": "GE",
    "timezone": "Asia/Tbilisi",
    "latitude": 43.03737,
    "longitude": 42.52296
  },
  {
    "city": "Ugeltekhi",
    "city_zh": "Ugeltekhi",
    "country": "Georgia",
    "country_zh": "喬治亞",
    "country_iso_code": "GE",
    "timezone": "Asia/Tbilisi",
    "latitude": 42.10583,
    "longitude": 44.30167
  },
  {
    "city": "Ugardanta",
    "city_zh": "Ugardanta",
    "country": "Georgia",
    "country_zh": "喬治亞",
    "country_iso_code": "GE",
    "timezone": "Asia/Tbilisi",
    "latitude": 42.4023,
    "longitude": 43.87737
  },
  {
    "city": "Udzlouri",
    "city_zh": "Udzlouri",
    "country": "Georgia",
    "country_zh": "喬治亞",
    "country_iso_code": "GE",
    "timezone": "Asia/Tbilisi",
    "latitude": 42.3943,
    "longitude": 42.50985
  },