[
  {
    "city": "Yoknaéka",
    "city_zh": "Yoknaéka",
    "country": "Vanuatu",
    "country_zh": "萬那杜",
    "country_iso_code": "VU",
    "timezone": "Pacific/Efate",
    "latitude": -19.55,
    "longitude": 169.3
  },
  {
    "city": "Imnalkaip",
    "city_zh": "Imnalkaip",
    "country": "Vanuatu",
    "country_zh": "萬那杜",
    "country_iso_code": "VU",
    "timezone": "Pacific/Efate",
    "latitude": -19.4006,
    "longitude": 169.31141
  },
  {
    "city": "Etap",
    "city_zh": "Etap",
    "country": "Vanuatu",
    "country_zh": "萬那杜",
    "country_iso_code": "VU",
    "timezone": "Pacific/Efate",
    "latitude": -19.58165,
    "longitude": 169.33571
  },
  {
    "city": "Yétakapé",
    "city_zh": "Yétakapé",
    "country": "Vanuatu",
    "country_zh": "萬那杜",
    "country_iso_code": "VU",
    "timezone": "Pacific/Efate",
    "latitude": -19.63333,
    "longitude": 169.45
  },
  {
    "city": "Yérou",
    "city_zh": "Yérou",
    "country": "Vanuatu",
    "country_zh": "萬那杜",
    "country_iso_code": "VU",
    "timezone": "Pacific/Efate",
    "latitude": -19.58333,
    "longitude": 169.33333
  },
  {
    "city": "Yéno",
    "city_zh": "Yéno",
    "country": "Vanuatu",
    "country_zh": "萬那杜",
    "country_iso_code": "VU",
    "timezone": "Pacific/Efate",
    "latitude": -16.25,
    "longitude": 167.98333
  },
  {
    "city": "Yémamoso",
    "city_zh": "Yémamoso",
    "country": "Vanuatu",
    "country_zh": "萬那杜",
    "country_iso_code": "VU",
    "timezone": "Pacific/Efate",
    "latitude": -16.71667,
    "longitude": 168.11667
  },
  {
    "city": "Yélowouwou",
    "city_zh": "Yélowouwou",
    "country": "Vanuatu",
    "country_zh": "萬那杜",
    "country_iso_code": "VU",
    "timezone": "Pacific/Efate",
    "latitude": -16.28333,
    "longitude": 167.96667
  },
  {
    "city": "Yéléwar",
    "city_zh": "Yéléwar",
    "country": "Vanuatu",
    "country_zh": "萬那杜",
    "country_iso_code": "VU",
    "timezone": "Pacific/Efate",
    "latitude": -16.28333,
    "longitude": 167.15
  },
  {
    "city": "Yatukwei",
    "city_zh": "Yatukwei",
    "country": "Vanuatu",
    "country_zh": "萬那杜",
    "country_iso_code": "VU",
    "timezone": "Pacific/Efate",
    "latitude": -19.57546,
    "longitude": 169.45621
  },
  {
    "city": "Yeruareng",
    "city_zh": "Yeruareng",
    "country": "Vanuatu",
    "country_zh": "萬那杜",
    "country_iso_code": "VU",
    "timezone": "Pacific/Efate",
    "latitude": -19.64756,
    "longitude": 169.39888
  },
  {
    "city": "Iapnoutaling",
    "city_zh": "Iapnoutaling",
    "country": "Vanuatu",
    "country_zh": "萬那杜",
    "country_iso_code": "VU",
    "timezone": "Pacific/Efate",
    "latitude": -19.54901,
    "longitude": 169.34858
  },
  {
    "city": "Yapimay",
    "city_zh": "Yapimay",
    "country": "Vanuatu",
    "country_zh": "萬那杜",
    "country_iso_code": "VU",
    "timezone": "Pacific/Efate",
    "latitude": -19.56667,
    "longitude": 169.31667
  },
  {
    "city": "Yapana",
    "city_zh": "Yapana",
    "country": "Vanuatu",
    "country_zh": "萬那杜",
    "country_iso_code": "VU",
    "timezone": "Pacific/Efate",
    "latitude": -16.63333,
    "longitude": 168.13333
  },
  {
    "city": "Yakuriruang",
    "city_zh": "Yakuriruang",
    "country": "Vanuatu",
    "country_zh": "萬那杜",
    "country_iso_code": "VU",
    "timezone": "Pacific/Efate",
    "latitude": -19.56342,
    "longitude": 169.36153
  },
  {
    "city": "Yanemilen",
    "city_zh": "Yanemilen",
    "country": "Vanuatu",
    "country_zh": "萬那杜",
    "country_iso_code": "VU",
    "timezone": "Pacific/Efate",
    "latitude": -19.54177,
    "longitude": 169.40312
  },
  {
    "city": "Yakamnene",
    "city_zh": "Yakamnene",
    "country": "Vanuatu",
    "country_zh": "萬那杜",
    "country_iso_code": "VU",
    "timezone": "Pacific/Efate",
    "latitude": -19.61311,
    "longitude": 169.34877
  },
  {
    "city": "Yankula",
    "city_zh": "Yankula",
    "country": "Vanuatu",
    "country_zh": "萬那杜",
    "country_iso_code": "VU",
    "timezone": "Pacific/Efate",
    "latitude": -19.52937,
    "longitude": 169.41507
  },
  {
    "city": "Yenarpon",
    "city_zh": "Yenarpon",
    "country": "Vanuatu",
    "country_zh": "萬那杜",
    "country_iso_code": "VU",
    "timezone": "Pacific/Efate",
    "latitude": -19.62095,
    "longitude": 169.46168
  },
  {
    "city": "Yenaohia",
    "city_zh": "Yenaohia",
    "country": "Vanuatu",
    "country_zh": "萬那杜",
    "country_iso_code": "VU",
    "timezone": "Pacific/Efate",
    "latitude": -19.53135,
    "longitude": 169.30837
  },
  {
    "city": "Yaneumakel",
    "city_zh": "Yaneumakel",
    "country": "Vanuatu",
    "country_zh": "萬那杜",
    "country_iso_code": "VU",
    "timezone": "Pacific/Efate",
    "latitude": -19.50915,
    "longitude": 169.44863
  },
  {
    "city": "Yenamahu",
    "city_zh": "Yenamahu",
    "country": "Vanuatu",
    "country_zh": "萬那杜",
    "country_iso_code": "VU",
    "timezone": "Pacific/Efate",
    "latitude": -19.4825,
    "longitude": 169.42291
  },
  {
    "city": "Yenkwipir",
    "city_zh": "Yenkwipir",
    "country": "Vanuatu",
    "country_zh": "萬那杜",
    "country_iso_code": "VU",
    "timezone": "Pacific/Efate",
    "latitude": -19.5712,
    "longitude": 169.35756
  },
  {
    "city": "Yakwaraka",
    "city_zh": "Yakwaraka",
    "country": "Vanuatu",
    "country_zh": "萬那杜",
    "country_iso_code": "VU",
    "timezone": "Pacific/Efate",
    "latitude": -19.63496,
    "longitude": 169.45632
  },
  {
    "city": "Yakounétikaoulil",
    "city_zh": "Yakounétikaoulil",
    "country": "Vanuatu",
    "country_zh": "萬那杜",
    "country_iso_code": "VU",
    "timezone": "Pacific/Efate",
    "latitude": -19.51667,
    "longitude": 169.31667
  },
  {
    "city": "Yakoul",
    "city_zh": "Yakoul",
    "country": "Vanuatu",
    "country_zh": "萬那杜",
    "country_iso_code": "VU",
    "timezone": "Pacific/Efate",
    "latitude": -15.08333,
    "longitude": 167.05
  },
  {
    "city": "Yakukak",
    "city_zh": "Yakukak",
    "country": "Vanuatu",
    "country_zh": "萬那杜",
    "country_iso_code": "VU",
    "timezone": "Pacific/Efate",
    "latitude": -19.54274,
    "longitude": 169.32123
  },
  {
    "city": "Wusi",
    "city_zh": "Wusi",
    "country": "Vanuatu",
    "country_zh": "萬那杜",
    "country_iso_code": "VU",
    "timezone": "Pacific/Efate",
    "latitude": -15.36667,
    "longitude": 166.65
  },
  {
    "city": "Wuro",
    "city_zh": "Wuro",
    "country": "Vanuatu",
    "country_zh": "萬那杜",
    "country_iso_code": "VU",
    "timezone": "Pacific/Efate",
    "latitude": -16.26626,
    "longitude": 167.92324
  },
  {
    "city": "Wunpuko",
    "city_zh": "Wunpuko",
    "country": "Vanuatu",
    "country_zh": "萬那杜",
    "country_iso_code": "VU",
    "timezone": "Pacific/Efate",
    "latitude": -14.7,
    "longitude": 166.56667
  },
  {
    "city": "Wowo",
    "city_zh": "Wowo",
    "country": "Vanuatu",
    "country_zh": "萬那杜",
    "country_iso_code": "VU",
    "timezone": "Pacific/Efate",
    "latitude": -15.88333,
    "longitude": 167.2
  },
  {
    "city": "Wouta",
    "city_zh": "Wouta",
    "country": "Vanuatu",
    "country_zh": "萬那杜",
    "country_iso_code": "VU",
    "timezone": "Pacific/Efate",
    "latitude": -14.96667,
    "longitude": 168.06667
  },
  {
    "city": "Wousounmwèl",
    "city_zh": "Wousounmwèl",
    "country": "Vanuatu",
    "country_zh": "萬那杜",
    "country_iso_code": "VU",
    "timezone": "Pacific/Efate",
    "latitude": -15.68333,
    "longitude": 168.16667
  },
  {
    "city": "Wouréwérèp",
    "city_zh": "Wouréwérèp",
    "country": "Vanuatu",
    "country_zh": "萬那杜",
    "country_iso_code": "VU",
    "timezone": "Pacific/Efate",
    "latitude": -15.71667,
    "longitude": 168.13333
  },
  {
    "city": "Wounwaka",
    "city_zh": "Wounwaka",
    "country": "Vanuatu",
    "country_zh": "萬那杜",
    "country_iso_code": "VU",
    "timezone": "Pacific/Efate",
    "latitude": -15.11667,
    "longitude": 166.73333
  },
  {
    "city": "Wountavitslavo",
    "city_zh": "Wountavitslavo",
    "country": "Vanuatu",
    "country_zh": "萬那杜",
    "country_iso_code": "VU",
    "timezone": "Pacific/Efate",
    "latitude": -14.81667,
    "longitude": 166.71667
  },
  {
    "city": "Wounsoulé",
    "city_zh": "Wounsoulé",
    "country": "Vanuatu",
    "country_zh": "萬那杜",
    "country_iso_code": "VU",
    "timezone": "Pacific/Efate",
    "latitude": -15.05,
    "longitude": 166.61667
  },
  {
    "city": "Wounpipi",
    "city_zh": "Wounpipi",
    "country": "Vanuatu",
    "country_zh": "萬那杜",
    "country_iso_code": "VU",
    "timezone": "Pacific/Efate",
    "latitude": -14.8,
    "longitude": 166.71667
  },
  {
    "city": "Woungmouil",
    "city_zh": "Woungmouil",
    "country": "Vanuatu",
    "country_zh": "萬那杜",
    "country_iso_code": "VU",
    "timezone": "Pacific/Efate",
    "latitude": -13.65,
    "longitude": 167.68333
  },
  {
    "city": "Wounépara",
    "city_zh": "Wounépara",
    "country": "Vanuatu",
    "country_zh": "萬那杜",
    "country_iso_code": "VU",
    "timezone": "Pacific/Efate",
    "latitude": -13.16667,
    "longitude": 166.53333
  },
  {
    "city": "Woundrpoutsour",
    "city_zh": "Woundrpoutsour",
    "country": "Vanuatu",
    "country_zh": "萬那杜",
    "country_iso_code": "VU",
    "timezone": "Pacific/Efate",
    "latitude": -15.41667,
    "longitude": 166.98333
  },
  {
    "city": "Wounawati",
    "city_zh": "Wounawati",
    "country": "Vanuatu",
    "country_zh": "萬那杜",
    "country_iso_code": "VU",
    "timezone": "Pacific/Efate",
    "latitude": -15.11667,
    "longitude": 166.73333
  },
  {
    "city": "Wounapéras",
    "city_zh": "Wounapéras",
    "country": "Vanuatu",
    "country_zh": "萬那杜",
    "country_iso_code": "VU",
    "timezone": "Pacific/Efate",
    "latitude": -14.95,
    "longitude": 166.75
  },
  {
    "city": "Wounapaka",
    "city_zh": "Wounapaka",
    "country": "Vanuatu",
    "country_zh": "萬那杜",
    "country_iso_code": "VU",
    "timezone": "Pacific/Efate",
    "latitude": -15.26667,
    "longitude": 166.66667
  },
  {
    "city": "Wounaout",
    "city_zh": "Wounaout",
    "country": "Vanuatu",
    "country_zh": "萬那杜",
    "country_iso_code": "VU",
    "timezone": "Pacific/Efate",
    "latitude": -15.95,
    "longitude": 167.31667
  },
  {
    "city": "Wounaouss",
    "city_zh": "Wounaouss",
    "country": "Vanuatu",
    "country_zh": "萬那杜",
    "country_iso_code": "VU",
    "timezone": "Pacific/Efate",
    "latitude": -15.58333,
    "longitude": 167.0
  },
  {
    "city": "Wounahaowoumhoum",
    "city_zh": "Wounahaowoumhoum",
    "country": "Vanuatu",
    "country_zh": "萬那杜",
    "country_iso_code": "VU",
    "timezone": "Pacific/Efate",
    "latitude": -15.05,
    "longitude": 166.65
  },
  {
    "city": "Woumorou",
    "city_zh": "Woumorou",
    "country": "Vanuatu",
    "country_zh": "萬那杜",
    "country_iso_code": "VU",
    "timezone": "Pacific/Efate",
    "latitude": -15.48333,
    "longitude": 166.76667
  },
  {
    "city": "Woulior",
    "city_zh": "Woulior",
    "country": "Vanuatu",
    "country_zh": "萬那杜",
    "country_iso_code": "VU",
    "timezone": "Pacific/Efate",
    "latitude": -15.01667,
    "longitude": 167.05
  },
  {
    "city": "Woulélé",
    "city_zh": "Woulélé",
    "country": "Vanuatu",
    "country_zh": "萬那杜",
    "country_iso_code": "VU",
    "timezone": "Pacific/Efate",
    "latitude": -16.23333,
    "longitude": 167.55
  },
  {
    "city": "Wortatcha",
    "city_zh": "Wortatcha",
    "country": "Vanuatu",
    "country_zh": "萬那杜",
    "country_iso_code": "VU",
    "timezone": "Pacific/Efate",
    "latitude": -15.98333,
    "longitude": 167.36667
  },
  {
    "city": "Worovok",
    "city_zh": "Worovok",
    "country": "Vanuatu",
    "country_zh": "萬那杜",
    "country_iso_code": "VU",
    "timezone": "Pacific/Efate",
    "latitude": -15.18333,
    "longitude": 166.88333
  },
  {
    "city": "Wornambek",
    "city_zh": "Wornambek",
    "country": "Vanuatu",
    "country_zh": "萬那杜",
    "country_iso_code": "VU",
    "timezone": "Pacific/Efate",
    "latitude": -16.01667,
    "longitude": 167.16667
  },
  {
    "city": "Worlissliss",
    "city_zh": "Worlissliss",
    "country": "Vanuatu",
    "country_zh": "萬那杜",
    "country_iso_code": "VU",
    "timezone": "Pacific/Efate",
    "latitude": -16.51667,
    "longitude": 167.43333
  },
  {
    "city": "Worlembraki",
    "city_zh": "Worlembraki",
    "country": "Vanuatu",
    "country_zh": "萬那杜",
    "country_iso_code": "VU",
    "timezone": "Pacific/Efate",
    "latitude": -16.0,
    "longitude": 167.36667
  },
  {
    "city": "Woralapa",
    "city_zh": "Woralapa",
    "country": "Vanuatu",
    "country_zh": "萬那杜",
    "country_iso_code": "VU",
    "timezone": "Pacific/Efate",
    "latitude": -17.48333,
    "longitude": 168.36667
  },
  {
    "city": "Worafiou",
    "city_zh": "Worafiou",
    "country": "Vanuatu",
    "country_zh": "萬那杜",
    "country_iso_code": "VU",
    "timezone": "Pacific/Efate",
    "latitude": -16.9,
    "longitude": 168.55
  },
  {
    "city": "Woo",
    "city_zh": "Woo",
    "country": "Vanuatu",
    "country_zh": "萬那杜",
    "country_iso_code": "VU",
    "timezone": "Pacific/Efate",
    "latitude": -16.11667,
    "longitude": 168.15
  },
  {
    "city": "Woïnkoni",
    "city_zh": "Woïnkoni",
    "country": "Vanuatu",
    "country_zh": "萬那杜",
    "country_iso_code": "VU",
    "timezone": "Pacific/Efate",
    "latitude": -15.65,
    "longitude": 168.11667
  },
  {
    "city": "Witaba",
    "city_zh": "Witaba",
    "country": "Vanuatu",
    "country_zh": "萬那杜",
    "country_iso_code": "VU",
    "timezone": "Pacific/Efate",
    "latitude": -16.55,
    "longitude": 167.43333
  },
  {
    "city": "Wintua",
    "city_zh": "Wintua",
    "country": "Vanuatu",
    "country_zh": "萬那杜",
    "country_iso_code": "VU",
    "timezone": "Pacific/Efate",
    "latitude": -16.48111,
    "longitude": 167.4461
  },
  {
    "city": "Winougap",
    "city_zh": "Winougap",
    "country": "Vanuatu",
    "country_zh": "萬那杜",
    "country_iso_code": "VU",
    "timezone": "Pacific/Efate",
    "latitude": -15.73333,
    "longitude": 168.13333
  },
  {
    "city": "Winia",
    "city_zh": "Winia",
    "country": "Vanuatu",
    "country_zh": "萬那杜",
    "country_iso_code": "VU",
    "timezone": "Pacific/Efate",
    "latitude": -15.48333,
    "longitude": 166.83333
  },
  {
    "city": "Winbou",
    "city_zh": "Winbou",
    "country": "Vanuatu",
    "country_zh": "萬那杜",
    "country_iso_code": "VU",
    "timezone": "Pacific/Efate",
    "latitude": -15.41667,
    "longitude": 166.95
  },
  {
    "city": "Win",
    "city_zh": "Win",
    "country": "Vanuatu",
    "country_zh": "萬那杜",
    "country_iso_code": "VU",
    "timezone": "Pacific/Efate",
    "latitude": -16.08333,
    "longitude": 167.15
  },
  {
    "city": "Wilmèt",
    "city_zh": "Wilmèt",
    "country": "Vanuatu",
    "country_zh": "萬那杜",
    "country_iso_code": "VU",
    "timezone": "Pacific/Efate",
    "latitude": -16.05,
    "longitude": 167.2
  },
  {
    "city": "Wilit",
    "city_zh": "Wilit",
    "country": "Vanuatu",
    "country_zh": "萬那杜",
    "country_iso_code": "VU",
    "timezone": "Pacific/Efate",
    "latitude": -16.13333,
    "longitude": 168.18333
  },
  {
    "city": "Wilir",
    "city_zh": "Wilir",
    "country": "Vanuatu",
    "country_zh": "萬那杜",
    "country_iso_code": "VU",
    "timezone": "Pacific/Efate",
    "latitude": -16.1,
    "longitude": 167.16667
  },
  {
    "city": "Wihel",
    "city_zh": "Wihel",
    "country": "Vanuatu",
    "country_zh": "萬那杜",
    "country_iso_code": "VU",
    "timezone": "Pacific/Efate",
    "latitude": -16.15,
    "longitude": 167.2
  },
  {
    "city": "Wiana",
    "city_zh": "Wiana",
    "country": "Vanuatu",
    "country_zh": "萬那杜",
    "country_iso_code": "VU",
    "timezone": "Pacific/Efate",
    "latitude": -17.49543,
    "longitude": 168.48292
  },
  {
    "city": "White Sands",
    "city_zh": "White Sands",
    "country": "Vanuatu",
    "country_zh": "萬那杜",
    "country_iso_code": "VU",
    "timezone": "Pacific/Efate",
    "latitude": -19.50106,
    "longitude": 169.45488
  },
  {
    "city": "Wéravénou",
    "city_zh": "Wéravénou",
    "country": "Vanuatu",
    "country_zh": "萬那杜",
    "country_iso_code": "VU",
    "timezone": "Pacific/Efate",
    "latitude": -15.73333,
    "longitude": 168.15
  },
  {
    "city": "Wélawéa",
    "city_zh": "Wélawéa",
    "country": "Vanuatu",
    "country_zh": "萬那杜",
    "country_iso_code": "VU",
    "timezone": "Pacific/Efate",
    "latitude": -16.61667,
    "longitude": 168.15
  },
  {
    "city": "Wéilbéri",
    "city_zh": "Wéilbéri",
    "country": "Vanuatu",
    "country_zh": "萬那杜",
    "country_iso_code": "VU",
    "timezone": "Pacific/Efate",
    "latitude": -15.08333,
    "longitude": 167.01667
  },
  {
    "city": "Wailapa",
    "city_zh": "Wailapa",
    "country": "Vanuatu",
    "country_zh": "萬那杜",
    "country_iso_code": "VU",
    "timezone": "Pacific/Efate",
    "latitude": -15.58112,
    "longitude": 166.94472
  },
  {
    "city": "Wawo",
    "city_zh": "Wawo",
    "country": "Vanuatu",
    "country_zh": "萬那杜",
    "country_iso_code": "VU",
    "timezone": "Pacific/Efate",
    "latitude": -15.71667,
    "longitude": 168.11667
  },
  {
    "city": "Watiawoli",
    "city_zh": "Watiawoli",
    "country": "Vanuatu",
    "country_zh": "萬那杜",
    "country_iso_code": "VU",
    "timezone": "Pacific/Efate",
    "latitude": -15.1,
    "longitude": 168.08333
  },
  {
    "city": "Watfanwa",
    "city_zh": "Watfanwa",
    "country": "Vanuatu",
    "country_zh": "萬那杜",
    "country_iso_code": "VU",
    "timezone": "Pacific/Efate",
    "latitude": -15.1,
    "longitude": 168.11667
  },
  {
    "city": "Waterfall",
    "city_zh": "Waterfall",
    "country": "Vanuatu",
    "country_zh": "萬那杜",
    "country_iso_code": "VU",
    "timezone": "Pacific/Efate",
    "latitude": -15.78526,
    "longitude": 168.16414
  },
  {
    "city": "Watangwélé",
    "city_zh": "Watangwélé",
    "country": "Vanuatu",
    "country_zh": "萬那杜",
    "country_iso_code": "VU",
    "timezone": "Pacific/Efate",
    "latitude": -15.31667,
    "longitude": 167.85
  },
  {
    "city": "Wasaléa",
    "city_zh": "Wasaléa",
    "country": "Vanuatu",
    "country_zh": "萬那杜",
    "country_iso_code": "VU",
    "timezone": "Pacific/Efate",
    "latitude": -15.16667,
    "longitude": 166.63333
  },
  {
    "city": "Wasaka",
    "city_zh": "Wasaka",
    "country": "Vanuatu",
    "country_zh": "萬那杜",
    "country_iso_code": "VU",
    "timezone": "Pacific/Efate",
    "latitude": -13.96667,
    "longitude": 167.45
  },
  {
    "city": "Wararana",
    "city_zh": "Wararana",
    "country": "Vanuatu",
    "country_zh": "萬那杜",
    "country_iso_code": "VU",
    "timezone": "Pacific/Efate",
    "latitude": -16.8,
    "longitude": 168.36667
  },
  {
    "city": "Waraparo",
    "city_zh": "Waraparo",
    "country": "Vanuatu",
    "country_zh": "萬那杜",
    "country_iso_code": "VU",
    "timezone": "Pacific/Efate",
    "latitude": -15.48333,
    "longitude": 166.8
  },
  {
    "city": "Wara Kapa",
    "city_zh": "Wara Kapa",
    "country": "Vanuatu",
    "country_zh": "萬那杜",
    "country_iso_code": "VU",
    "timezone": "Pacific/Efate",
    "latitude": -17.55,
    "longitude": 168.33333
  },
  {
    "city": "Wanou",
    "city_zh": "Wanou",
    "country": "Vanuatu",
    "country_zh": "萬那杜",
    "country_iso_code": "VU",
    "timezone": "Pacific/Efate",
    "latitude": -15.78333,
    "longitude": 168.16667
  },
  {
    "city": "Wangtoo",
    "city_zh": "Wangtoo",
    "country": "Vanuatu",
    "country_zh": "萬那杜",
    "country_iso_code": "VU",
    "timezone": "Pacific/Efate",
    "latitude": -14.23333,
    "longitude": 167.55
  },
  {
    "city": "Wanbagam",
    "city_zh": "Wanbagam",
    "country": "Vanuatu",
    "country_zh": "萬那杜",
    "country_iso_code": "VU",
    "timezone": "Pacific/Efate",
    "latitude": -15.66667,
    "longitude": 168.15
  },
  {
    "city": "Wanawéré",
    "city_zh": "Wanawéré",
    "country": "Vanuatu",
    "country_zh": "萬那杜",
    "country_iso_code": "VU",
    "timezone": "Pacific/Efate",
    "latitude": -14.83333,
    "longitude": 166.75
  },
  {
    "city": "Walraoul",
    "city_zh": "Walraoul",
    "country": "Vanuatu",
    "country_zh": "萬那杜",
    "country_iso_code": "VU",
    "timezone": "Pacific/Efate",
    "latitude": -15.05,
    "longitude": 167.0
  },
  {
    "city": "Walpey",
    "city_zh": "Walpey",
    "country": "Vanuatu",
    "country_zh": "萬那杜",
    "country_iso_code": "VU",
    "timezone": "Pacific/Efate",
    "latitude": -14.76667,
    "longitude": 166.55
  },
  {
    "city": "Walourigi",
    "city_zh": "Walourigi",
    "country": "Vanuatu",
    "country_zh": "萬那杜",
    "country_iso_code": "VU",
    "timezone": "Pacific/Efate",
    "latitude": -15.31667,
    "longitude": 167.85
  },
  {
    "city": "Wall",
    "city_zh": "Wall",
    "country": "Vanuatu",
    "country_zh": "萬那杜",
    "country_iso_code": "VU",
    "timezone": "Pacific/Efate",
    "latitude": -16.0,
    "longitude": 167.18333
  },
  {
    "city": "Wali",
    "city_zh": "Wali",
    "country": "Vanuatu",
    "country_zh": "萬那杜",
    "country_iso_code": "VU",
    "timezone": "Pacific/Efate",
    "latitude": -15.93333,
    "longitude": 168.18333
  },
  {
    "city": "Walembwé",
    "city_zh": "Walembwé",
    "country": "Vanuatu",
    "country_zh": "萬那杜",
    "country_iso_code": "VU",
    "timezone": "Pacific/Efate",
    "latitude": -15.46667,
    "longitude": 167.76667
  },
  {
    "city": "Wakon",
    "city_zh": "Wakon",
    "country": "Vanuatu",
    "country_zh": "萬那杜",
    "country_iso_code": "VU",
    "timezone": "Pacific/Efate",
    "latitude": -16.23333,
    "longitude": 167.91667
  },
  {
    "city": "Waïlep",
    "city_zh": "Waïlep",
    "country": "Vanuatu",
    "country_zh": "萬那杜",
    "country_iso_code": "VU",
    "timezone": "Pacific/Efate",
    "latitude": -16.5,
    "longitude": 168.21667
  },
  {
    "city": "Waisisi",
    "city_zh": "Waisisi",
    "country": "Vanuatu",
    "country_zh": "萬那杜",
    "country_iso_code": "VU",
    "timezone": "Pacific/Efate",
    "latitude": -19.47463,
    "longitude": 169.40132
  },
  {
    "city": "Waéling",
    "city_zh": "Waéling",
    "country": "Vanuatu",
    "country_zh": "萬那杜",
    "country_iso_code": "VU",
    "timezone": "Pacific/Efate",
    "latitude": -15.35,
    "longitude": 167.93333
  },
  {
    "city": "Wadovaga",
    "city_zh": "Wadovaga",
    "country": "Vanuatu",
    "country_zh": "萬那杜",
    "country_iso_code": "VU",
    "timezone": "Pacific/Efate",
    "latitude": -15.71667,
    "longitude": 168.15
  },
  {
    "city": "Wadounmwel",
    "city_zh": "Wadounmwel",
    "country": "Vanuatu",
    "country_zh": "萬那杜",
    "country_iso_code": "VU",
    "timezone": "Pacific/Efate",
    "latitude": -15.71667,
    "longitude": 168.16667
  },
  {
    "city": "Wadounbowi",
    "city_zh": "Wadounbowi",
    "country": "Vanuatu",
    "country_zh": "萬那杜",
    "country_iso_code": "VU",
    "timezone": "Pacific/Efate",
    "latitude": -15.7,
    "longitude": 168.13333
  },
  {
    "city": "Wadounbaba",
    "city_zh": "Wadounbaba",
    "country": "Vanuatu",
    "country_zh": "萬那杜",
    "country_iso_code": "VU",
    "timezone": "Pacific/Efate",
    "latitude": -15.7,
    "longitude": 168.11667
  },
  {
    "city": "Vovo",
    "city_zh": "Vovo",
    "country": "Vanuatu",
    "country_zh": "萬那杜",
    "country_iso_code": "VU",
    "timezone": "Pacific/Efate",
    "latitude": -16.81667,
    "longitude": 168.18333
  },
  {
    "city": "Vousin",
    "city_zh": "Vousin",
    "country": "Vanuatu",
    "country_zh": "萬那杜",
    "country_iso_code": "VU",
    "timezone": "Pacific/Efate",
    "latitude": -15.46667,
    "longitude": 166.88333
  },
  {
    "city": "Vournéré",
    "city_zh": "Vournéré",
    "country": "Vanuatu",
    "country_zh": "萬那杜",
    "country_iso_code": "VU",
    "timezone": "Pacific/Efate",
    "latitude": -15.65,
    "longitude": 166.76667
  },
  {
    "city": "Vourias",
    "city_zh": "Vourias",
    "country": "Vanuatu",
    "country_zh": "萬那杜",
    "country_iso_code": "VU",
    "timezone": "Pacific/Efate",
    "latitude": -15.28333,
    "longitude": 167.95
  },
  {
    "city": "Vougénéré",
    "city_zh": "Vougénéré",
    "country": "Vanuatu",
    "country_zh": "萬那杜",
    "country_iso_code": "VU",
    "timezone": "Pacific/Efate",
    "latitude": -15.31667,
    "longitude": 167.86667
  },
  {
    "city": "Votlo",
    "city_zh": "Votlo",
    "country": "Vanuatu",
    "country_zh": "萬那杜",
    "country_iso_code": "VU",
    "timezone": "Pacific/Efate",
    "latitude": -16.8,
    "longitude": 168.26667
  },
  {
    "city": "Vitouara",
    "city_zh": "Vitouara",
    "country": "Vanuatu",
    "country_zh": "萬那杜",
    "country_iso_code": "VU",
    "timezone": "Pacific/Efate",
    "latitude": -15.35,
    "longitude": 167.18333
  },
  {
    "city": "Vipaka",
    "city_zh": "Vipaka",
    "country": "Vanuatu",
    "country_zh": "萬那杜",
    "country_iso_code": "VU",
    "timezone": "Pacific/Efate",
    "latitude": -13.36549,
    "longitude": 166.64337
  },
  {
    "city": "Viniou",
    "city_zh": "Viniou",
    "country": "Vanuatu",
    "country_zh": "萬那杜",
    "country_iso_code": "VU",
    "timezone": "Pacific/Efate",
    "latitude": -15.41667,
    "longitude": 166.78333
  },
  {
    "city": "Vilakalaka",
    "city_zh": "Vilakalaka",
    "country": "Vanuatu",
    "country_zh": "萬那杜",
    "country_iso_code": "VU",
    "timezone": "Pacific/Efate",
    "latitude": -15.41667,
    "longitude": 167.68333
  },
  {
    "city": "Viei",
    "city_zh": "Viei",
    "country": "Vanuatu",
    "country_zh": "萬那杜",
    "country_iso_code": "VU",
    "timezone": "Pacific/Efate",
    "latitude": -13.68333,
    "longitude": 167.63333
  },
  {
    "city": "Vias",
    "city_zh": "Vias",
    "country": "Vanuatu",
    "country_zh": "萬那杜",
    "country_iso_code": "VU",
    "timezone": "Pacific/Efate",
    "latitude": -15.58333,
    "longitude": 166.86667
  },
  {
    "city": "Veutumboso",
    "city_zh": "Veutumboso",
    "country": "Vanuatu",
    "country_zh": "萬那杜",
    "country_iso_code": "VU",
    "timezone": "Pacific/Efate",
    "latitude": -13.90323,
    "longitude": 167.45223
  },
  {
    "city": "Véroué",
    "city_zh": "Véroué",
    "country": "Vanuatu",
    "country_zh": "萬那杜",
    "country_iso_code": "VU",
    "timezone": "Pacific/Efate",
    "latitude": -14.95,
    "longitude": 168.05
  },
  {
    "city": "Vatroto",
    "city_zh": "Vatroto",
    "country": "Vanuatu",
    "country_zh": "萬那杜",
    "country_iso_code": "VU",
    "timezone": "Pacific/Efate",
    "latitude": -15.38333,
    "longitude": 166.88333
  },
  {
    "city": "Vatrof",
    "city_zh": "Vatrof",
    "country": "Vanuatu",
    "country_zh": "萬那杜",
    "country_iso_code": "VU",
    "timezone": "Pacific/Efate",
    "latitude": -15.38333,
    "longitude": 166.88333
  },
  {
    "city": "Vatrata",
    "city_zh": "Vatrata",
    "country": "Vanuatu",
    "country_zh": "萬那杜",
    "country_iso_code": "VU",
    "timezone": "Pacific/Efate",
    "latitude": -13.89189,
    "longitude": 167.42966
  },
  {
    "city": "Vatowasis",
    "city_zh": "Vatowasis",
    "country": "Vanuatu",
    "country_zh": "萬那杜",
    "country_iso_code": "VU",
    "timezone": "Pacific/Efate",
    "latitude": -15.71667,
    "longitude": 168.13333
  },
  {
    "city": "Vatounaki",
    "city_zh": "Vatounaki",
    "country": "Vanuatu",
    "country_zh": "萬那杜",
    "country_iso_code": "VU",
    "timezone": "Pacific/Efate",
    "latitude": -15.48333,
    "longitude": 166.83333
  },
  {
    "city": "Vatoukampani",
    "city_zh": "Vatoukampani",
    "country": "Vanuatu",
    "country_zh": "萬那杜",
    "country_iso_code": "VU",
    "timezone": "Pacific/Efate",
    "latitude": -15.35,
    "longitude": 167.78333
  },
  {
    "city": "Vatorousin",
    "city_zh": "Vatorousin",
    "country": "Vanuatu",
    "country_zh": "萬那杜",
    "country_iso_code": "VU",
    "timezone": "Pacific/Efate",
    "latitude": -15.38333,
    "longitude": 167.73333
  },
  {
    "city": "Vatiinopo",
    "city_zh": "Vatiinopo",
    "country": "Vanuatu",
    "country_zh": "萬那杜",
    "country_iso_code": "VU",
    "timezone": "Pacific/Efate",
    "latitude": -15.43333,
    "longitude": 166.81667
  },
  {
    "city": "Vatavoui",
    "city_zh": "Vatavoui",
    "country": "Vanuatu",
    "country_zh": "萬那杜",
    "country_iso_code": "VU",
    "timezone": "Pacific/Efate",
    "latitude": -15.45,
    "longitude": 167.68333
  },
  {
    "city": "Vas",
    "city_zh": "Vas",
    "country": "Vanuatu",
    "country_zh": "萬那杜",
    "country_iso_code": "VU",
    "timezone": "Pacific/Efate",
    "latitude": -15.06667,
    "longitude": 166.8
  },
  {
    "city": "Varsaré",
    "city_zh": "Varsaré",
    "country": "Vanuatu",
    "country_zh": "萬那杜",
    "country_iso_code": "VU",
    "timezone": "Pacific/Efate",
    "latitude": -15.88579,
    "longitude": 168.26909
  },
  {
    "city": "Varéwérèp",
    "city_zh": "Varéwérèp",
    "country": "Vanuatu",
    "country_zh": "萬那杜",
    "country_iso_code": "VU",
    "timezone": "Pacific/Efate",
    "latitude": -15.7,
    "longitude": 168.11667
  },
  {
    "city": "Varabibi",
    "city_zh": "Varabibi",
    "country": "Vanuatu",
    "country_zh": "萬那杜",
    "country_iso_code": "VU",
    "timezone": "Pacific/Efate",
    "latitude": -15.76667,
    "longitude": 168.13333
  },
  {
    "city": "Avay (Var)",
    "city_zh": "Avay (Var)",
    "country": "Vanuatu",
    "country_zh": "萬那杜",
    "country_iso_code": "VU",
    "timezone": "Pacific/Efate",
    "latitude": -13.70128,
    "longitude": 167.63468
  },
  {
    "city": "Vansémakoul",
    "city_zh": "Vansémakoul",
    "country": "Vanuatu",
    "country_zh": "萬那杜",
    "country_iso_code": "VU",
    "timezone": "Pacific/Efate",
    "latitude": -15.76667,
    "longitude": 168.13333
  },
  {
    "city": "Vanréwérep",
    "city_zh": "Vanréwérep",
    "country": "Vanuatu",
    "country_zh": "萬那杜",
    "country_iso_code": "VU",
    "timezone": "Pacific/Efate",
    "latitude": -15.68333,
    "longitude": 168.18333
  },
  {
    "city": "Vanmwel",
    "city_zh": "Vanmwel",
    "country": "Vanuatu",
    "country_zh": "萬那杜",
    "country_iso_code": "VU",
    "timezone": "Pacific/Efate",
    "latitude": -15.71667,
    "longitude": 168.18333
  },
  {
    "city": "Vanis",
    "city_zh": "Vanis",
    "country": "Vanuatu",
    "country_zh": "萬那杜",
    "country_iso_code": "VU",
    "timezone": "Pacific/Efate",
    "latitude": -15.7,
    "longitude": 168.15
  },
  {
    "city": "Vanaïa",
    "city_zh": "Vanaïa",
    "country": "Vanuatu",
    "country_zh": "萬那杜",
    "country_iso_code": "VU",
    "timezone": "Pacific/Efate",
    "latitude": -15.8,
    "longitude": 168.16667
  },
  {
    "city": "Valesdir",
    "city_zh": "Valesdir",
    "country": "Vanuatu",
    "country_zh": "萬那杜",
    "country_iso_code": "VU",
    "timezone": "Pacific/Efate",
    "latitude": -16.78333,
    "longitude": 168.16667
  },
  {
    "city": "Valaé",
    "city_zh": "Valaé",
    "country": "Vanuatu",
    "country_zh": "萬那杜",
    "country_iso_code": "VU",
    "timezone": "Pacific/Efate",
    "latitude": -15.63333,
    "longitude": 166.81667
  },
  {
    "city": "Vaitini",
    "city_zh": "Vaitini",
    "country": "Vanuatu",
    "country_zh": "萬那杜",
    "country_iso_code": "VU",
    "timezone": "Pacific/Efate",
    "latitude": -17.08333,
    "longitude": 168.35
  },
  {
    "city": "Unpongkor",
    "city_zh": "Unpongkor",
    "country": "Vanuatu",
    "country_zh": "萬那杜",
    "country_iso_code": "VU",
    "timezone": "Pacific/Efate",
    "latitude": -18.81836,
    "longitude": 169.01947
  },
  {
    "city": "Tsuréviu",
    "city_zh": "Tsuréviu",
    "country": "Vanuatu",
    "country_zh": "萬那杜",
    "country_iso_code": "VU",
    "timezone": "Pacific/Efate",
    "latitude": -15.1,
    "longitude": 166.8
  },
  {
    "city": "Tsinioni",
    "city_zh": "Tsinioni",
    "country": "Vanuatu",
    "country_zh": "萬那杜",
    "country_iso_code": "VU",
    "timezone": "Pacific/Efate",
    "latitude": -15.55,
    "longitude": 166.75
  },
  {
    "city": "Tsariaorou",
    "city_zh": "Tsariaorou",
    "country": "Vanuatu",
    "country_zh": "萬那杜",
    "country_iso_code": "VU",
    "timezone": "Pacific/Efate",
    "latitude": -15.03333,
    "longitude": 166.78333
  },
  {
    "city": "Tsarapao",
    "city_zh": "Tsarapao",
    "country": "Vanuatu",
    "country_zh": "萬那杜",
    "country_iso_code": "VU",
    "timezone": "Pacific/Efate",
    "latitude": -15.5,
    "longitude": 166.8
  },
  {
    "city": "Tsaraépéla",
    "city_zh": "Tsaraépéla",
    "country": "Vanuatu",
    "country_zh": "萬那杜",
    "country_iso_code": "VU",
    "timezone": "Pacific/Efate",
    "latitude": -15.46667,
    "longitude": 166.86667
  },
  {
    "city": "Tsaraépaé",
    "city_zh": "Tsaraépaé",
    "country": "Vanuatu",
    "country_zh": "萬那杜",
    "country_iso_code": "VU",
    "timezone": "Pacific/Efate",
    "latitude": -15.51667,
    "longitude": 166.8
  },
  {
    "city": "Towol",
    "city_zh": "Towol",
    "country": "Vanuatu",
    "country_zh": "萬那杜",
    "country_iso_code": "VU",
    "timezone": "Pacific/Efate",
    "latitude": -15.65,
    "longitude": 168.11667
  },
  {
    "city": "Tuqetap",
    "city_zh": "Tuqetap",
    "country": "Vanuatu",
    "country_zh": "萬那杜",
    "country_iso_code": "VU",
    "timezone": "Pacific/Efate",
    "latitude": -13.83333,
    "longitude": 167.68333
  },
  {
    "city": "Toumbouria",
    "city_zh": "Toumbouria",
    "country": "Vanuatu",
    "country_zh": "萬那杜",
    "country_iso_code": "VU",
    "timezone": "Pacific/Efate",
    "latitude": -15.58333,
    "longitude": 166.81667
  },
  {
    "city": "Totokat",
    "city_zh": "Totokat",
    "country": "Vanuatu",
    "country_zh": "萬那杜",
    "country_iso_code": "VU",
    "timezone": "Pacific/Efate",
    "latitude": -15.25,
    "longitude": 167.15
  },
  {
    "city": "Tosi",
    "city_zh": "Tosi",
    "country": "Vanuatu",
    "country_zh": "萬那杜",
    "country_iso_code": "VU",
    "timezone": "Pacific/Efate",
    "latitude": -15.68333,
    "longitude": 168.13333
  },
  {
    "city": "Toou",
    "city_zh": "Toou",
    "country": "Vanuatu",
    "country_zh": "萬那杜",
    "country_iso_code": "VU",
    "timezone": "Pacific/Efate",
    "latitude": -16.23333,
    "longitude": 167.95
  },
  {
    "city": "Tonvar",
    "city_zh": "Tonvar",
    "country": "Vanuatu",
    "country_zh": "萬那杜",
    "country_iso_code": "VU",
    "timezone": "Pacific/Efate",
    "latitude": -15.41667,
    "longitude": 166.9
  },
  {
    "city": "Tongwé",
    "city_zh": "Tongwé",
    "country": "Vanuatu",
    "country_zh": "萬那杜",
    "country_iso_code": "VU",
    "timezone": "Pacific/Efate",
    "latitude": -15.7,
    "longitude": 168.11667
  },
  {
    "city": "Tongaméa",
    "city_zh": "Tongaméa",
    "country": "Vanuatu",
    "country_zh": "萬那杜",
    "country_iso_code": "VU",
    "timezone": "Pacific/Efate",
    "latitude": -17.06667,
    "longitude": 168.41667
  },
  {
    "city": "Tondila",
    "city_zh": "Tondila",
    "country": "Vanuatu",
    "country_zh": "萬那杜",
    "country_iso_code": "VU",
    "timezone": "Pacific/Efate",
    "latitude": -15.4,
    "longitude": 166.86667
  },
  {
    "city": "Tomboul",
    "city_zh": "Tomboul",
    "country": "Vanuatu",
    "country_zh": "萬那杜",
    "country_iso_code": "VU",
    "timezone": "Pacific/Efate",
    "latitude": -16.0,
    "longitude": 167.33333
  },
  {
    "city": "Tombet",
    "city_zh": "Tombet",
    "country": "Vanuatu",
    "country_zh": "萬那杜",
    "country_iso_code": "VU",
    "timezone": "Pacific/Efate",
    "latitude": -15.36667,
    "longitude": 166.88333
  },
  {
    "city": "Tombaesar",
    "city_zh": "Tombaesar",
    "country": "Vanuatu",
    "country_zh": "萬那杜",
    "country_iso_code": "VU",
    "timezone": "Pacific/Efate",
    "latitude": -15.4,
    "longitude": 166.01667
  },
  {
    "city": "Tolomako",
    "city_zh": "Tolomako",
    "country": "Vanuatu",
    "country_zh": "萬那杜",
    "country_iso_code": "VU",
    "timezone": "Pacific/Efate",
    "latitude": -15.16667,
    "longitude": 166.81667
  },
  {
    "city": "Toglag",
    "city_zh": "Toglag",
    "country": "Vanuatu",
    "country_zh": "萬那杜",
    "country_iso_code": "VU",
    "timezone": "Pacific/Efate",
    "latitude": -13.70336,
    "longitude": 167.62476
  },
  {
    "city": "Tolav",
    "city_zh": "Tolav",
    "country": "Vanuatu",
    "country_zh": "萬那杜",
    "country_iso_code": "VU",
    "timezone": "Pacific/Efate",
    "latitude": -14.31667,
    "longitude": 167.41667
  },
  {
    "city": "Tokor",
    "city_zh": "Tokor",
    "country": "Vanuatu",
    "country_zh": "萬那杜",
    "country_iso_code": "VU",
    "timezone": "Pacific/Efate",
    "latitude": -14.35,
    "longitude": 167.56667
  },
  {
    "city": "Tobotoumbo",
    "city_zh": "Tobotoumbo",
    "country": "Vanuatu",
    "country_zh": "萬那杜",
    "country_iso_code": "VU",
    "timezone": "Pacific/Efate",
    "latitude": -15.46667,
    "longitude": 167.73333
  },
  {
    "city": "Tobol",
    "city_zh": "Tobol",
    "country": "Vanuatu",
    "country_zh": "萬那杜",
    "country_iso_code": "VU",
    "timezone": "Pacific/Efate",
    "latitude": -16.11667,
    "longitude": 168.15
  },
  {
    "city": "Toak",
    "city_zh": "Toak",
    "country": "Vanuatu",
    "country_zh": "萬那杜",
    "country_iso_code": "VU",
    "timezone": "Pacific/Efate",
    "latitude": -16.35,
    "longitude": 168.28333
  },
  {
    "city": "Tivel",
    "city_zh": "Tivel",
    "country": "Vanuatu",
    "country_zh": "萬那杜",
    "country_iso_code": "VU",
    "timezone": "Pacific/Efate",
    "latitude": -16.05,
    "longitude": 167.4
  },
  {
    "city": "Tisbel",
    "city_zh": "Tisbel",
    "country": "Vanuatu",
    "country_zh": "萬那杜",
    "country_iso_code": "VU",
    "timezone": "Pacific/Efate",
    "latitude": -16.26667,
    "longitude": 167.4
  },
  {
    "city": "Tiouroumbo",
    "city_zh": "Tiouroumbo",
    "country": "Vanuatu",
    "country_zh": "萬那杜",
    "country_iso_code": "VU",
    "timezone": "Pacific/Efate",
    "latitude": -15.31667,
    "longitude": 167.06667
  },
  {
    "city": "Tioungwi",
    "city_zh": "Tioungwi",
    "country": "Vanuatu",
    "country_zh": "萬那杜",
    "country_iso_code": "VU",
    "timezone": "Pacific/Efate",
    "latitude": -15.3,
    "longitude": 167.06667
  },
  {
    "city": "Tiltawa",
    "city_zh": "Tiltawa",
    "country": "Vanuatu",
    "country_zh": "萬那杜",
    "country_iso_code": "VU",
    "timezone": "Pacific/Efate",
    "latitude": -13.69792,
    "longitude": 167.6458
  },
  {
    "city": "Tikilasoa",
    "city_zh": "Tikilasoa",
    "country": "Vanuatu",
    "country_zh": "萬那杜",
    "country_iso_code": "VU",
    "timezone": "Pacific/Efate",
    "latitude": -17.48316,
    "longitude": 168.38482
  },
  {
    "city": "Tigalga",
    "city_zh": "Tigalga",
    "country": "Vanuatu",
    "country_zh": "萬那杜",
    "country_iso_code": "VU",
    "timezone": "Pacific/Efate",
    "latitude": -13.86667,
    "longitude": 167.4
  },
  {
    "city": "Tichlélamboué",
    "city_zh": "Tichlélamboué",
    "country": "Vanuatu",
    "country_zh": "萬那杜",
    "country_iso_code": "VU",
    "timezone": "Pacific/Efate",
    "latitude": -16.0,
    "longitude": 167.36667
  },
  {
    "city": "Tétavalé",
    "city_zh": "Tétavalé",
    "country": "Vanuatu",
    "country_zh": "萬那杜",
    "country_iso_code": "VU",
    "timezone": "Pacific/Efate",
    "latitude": -16.36667,
    "longitude": 168.23333
  },
  {
    "city": "Térou",
    "city_zh": "Térou",
    "country": "Vanuatu",
    "country_zh": "萬那杜",
    "country_iso_code": "VU",
    "timezone": "Pacific/Efate",
    "latitude": -15.16667,
    "longitude": 166.86667
  },
  {
    "city": "Tentaréssoup",
    "city_zh": "Tentaréssoup",
    "country": "Vanuatu",
    "country_zh": "萬那杜",
    "country_iso_code": "VU",
    "timezone": "Pacific/Efate",
    "latitude": -15.91667,
    "longitude": 167.16667
  },
  {
    "city": "Tentaréssak",
    "city_zh": "Tentaréssak",
    "country": "Vanuatu",
    "country_zh": "萬那杜",
    "country_iso_code": "VU",
    "timezone": "Pacific/Efate",
    "latitude": -15.93333,
    "longitude": 167.16667
  },
  {
    "city": "Tenmial",
    "city_zh": "Tenmial",
    "country": "Vanuatu",
    "country_zh": "萬那杜",
    "country_iso_code": "VU",
    "timezone": "Pacific/Efate",
    "latitude": -15.95,
    "longitude": 167.18333
  },
  {
    "city": "Tenmérer",
    "city_zh": "Tenmérer",
    "country": "Vanuatu",
    "country_zh": "萬那杜",
    "country_iso_code": "VU",
    "timezone": "Pacific/Efate",
    "latitude": -15.9,
    "longitude": 167.26667
  },
  {
    "city": "Tenmarou",
    "city_zh": "Tenmarou",
    "country": "Vanuatu",
    "country_zh": "萬那杜",
    "country_iso_code": "VU",
    "timezone": "Pacific/Efate",
    "latitude": -16.03333,
    "longitude": 167.16667
  },
  {
    "city": "Tembotalo",
    "city_zh": "Tembotalo",
    "country": "Vanuatu",
    "country_zh": "萬那杜",
    "country_iso_code": "VU",
    "timezone": "Pacific/Efate",
    "latitude": -15.48333,
    "longitude": 167.08333
  },
  {
    "city": "Tématou",
    "city_zh": "Tématou",
    "country": "Vanuatu",
    "country_zh": "萬那杜",
    "country_iso_code": "VU",
    "timezone": "Pacific/Efate",
    "latitude": -16.48333,
    "longitude": 168.31667
  },
  {
    "city": "Tellit",
    "city_zh": "Tellit",
    "country": "Vanuatu",
    "country_zh": "萬那杜",
    "country_iso_code": "VU",
    "timezone": "Pacific/Efate",
    "latitude": -16.16667,
    "longitude": 168.1
  },
  {
    "city": "Etelekei",
    "city_zh": "Etelekei",
    "country": "Vanuatu",
    "country_zh": "萬那杜",
    "country_iso_code": "VU",
    "timezone": "Pacific/Efate",
    "latitude": -19.49934,
    "longitude": 169.45388
  },
  {
    "city": "Tawor",
    "city_zh": "Tawor",
    "country": "Vanuatu",
    "country_zh": "萬那杜",
    "country_iso_code": "VU",
    "timezone": "Pacific/Efate",
    "latitude": -16.11667,
    "longitude": 168.15
  },
  {
    "city": "Tavoni",
    "city_zh": "Tavoni",
    "country": "Vanuatu",
    "country_zh": "萬那杜",
    "country_iso_code": "VU",
    "timezone": "Pacific/Efate",
    "latitude": -15.48333,
    "longitude": 166.95
  },
  {
    "city": "Tavoloua",
    "city_zh": "Tavoloua",
    "country": "Vanuatu",
    "country_zh": "萬那杜",
    "country_iso_code": "VU",
    "timezone": "Pacific/Efate",
    "latitude": -13.85,
    "longitude": 167.7
  },
  {
    "city": "Tavoa",
    "city_zh": "Tavoa",
    "country": "Vanuatu",
    "country_zh": "萬那杜",
    "country_iso_code": "VU",
    "timezone": "Pacific/Efate",
    "latitude": -15.45,
    "longitude": 166.98333
  },
  {
    "city": "Tavio",
    "city_zh": "Tavio",
    "country": "Vanuatu",
    "country_zh": "萬那杜",
    "country_iso_code": "VU",
    "timezone": "Pacific/Efate",
    "latitude": -16.66667,
    "longitude": 168.21667
  },
  {
    "city": "Taviac",
    "city_zh": "Taviac",
    "country": "Vanuatu",
    "country_zh": "萬那杜",
    "country_iso_code": "VU",
    "timezone": "Pacific/Efate",
    "latitude": -16.36667,
    "longitude": 168.23333
  },
  {
    "city": "Tavendroua",
    "city_zh": "Tavendroua",
    "country": "Vanuatu",
    "country_zh": "萬那杜",
    "country_iso_code": "VU",
    "timezone": "Pacific/Efate",
    "latitude": -16.35,
    "longitude": 167.36667
  },
  {
    "city": "Tavalavala",
    "city_zh": "Tavalavala",
    "country": "Vanuatu",
    "country_zh": "萬那杜",
    "country_iso_code": "VU",
    "timezone": "Pacific/Efate",
    "latitude": -15.3,
    "longitude": 167.9
  },
  {
    "city": "Tavala",
    "city_zh": "Tavala",
    "country": "Vanuatu",
    "country_zh": "萬那杜",
    "country_iso_code": "VU",
    "timezone": "Pacific/Efate",
    "latitude": -15.41667,
    "longitude": 167.71667
  },
  {
    "city": "Tatouira",
    "city_zh": "Tatouira",
    "country": "Vanuatu",
    "country_zh": "萬那杜",
    "country_iso_code": "VU",
    "timezone": "Pacific/Efate",
    "latitude": -19.56667,
    "longitude": 169.46667
  },
  {
    "city": "Tataïkalo",
    "city_zh": "Tataïkalo",
    "country": "Vanuatu",
    "country_zh": "萬那杜",
    "country_iso_code": "VU",
    "timezone": "Pacific/Efate",
    "latitude": -15.46667,
    "longitude": 166.9
  },
  {
    "city": "Tatafo",
    "city_zh": "Tatafo",
    "country": "Vanuatu",
    "country_zh": "萬那杜",
    "country_iso_code": "VU",
    "timezone": "Pacific/Efate",
    "latitude": -15.38333,
    "longitude": 166.98333
  },
  {
    "city": "Tasmat",
    "city_zh": "Tasmat",
    "country": "Vanuatu",
    "country_zh": "萬那杜",
    "country_iso_code": "VU",
    "timezone": "Pacific/Efate",
    "latitude": -15.21,
    "longitude": 166.66025
  },
  {
    "city": "Tasmaori",
    "city_zh": "Tasmaori",
    "country": "Vanuatu",
    "country_zh": "萬那杜",
    "country_iso_code": "VU",
    "timezone": "Pacific/Efate",
    "latitude": -14.91667,
    "longitude": 168.06667
  },
  {
    "city": "Tasmaloum",
    "city_zh": "Tasmaloum",
    "country": "Vanuatu",
    "country_zh": "萬那杜",
    "country_iso_code": "VU",
    "timezone": "Pacific/Efate",
    "latitude": -15.61667,
    "longitude": 166.9
  },
  {
    "city": "Tasiriki",
    "city_zh": "Tasiriki",
    "country": "Vanuatu",
    "country_zh": "萬那杜",
    "country_iso_code": "VU",
    "timezone": "Pacific/Efate",
    "latitude": -15.6,
    "longitude": 166.76667
  },
  {
    "city": "Tasfaron",
    "city_zh": "Tasfaron",
    "country": "Vanuatu",
    "country_zh": "萬那杜",
    "country_iso_code": "VU",
    "timezone": "Pacific/Efate",
    "latitude": -15.6,
    "longitude": 168.13333
  },
  {
    "city": "Tarasag",
    "city_zh": "Tarasag",
    "country": "Vanuatu",
    "country_zh": "萬那杜",
    "country_iso_code": "VU",
    "timezone": "Pacific/Efate",
    "latitude": -14.25,
    "longitude": 167.58333
  },
  {
    "city": "Taraïbé",
    "city_zh": "Taraïbé",
    "country": "Vanuatu",
    "country_zh": "萬那杜",
    "country_iso_code": "VU",
    "timezone": "Pacific/Efate",
    "latitude": -15.75,
    "longitude": 168.15
  },
  {
    "city": "Yawe",
    "city_zh": "Yawe",
    "country": "Vanuatu",
    "country_zh": "萬那杜",
    "country_iso_code": "VU",
    "timezone": "Pacific/Efate",
    "latitude": -13.13047,
    "longitude": 166.5481
  },
  {
    "city": "Taoutou",
    "city_zh": "Taoutou",
    "country": "Vanuatu",
    "country_zh": "萬那杜",
    "country_iso_code": "VU",
    "timezone": "Pacific/Efate",
    "latitude": -16.08333,
    "longitude": 167.41667
  },
  {
    "city": "Taoumanouni",
    "city_zh": "Taoumanouni",
    "country": "Vanuatu",
    "country_zh": "萬那杜",
    "country_iso_code": "VU",
    "timezone": "Pacific/Efate",
    "latitude": -15.46667,
    "longitude": 166.9
  },
  {
    "city": "Tanrik",
    "city_zh": "Tanrik",
    "country": "Vanuatu",
    "country_zh": "萬那杜",
    "country_iso_code": "VU",
    "timezone": "Pacific/Efate",
    "latitude": -15.0073,
    "longitude": 168.08979
  },
  {
    "city": "Tanoutcho",
    "city_zh": "Tanoutcho",
    "country": "Vanuatu",
    "country_zh": "萬那杜",
    "country_iso_code": "VU",
    "timezone": "Pacific/Efate",
    "latitude": -15.0,
    "longitude": 166.78333
  },
  {
    "city": "Tanopousa",
    "city_zh": "Tanopousa",
    "country": "Vanuatu",
    "country_zh": "萬那杜",
    "country_iso_code": "VU",
    "timezone": "Pacific/Efate",
    "latitude": -15.56667,
    "longitude": 166.85
  },
  {
    "city": "Tanoï",
    "city_zh": "Tanoï",
    "country": "Vanuatu",
    "country_zh": "萬那杜",
    "country_iso_code": "VU",
    "timezone": "Pacific/Efate",
    "latitude": -15.45,
    "longitude": 166.8
  },
  {
    "city": "Tanmaéto",
    "city_zh": "Tanmaéto",
    "country": "Vanuatu",
    "country_zh": "萬那杜",
    "country_iso_code": "VU",
    "timezone": "Pacific/Efate",
    "latitude": -15.08333,
    "longitude": 168.06667
  },
  {
    "city": "Tanlapa",
    "city_zh": "Tanlapa",
    "country": "Vanuatu",
    "country_zh": "萬那杜",
    "country_iso_code": "VU",
    "timezone": "Pacific/Efate",
    "latitude": -15.5,
    "longitude": 166.85
  },
  {
    "city": "Tangis",
    "city_zh": "Tangis",
    "country": "Vanuatu",
    "country_zh": "萬那杜",
    "country_iso_code": "VU",
    "timezone": "Pacific/Efate",
    "latitude": -15.58333,
    "longitude": 167.01667
  },
  {
    "city": "Tanboun",
    "city_zh": "Tanboun",
    "country": "Vanuatu",
    "country_zh": "萬那杜",
    "country_iso_code": "VU",
    "timezone": "Pacific/Efate",
    "latitude": -15.46667,
    "longitude": 166.75
  },
  {
    "city": "Tanbouipil",
    "city_zh": "Tanbouipil",
    "country": "Vanuatu",
    "country_zh": "萬那杜",
    "country_iso_code": "VU",
    "timezone": "Pacific/Efate",
    "latitude": -15.65,
    "longitude": 166.76667
  },
  {
    "city": "Tanbok",
    "city_zh": "Tanbok",
    "country": "Vanuatu",
    "country_zh": "萬那杜",
    "country_iso_code": "VU",
    "timezone": "Pacific/Efate",
    "latitude": -15.66667,
    "longitude": 168.18333
  },
  {
    "city": "Tamlilip",
    "city_zh": "Tamlilip",
    "country": "Vanuatu",
    "country_zh": "萬那杜",
    "country_iso_code": "VU",
    "timezone": "Pacific/Efate",
    "latitude": -15.98333,
    "longitude": 167.23333
  },
  {
    "city": "Talatas",
    "city_zh": "Talatas",
    "country": "Vanuatu",
    "country_zh": "萬那杜",
    "country_iso_code": "VU",
    "timezone": "Pacific/Efate",
    "latitude": -15.18333,
    "longitude": 166.86667
  },
  {
    "city": "Taktak",
    "city_zh": "Taktak",
    "country": "Vanuatu",
    "country_zh": "萬那杜",
    "country_iso_code": "VU",
    "timezone": "Pacific/Efate",
    "latitude": -14.7,
    "longitude": 166.6
  },
  {
    "city": "Taïwi",
    "city_zh": "Taïwi",
    "country": "Vanuatu",
    "country_zh": "萬那杜",
    "country_iso_code": "VU",
    "timezone": "Pacific/Efate",
    "latitude": -18.91667,
    "longitude": 169.08333
  },
  {
    "city": "Tahouta",
    "city_zh": "Tahouta",
    "country": "Vanuatu",
    "country_zh": "萬那杜",
    "country_iso_code": "VU",
    "timezone": "Pacific/Efate",
    "latitude": -15.15,
    "longitude": 168.11667
  },
  {
    "city": "Tahi",
    "city_zh": "Tahi",
    "country": "Vanuatu",
    "country_zh": "萬那杜",
    "country_iso_code": "VU",
    "timezone": "Pacific/Efate",
    "latitude": -16.46749,
    "longitude": 168.21995
  },
  {
    "city": "Tafoualé",
    "city_zh": "Tafoualé",
    "country": "Vanuatu",
    "country_zh": "萬那杜",
    "country_iso_code": "VU",
    "timezone": "Pacific/Efate",
    "latitude": -16.48333,
    "longitude": 168.21667
  },
  {
    "city": "Tafia",
    "city_zh": "Tafia",
    "country": "Vanuatu",
    "country_zh": "萬那杜",
    "country_iso_code": "VU",
    "timezone": "Pacific/Efate",
    "latitude": -17.01667,
    "longitude": 168.61667
  },
  {
    "city": "Taémammavi",
    "city_zh": "Taémammavi",
    "country": "Vanuatu",
    "country_zh": "萬那杜",
    "country_iso_code": "VU",
    "timezone": "Pacific/Efate",
    "latitude": -15.28333,
    "longitude": 167.91667
  },
  {
    "city": "Tabwimoli",
    "city_zh": "Tabwimoli",
    "country": "Vanuatu",
    "country_zh": "萬那杜",
    "country_iso_code": "VU",
    "timezone": "Pacific/Efate",
    "latitude": -15.5,
    "longitude": 166.91667
  },
  {
    "city": "Tabwimol",
    "city_zh": "Tabwimol",
    "country": "Vanuatu",
    "country_zh": "萬那杜",
    "country_iso_code": "VU",
    "timezone": "Pacific/Efate",
    "latitude": -15.4,
    "longitude": 166.85
  },
  {
    "city": "Tabwé",
    "city_zh": "Tabwé",
    "country": "Vanuatu",
    "country_zh": "萬那杜",
    "country_iso_code": "VU",
    "timezone": "Pacific/Efate",
    "latitude": -16.43436,
    "longitude": 168.23643
  },
  {
    "city": "Taboutsoui",
    "city_zh": "Taboutsoui",
    "country": "Vanuatu",
    "country_zh": "萬那杜",
    "country_iso_code": "VU",
    "timezone": "Pacific/Efate",
    "latitude": -15.48333,
    "longitude": 166.95
  },
  {
    "city": "Tabounboder",
    "city_zh": "Tabounboder",
    "country": "Vanuatu",
    "country_zh": "萬那杜",
    "country_iso_code": "VU",
    "timezone": "Pacific/Efate",
    "latitude": -15.48333,
    "longitude": 166.95
  },
  {
    "city": "Taboulan",
    "city_zh": "Taboulan",
    "country": "Vanuatu",
    "country_zh": "萬那杜",
    "country_iso_code": "VU",
    "timezone": "Pacific/Efate",
    "latitude": -15.46667,
    "longitude": 166.93333
  },
  {
    "city": "Taboukavika",
    "city_zh": "Taboukavika",
    "country": "Vanuatu",
    "country_zh": "萬那杜",
    "country_iso_code": "VU",
    "timezone": "Pacific/Efate",
    "latitude": -15.58333,
    "longitude": 168.11667
  },
  {
    "city": "Tabalabalaran",
    "city_zh": "Tabalabalaran",
    "country": "Vanuatu",
    "country_zh": "萬那杜",
    "country_iso_code": "VU",
    "timezone": "Pacific/Efate",
    "latitude": -14.9,
    "longitude": 166.76667
  },
  {
    "city": "Taal Nétan",
    "city_zh": "Taal Nétan",
    "country": "Vanuatu",
    "country_zh": "萬那杜",
    "country_iso_code": "VU",
    "timezone": "Pacific/Efate",
    "latitude": -16.5,
    "longitude": 168.2
  },
  {
    "city": "Sydney",
    "city_zh": "Sydney",
    "country": "Vanuatu",
    "country_zh": "萬那杜",
    "country_iso_code": "VU",
    "timezone": "Pacific/Efate",
    "latitude": -19.53333,
    "longitude": 169.26667
  },
  {
    "city": "South River",
    "city_zh": "South River",
    "country": "Vanuatu",
    "country_zh": "萬那杜",
    "country_iso_code": "VU",
    "timezone": "Pacific/Efate",
    "latitude": -18.94262,
    "longitude": 169.17641
  },
  {
    "city": "Sounaï",
    "city_zh": "Sounaï",
    "country": "Vanuatu",
    "country_zh": "萬那杜",
    "country_iso_code": "VU",
    "timezone": "Pacific/Efate",
    "latitude": -17.53333,
    "longitude": 168.28333
  },
  {
    "city": "Souloua",
    "city_zh": "Souloua",
    "country": "Vanuatu",
    "country_zh": "萬那杜",
    "country_iso_code": "VU",
    "timezone": "Pacific/Efate",
    "latitude": -17.06667,
    "longitude": 168.36667
  },
  {
    "city": "Souléoutoubari",
    "city_zh": "Souléoutoubari",
    "country": "Vanuatu",
    "country_zh": "萬那杜",
    "country_iso_code": "VU",
    "timezone": "Pacific/Efate",
    "latitude": -14.98333,
    "longitude": 166.76667
  },
  {
    "city": "Souléiséré",
    "city_zh": "Souléiséré",
    "country": "Vanuatu",
    "country_zh": "萬那杜",
    "country_iso_code": "VU",
    "timezone": "Pacific/Efate",
    "latitude": -14.98333,
    "longitude": 166.76667
  },
  {
    "city": "Soulé",
    "city_zh": "Soulé",
    "country": "Vanuatu",
    "country_zh": "萬那杜",
    "country_iso_code": "VU",
    "timezone": "Pacific/Efate",
    "latitude": -15.11667,
    "longitude": 166.63333
  },
  {
    "city": "Sonrha",
    "city_zh": "Sonrha",
    "country": "Vanuatu",
    "country_zh": "萬那杜",
    "country_iso_code": "VU",
    "timezone": "Pacific/Efate",
    "latitude": -15.91667,
    "longitude": 167.16667
  },
  {
    "city": "Sola",
    "city_zh": "Sola",
    "country": "Vanuatu",
    "country_zh": "萬那杜",
    "country_iso_code": "VU",
    "timezone": "Pacific/Efate",
    "latitude": -13.87611,
    "longitude": 167.55167
  },
  {
    "city": "Soamal",
    "city_zh": "Soamal",
    "country": "Vanuatu",
    "country_zh": "萬那杜",
    "country_iso_code": "VU",
    "timezone": "Pacific/Efate",
    "latitude": -15.61667,
    "longitude": 168.11667
  },
  {
    "city": "Slétassimal",
    "city_zh": "Slétassimal",
    "country": "Vanuatu",
    "country_zh": "萬那杜",
    "country_iso_code": "VU",
    "timezone": "Pacific/Efate",
    "latitude": -16.06667,
    "longitude": 167.4
  },
  {
    "city": "Slelouré",
    "city_zh": "Slelouré",
    "country": "Vanuatu",
    "country_zh": "萬那杜",
    "country_iso_code": "VU",
    "timezone": "Pacific/Efate",
    "latitude": -16.06667,
    "longitude": 167.4
  },
  {
    "city": "Siviri",
    "city_zh": "Siviri",
    "country": "Vanuatu",
    "country_zh": "萬那杜",
    "country_iso_code": "VU",
    "timezone": "Pacific/Efate",
    "latitude": -17.52346,
    "longitude": 168.32265
  },
  {
    "city": "Saktouy",
    "city_zh": "Saktouy",
    "country": "Vanuatu",
    "country_zh": "萬那杜",
    "country_iso_code": "VU",
    "timezone": "Pacific/Efate",
    "latitude": -15.4,
    "longitude": 166.76667
  },
  {
    "city": "Sénal",
    "city_zh": "Sénal",
    "country": "Vanuatu",
    "country_zh": "萬那杜",
    "country_iso_code": "VU",
    "timezone": "Pacific/Efate",
    "latitude": -16.1,
    "longitude": 167.41667
  },
  {
    "city": "Isasia",
    "city_zh": "Isasia",
    "country": "Vanuatu",
    "country_zh": "萬那杜",
    "country_iso_code": "VU",
    "timezone": "Pacific/Efate",
    "latitude": -19.59119,
    "longitude": 169.35447
  },
  {
    "city": "Sasanadam",
    "city_zh": "Sasanadam",
    "country": "Vanuatu",
    "country_zh": "萬那杜",
    "country_iso_code": "VU",
    "timezone": "Pacific/Efate",
    "latitude": -15.71667,
    "longitude": 168.13333
  },
  {
    "city": "Sasaké",
    "city_zh": "Sasaké",
    "country": "Vanuatu",
    "country_zh": "萬那杜",
    "country_iso_code": "VU",
    "timezone": "Pacific/Efate",
    "latitude": -17.05,
    "longitude": 168.38333
  },
  {
    "city": "Sarouaétan",
    "city_zh": "Sarouaétan",
    "country": "Vanuatu",
    "country_zh": "萬那杜",
    "country_iso_code": "VU",
    "timezone": "Pacific/Efate",
    "latitude": -15.36667,
    "longitude": 167.91667
  },
  {
    "city": "Sarmette",
    "city_zh": "Sarmette",
    "country": "Vanuatu",
    "country_zh": "萬那杜",
    "country_iso_code": "VU",
    "timezone": "Pacific/Efate",
    "latitude": -16.2,
    "longitude": 167.53333
  },
  {
    "city": "Saritamata",
    "city_zh": "Saritamata",
    "country": "Vanuatu",
    "country_zh": "萬那杜",
    "country_iso_code": "VU",
    "timezone": "Pacific/Efate",
    "latitude": -15.1,
    "longitude": 168.1
  },
  {
    "city": "Saraotou",
    "city_zh": "Saraotou",
    "country": "Vanuatu",
    "country_zh": "萬那杜",
    "country_iso_code": "VU",
    "timezone": "Pacific/Efate",
    "latitude": -15.43333,
    "longitude": 167.2
  },
  {
    "city": "Saranatogoro",
    "city_zh": "Saranatogoro",
    "country": "Vanuatu",
    "country_zh": "萬那杜",
    "country_iso_code": "VU",
    "timezone": "Pacific/Efate",
    "latitude": -15.35,
    "longitude": 167.76667
  },
  {
    "city": "Saranamoundou",
    "city_zh": "Saranamoundou",
    "country": "Vanuatu",
    "country_zh": "萬那杜",
    "country_iso_code": "VU",
    "timezone": "Pacific/Efate",
    "latitude": -15.36667,
    "longitude": 167.76667
  },
  {
    "city": "Saraerao",
    "city_zh": "Saraerao",
    "country": "Vanuatu",
    "country_zh": "萬那杜",
    "country_iso_code": "VU",
    "timezone": "Pacific/Efate",
    "latitude": -15.33333,
    "longitude": 167.9
  },
  {
    "city": "Saouma",
    "city_zh": "Saouma",
    "country": "Vanuatu",
    "country_zh": "萬那杜",
    "country_iso_code": "VU",
    "timezone": "Pacific/Efate",
    "latitude": -17.73333,
    "longitude": 168.28333
  },
  {
    "city": "Saou",
    "city_zh": "Saou",
    "country": "Vanuatu",
    "country_zh": "萬那杜",
    "country_iso_code": "VU",
    "timezone": "Pacific/Efate",
    "latitude": -15.41667,
    "longitude": 166.8
  },
  {
    "city": "Sanwar",
    "city_zh": "Sanwar",
    "country": "Vanuatu",
    "country_zh": "萬那杜",
    "country_iso_code": "VU",
    "timezone": "Pacific/Efate",
    "latitude": -15.98333,
    "longitude": 167.35
  },
  {
    "city": "Sankay",
    "city_zh": "Sankay",
    "country": "Vanuatu",
    "country_zh": "萬那杜",
    "country_iso_code": "VU",
    "timezone": "Pacific/Efate",
    "latitude": -16.46667,
    "longitude": 168.23333
  },
  {
    "city": "Sang’hava",
    "city_zh": "Sang’hava",
    "country": "Vanuatu",
    "country_zh": "萬那杜",
    "country_iso_code": "VU",
    "timezone": "Pacific/Efate",
    "latitude": -17.08333,
    "longitude": 168.38333
  },
  {
    "city": "Sanasoup",
    "city_zh": "Sanasoup",
    "country": "Vanuatu",
    "country_zh": "萬那杜",
    "country_iso_code": "VU",
    "timezone": "Pacific/Efate",
    "latitude": -16.33333,
    "longitude": 168.0
  },
  {
    "city": "Sanapapa",
    "city_zh": "Sanapapa",
    "country": "Vanuatu",
    "country_zh": "萬那杜",
    "country_iso_code": "VU",
    "timezone": "Pacific/Efate",
    "latitude": -15.63333,
    "longitude": 166.76667
  },
  {
    "city": "Sanakoumbé",
    "city_zh": "Sanakoumbé",
    "country": "Vanuatu",
    "country_zh": "萬那杜",
    "country_iso_code": "VU",
    "timezone": "Pacific/Efate",
    "latitude": -15.65,
    "longitude": 167.08333
  },
  {
    "city": "Samo",
    "city_zh": "Samo",
    "country": "Vanuatu",
    "country_zh": "萬那杜",
    "country_iso_code": "VU",
    "timezone": "Pacific/Efate",
    "latitude": -19.53333,
    "longitude": 169.48333
  },
  {
    "city": "Sameria",
    "city_zh": "Sameria",
    "country": "Vanuatu",
    "country_zh": "萬那杜",
    "country_iso_code": "VU",
    "timezone": "Pacific/Efate",
    "latitude": -19.56095,
    "longitude": 169.45279
  },
  {
    "city": "Sam̄éo",
    "city_zh": "Sam̄éo",
    "country": "Vanuatu",
    "country_zh": "萬那杜",
    "country_iso_code": "VU",
    "timezone": "Pacific/Efate",
    "latitude": -16.3,
    "longitude": 168.28333
  },
  {
    "city": "Samarandas",
    "city_zh": "Samarandas",
    "country": "Vanuatu",
    "country_zh": "萬那杜",
    "country_iso_code": "VU",
    "timezone": "Pacific/Efate",
    "latitude": -15.71667,
    "longitude": 167.23333
  },
  {
    "city": "Saltas",
    "city_zh": "Saltas",
    "country": "Vanuatu",
    "country_zh": "萬那杜",
    "country_iso_code": "VU",
    "timezone": "Pacific/Efate",
    "latitude": -15.98333,
    "longitude": 168.25
  },
  {
    "city": "Salap",
    "city_zh": "Salap",
    "country": "Vanuatu",
    "country_zh": "萬那杜",
    "country_iso_code": "VU",
    "timezone": "Pacific/Efate",
    "latitude": -15.95,
    "longitude": 168.18333
  },
  {
    "city": "Sakéani",
    "city_zh": "Sakéani",
    "country": "Vanuatu",
    "country_zh": "萬那杜",
    "country_iso_code": "VU",
    "timezone": "Pacific/Efate",
    "latitude": -15.55,
    "longitude": 166.75
  },
  {
    "city": "Saké",
    "city_zh": "Saké",
    "country": "Vanuatu",
    "country_zh": "萬那杜",
    "country_iso_code": "VU",
    "timezone": "Pacific/Efate",
    "latitude": -17.5,
    "longitude": 168.4
  },
  {
    "city": "Sakao",
    "city_zh": "Sakao",
    "country": "Vanuatu",
    "country_zh": "萬那杜",
    "country_iso_code": "VU",
    "timezone": "Pacific/Efate",
    "latitude": -16.81667,
    "longitude": 168.38333
  },
  {
    "city": "Saï",
    "city_zh": "Saï",
    "country": "Vanuatu",
    "country_zh": "萬那杜",
    "country_iso_code": "VU",
    "timezone": "Pacific/Efate",
    "latitude": -15.95,
    "longitude": 168.25
  },
  {
    "city": "Safiou",
    "city_zh": "Safiou",
    "country": "Vanuatu",
    "country_zh": "萬那杜",
    "country_iso_code": "VU",
    "timezone": "Pacific/Efate",
    "latitude": -16.91667,
    "longitude": 168.53333
  },
  {
    "city": "Saé",
    "city_zh": "Saé",
    "country": "Vanuatu",
    "country_zh": "萬那杜",
    "country_iso_code": "VU",
    "timezone": "Pacific/Efate",
    "latitude": -16.36667,
    "longitude": 168.25
  },
  {
    "city": "Saama",
    "city_zh": "Saama",
    "country": "Vanuatu",
    "country_zh": "萬那杜",
    "country_iso_code": "VU",
    "timezone": "Pacific/Efate",
    "latitude": -17.55,
    "longitude": 168.35
  },
  {
    "city": "Rowonawo",
    "city_zh": "Rowonawo",
    "country": "Vanuatu",
    "country_zh": "萬那杜",
    "country_iso_code": "VU",
    "timezone": "Pacific/Efate",
    "latitude": -15.1,
    "longitude": 168.08333
  },
  {
    "city": "Rowok",
    "city_zh": "Rowok",
    "country": "Vanuatu",
    "country_zh": "萬那杜",
    "country_iso_code": "VU",
    "timezone": "Pacific/Efate",
    "latitude": -15.71667,
    "longitude": 168.11667
  },
  {
    "city": "Rowo",
    "city_zh": "Rowo",
    "country": "Vanuatu",
    "country_zh": "萬那杜",
    "country_iso_code": "VU",
    "timezone": "Pacific/Efate",
    "latitude": -14.95,
    "longitude": 167.03333
  },
  {
    "city": "Rovo",
    "city_zh": "Rovo",
    "country": "Vanuatu",
    "country_zh": "萬那杜",
    "country_iso_code": "VU",
    "timezone": "Pacific/Efate",
    "latitude": -16.3,
    "longitude": 168.3
  },
  {
    "city": "Roupési",
    "city_zh": "Roupési",
    "country": "Vanuatu",
    "country_zh": "萬那杜",
    "country_iso_code": "VU",
    "timezone": "Pacific/Efate",
    "latitude": -15.48333,
    "longitude": 166.86667
  },
  {
    "city": "Roria",
    "city_zh": "Roria",
    "country": "Vanuatu",
    "country_zh": "萬那杜",
    "country_iso_code": "VU",
    "timezone": "Pacific/Efate",
    "latitude": -15.43333,
    "longitude": 166.9
  },
  {
    "city": "Ropoutsoum",
    "city_zh": "Ropoutsoum",
    "country": "Vanuatu",
    "country_zh": "萬那杜",
    "country_iso_code": "VU",
    "timezone": "Pacific/Efate",
    "latitude": -15.41667,
    "longitude": 166.96667
  },
  {
    "city": "Rongétra",
    "city_zh": "Rongétra",
    "country": "Vanuatu",
    "country_zh": "萬那杜",
    "country_iso_code": "VU",
    "timezone": "Pacific/Efate",
    "latitude": -16.23333,
    "longitude": 167.6
  },
  {
    "city": "Roghuros",
    "city_zh": "Roghuros",
    "country": "Vanuatu",
    "country_zh": "萬那杜",
    "country_iso_code": "VU",
    "timezone": "Pacific/Efate",
    "latitude": -16.23333,
    "longitude": 167.6
  },
  {
    "city": "Robago",
    "city_zh": "Robago",
    "country": "Vanuatu",
    "country_zh": "萬那杜",
    "country_iso_code": "VU",
    "timezone": "Pacific/Efate",
    "latitude": -16.2,
    "longitude": 167.55
  },
  {
    "city": "Rive Yan",
    "city_zh": "Rive Yan",
    "country": "Vanuatu",
    "country_zh": "萬那杜",
    "country_iso_code": "VU",
    "timezone": "Pacific/Efate",
    "latitude": -17.8,
    "longitude": 168.45
  },
  {
    "city": "Rip",
    "city_zh": "Rip",
    "country": "Vanuatu",
    "country_zh": "萬那杜",
    "country_iso_code": "VU",
    "timezone": "Pacific/Efate",
    "latitude": -14.96667,
    "longitude": 167.1
  },
  {
    "city": "Ringdove",
    "city_zh": "Ringdove",
    "country": "Vanuatu",
    "country_zh": "萬那杜",
    "country_iso_code": "VU",
    "timezone": "Pacific/Efate",
    "latitude": -16.63333,
    "longitude": 168.15
  },
  {
    "city": "Rewoka Namalasi",
    "city_zh": "Rewoka Namalasi",
    "country": "Vanuatu",
    "country_zh": "萬那杜",
    "country_iso_code": "VU",
    "timezone": "Pacific/Efate",
    "latitude": -17.45261,
    "longitude": 168.3667
  },
  {
    "city": "Rewoka Napua",
    "city_zh": "Rewoka Napua",
    "country": "Vanuatu",
    "country_zh": "萬那杜",
    "country_iso_code": "VU",
    "timezone": "Pacific/Efate",
    "latitude": -17.44907,
    "longitude": 168.36246
  },
  {
    "city": "Rétour",
    "city_zh": "Rétour",
    "country": "Vanuatu",
    "country_zh": "萬那杜",
    "country_iso_code": "VU",
    "timezone": "Pacific/Efate",
    "latitude": -16.36667,
    "longitude": 167.76667
  },
  {
    "city": "Rerep",
    "city_zh": "Rerep",
    "country": "Vanuatu",
    "country_zh": "萬那杜",
    "country_iso_code": "VU",
    "timezone": "Pacific/Efate",
    "latitude": -16.28333,
    "longitude": 167.66667
  },
  {
    "city": "Répanbitipbonour",
    "city_zh": "Répanbitipbonour",
    "country": "Vanuatu",
    "country_zh": "萬那杜",
    "country_iso_code": "VU",
    "timezone": "Pacific/Efate",
    "latitude": -16.3,
    "longitude": 167.66667
  },
  {
    "city": "Renmar",
    "city_zh": "Renmar",
    "country": "Vanuatu",
    "country_zh": "萬那杜",
    "country_iso_code": "VU",
    "timezone": "Pacific/Efate",
    "latitude": -15.9,
    "longitude": 167.2
  },
  {
    "city": "Remèp",
    "city_zh": "Remèp",
    "country": "Vanuatu",
    "country_zh": "萬那杜",
    "country_iso_code": "VU",
    "timezone": "Pacific/Efate",
    "latitude": -16.35,
    "longitude": 167.76667
  },
  {
    "city": "Rata",
    "city_zh": "Rata",
    "country": "Vanuatu",
    "country_zh": "萬那杜",
    "country_iso_code": "VU",
    "timezone": "Pacific/Efate",
    "latitude": -15.35,
    "longitude": 166.8
  },
  {
    "city": "Rasfahalo",
    "city_zh": "Rasfahalo",
    "country": "Vanuatu",
    "country_zh": "萬那杜",
    "country_iso_code": "VU",
    "timezone": "Pacific/Efate",
    "latitude": -14.78333,
    "longitude": 166.68333
  },
  {
    "city": "Ranwilinto",
    "city_zh": "Ranwilinto",
    "country": "Vanuatu",
    "country_zh": "萬那杜",
    "country_iso_code": "VU",
    "timezone": "Pacific/Efate",
    "latitude": -16.18333,
    "longitude": 168.1
  },
  {
    "city": "Ranwas",
    "city_zh": "Ranwas",
    "country": "Vanuatu",
    "country_zh": "萬那杜",
    "country_iso_code": "VU",
    "timezone": "Pacific/Efate",
    "latitude": -15.96871,
    "longitude": 168.26522
  },
  {
    "city": "Ranvérékon",
    "city_zh": "Ranvérékon",
    "country": "Vanuatu",
    "country_zh": "萬那杜",
    "country_iso_code": "VU",
    "timezone": "Pacific/Efate",
    "latitude": -16.2,
    "longitude": 167.98333
  },
  {
    "city": "Ranuetlam",
    "city_zh": "Ranuetlam",
    "country": "Vanuatu",
    "country_zh": "萬那杜",
    "country_iso_code": "VU",
    "timezone": "Pacific/Efate",
    "latitude": -16.16667,
    "longitude": 168.08333
  },
  {
    "city": "Rantas",
    "city_zh": "Rantas",
    "country": "Vanuatu",
    "country_zh": "萬那杜",
    "country_iso_code": "VU",
    "timezone": "Pacific/Efate",
    "latitude": -15.9,
    "longitude": 168.26667
  },
  {
    "city": "Ransaré",
    "city_zh": "Ransaré",
    "country": "Vanuatu",
    "country_zh": "萬那杜",
    "country_iso_code": "VU",
    "timezone": "Pacific/Efate",
    "latitude": -16.21667,
    "longitude": 167.56667
  },
  {
    "city": "Ranpoutor",
    "city_zh": "Ranpoutor",
    "country": "Vanuatu",
    "country_zh": "萬那杜",
    "country_iso_code": "VU",
    "timezone": "Pacific/Efate",
    "latitude": -15.98333,
    "longitude": 168.18333
  },
  {
    "city": "Ranpout",
    "city_zh": "Ranpout",
    "country": "Vanuatu",
    "country_zh": "萬那杜",
    "country_iso_code": "VU",
    "timezone": "Pacific/Efate",
    "latitude": -16.0,
    "longitude": 168.23333
  },
  {
    "city": "Ranon",
    "city_zh": "Ranon",
    "country": "Vanuatu",
    "country_zh": "萬那杜",
    "country_iso_code": "VU",
    "timezone": "Pacific/Efate",
    "latitude": -16.15,
    "longitude": 168.11667
  },
  {
    "city": "Rano",
    "city_zh": "Rano",
    "country": "Vanuatu",
    "country_zh": "萬那杜",
    "country_iso_code": "VU",
    "timezone": "Pacific/Efate",
    "latitude": -15.9,
    "longitude": 168.16667
  },
  {
    "city": "Ranmouhou",
    "city_zh": "Ranmouhou",
    "country": "Vanuatu",
    "country_zh": "萬那杜",
    "country_iso_code": "VU",
    "timezone": "Pacific/Efate",
    "latitude": -16.1,
    "longitude": 168.13333
  },
  {
    "city": "Ranmawat",
    "city_zh": "Ranmawat",
    "country": "Vanuatu",
    "country_zh": "萬那杜",
    "country_iso_code": "VU",
    "timezone": "Pacific/Efate",
    "latitude": -15.80276,
    "longitude": 168.16993
  },
  {
    "city": "Ranhor",
    "city_zh": "Ranhor",
    "country": "Vanuatu",
    "country_zh": "萬那杜",
    "country_iso_code": "VU",
    "timezone": "Pacific/Efate",
    "latitude": -16.13333,
    "longitude": 168.13333
  },
  {
    "city": "Ranbwé",
    "city_zh": "Ranbwé",
    "country": "Vanuatu",
    "country_zh": "萬那杜",
    "country_iso_code": "VU",
    "timezone": "Pacific/Efate",
    "latitude": -16.15,
    "longitude": 168.1
  },
  {
    "city": "Ranbili",
    "city_zh": "Ranbili",
    "country": "Vanuatu",
    "country_zh": "萬那杜",
    "country_iso_code": "VU",
    "timezone": "Pacific/Efate",
    "latitude": -16.25,
    "longitude": 168.21667
  },
  {
    "city": "Ramwady",
    "city_zh": "Ramwady",
    "country": "Vanuatu",
    "country_zh": "萬那杜",
    "country_iso_code": "VU",
    "timezone": "Pacific/Efate",
    "latitude": -15.78333,
    "longitude": 168.15
  },
  {
    "city": "Rampounrougou",
    "city_zh": "Rampounrougou",
    "country": "Vanuatu",
    "country_zh": "萬那杜",
    "country_iso_code": "VU",
    "timezone": "Pacific/Efate",
    "latitude": -18.91667,
    "longitude": 169.08333
  },
  {
    "city": "Rampounmampouo",
    "city_zh": "Rampounmampouo",
    "country": "Vanuatu",
    "country_zh": "萬那杜",
    "country_iso_code": "VU",
    "timezone": "Pacific/Efate",
    "latitude": -18.93937,
    "longitude": 169.16589
  },
  {
    "city": "Rampounisia",
    "city_zh": "Rampounisia",
    "country": "Vanuatu",
    "country_zh": "萬那杜",
    "country_iso_code": "VU",
    "timezone": "Pacific/Efate",
    "latitude": -18.95325,
    "longitude": 169.20237
  },
  {
    "city": "Rambouan",
    "city_zh": "Rambouan",
    "country": "Vanuatu",
    "country_zh": "萬那杜",
    "country_iso_code": "VU",
    "timezone": "Pacific/Efate",
    "latitude": -16.43333,
    "longitude": 167.8
  },
  {
    "city": "Rambak",
    "city_zh": "Rambak",
    "country": "Vanuatu",
    "country_zh": "萬那杜",
    "country_iso_code": "VU",
    "timezone": "Pacific/Efate",
    "latitude": -16.05,
    "longitude": 167.15
  },
  {
    "city": "Rafinga",
    "city_zh": "Rafinga",
    "country": "Vanuatu",
    "country_zh": "萬那杜",
    "country_iso_code": "VU",
    "timezone": "Pacific/Efate",
    "latitude": -16.9,
    "longitude": 168.53333
  },
  {
    "city": "Forari",
    "city_zh": "Forari",
    "country": "Vanuatu",
    "country_zh": "萬那杜",
    "country_iso_code": "VU",
    "timezone": "Pacific/Efate",
    "latitude": -17.66667,
    "longitude": 168.51667
  },
  {
    "city": "Pwelpitou",
    "city_zh": "Pwelpitou",
    "country": "Vanuatu",
    "country_zh": "萬那杜",
    "country_iso_code": "VU",
    "timezone": "Pacific/Efate",
    "latitude": -14.96667,
    "longitude": 166.78333
  },
  {
    "city": "Pwélé",
    "city_zh": "Pwélé",
    "country": "Vanuatu",
    "country_zh": "萬那杜",
    "country_iso_code": "VU",
    "timezone": "Pacific/Efate",
    "latitude": -15.15,
    "longitude": 166.63333
  },
  {
    "city": "Poutoumiel",
    "city_zh": "Poutoumiel",
    "country": "Vanuatu",
    "country_zh": "萬那杜",
    "country_iso_code": "VU",
    "timezone": "Pacific/Efate",
    "latitude": -16.03333,
    "longitude": 167.16667
  },
  {
    "city": "Poussabier",
    "city_zh": "Poussabier",
    "country": "Vanuatu",
    "country_zh": "萬那杜",
    "country_iso_code": "VU",
    "timezone": "Pacific/Efate",
    "latitude": -17.78333,
    "longitude": 168.36667
  },
  {
    "city": "Pourtihé",
    "city_zh": "Pourtihé",
    "country": "Vanuatu",
    "country_zh": "萬那杜",
    "country_iso_code": "VU",
    "timezone": "Pacific/Efate",
    "latitude": -14.96667,
    "longitude": 166.61667
  },
  {
    "city": "Pourké",
    "city_zh": "Pourké",
    "country": "Vanuatu",
    "country_zh": "萬那杜",
    "country_iso_code": "VU",
    "timezone": "Pacific/Efate",
    "latitude": -16.6,
    "longitude": 168.15
  },
  {
    "city": "Pouriawot",
    "city_zh": "Pouriawot",
    "country": "Vanuatu",
    "country_zh": "萬那杜",
    "country_iso_code": "VU",
    "timezone": "Pacific/Efate",
    "latitude": -15.01667,
    "longitude": 166.61667
  },
  {
    "city": "Pourao",
    "city_zh": "Pourao",
    "country": "Vanuatu",
    "country_zh": "萬那杜",
    "country_iso_code": "VU",
    "timezone": "Pacific/Efate",
    "latitude": -16.88333,
    "longitude": 168.55
  },
  {
    "city": "Pounalvat",
    "city_zh": "Pounalvat",
    "country": "Vanuatu",
    "country_zh": "萬那杜",
    "country_iso_code": "VU",
    "timezone": "Pacific/Efate",
    "latitude": -18.63333,
    "longitude": 169.08333
  },
  {
    "city": "Pouillet",
    "city_zh": "Pouillet",
    "country": "Vanuatu",
    "country_zh": "萬那杜",
    "country_iso_code": "VU",
    "timezone": "Pacific/Efate",
    "latitude": -19.53333,
    "longitude": 169.25
  },
  {
    "city": "Pouilipoé",
    "city_zh": "Pouilipoé",
    "country": "Vanuatu",
    "country_zh": "萬那杜",
    "country_iso_code": "VU",
    "timezone": "Pacific/Efate",
    "latitude": -14.8,
    "longitude": 166.55
  },
  {
    "city": "Potovrou",
    "city_zh": "Potovrou",
    "country": "Vanuatu",
    "country_zh": "萬那杜",
    "country_iso_code": "VU",
    "timezone": "Pacific/Efate",
    "latitude": -15.88333,
    "longitude": 167.25
  },
  {
    "city": "Port Narvin",
    "city_zh": "Port Narvin",
    "country": "Vanuatu",
    "country_zh": "萬那杜",
    "country_iso_code": "VU",
    "timezone": "Pacific/Efate",
    "latitude": -18.74771,
    "longitude": 169.20666
  },
  {
    "city": "Potnaroumpouo",
    "city_zh": "Potnaroumpouo",
    "country": "Vanuatu",
    "country_zh": "萬那杜",
    "country_iso_code": "VU",
    "timezone": "Pacific/Efate",
    "latitude": -18.93333,
    "longitude": 169.11667
  },
  {
    "city": "Potlouzi",
    "city_zh": "Potlouzi",
    "country": "Vanuatu",
    "country_zh": "萬那杜",
    "country_iso_code": "VU",
    "timezone": "Pacific/Efate",
    "latitude": -18.92675,
    "longitude": 169.10414
  },
  {
    "city": "Potiraousak",
    "city_zh": "Potiraousak",
    "country": "Vanuatu",
    "country_zh": "萬那杜",
    "country_iso_code": "VU",
    "timezone": "Pacific/Efate",
    "latitude": -18.93982,
    "longitude": 169.1328
  },
  {
    "city": "Port-Vila",
    "city_zh": "Port-Vila",
    "country": "Vanuatu",
    "country_zh": "萬那杜",
    "country_iso_code": "VU",
    "timezone": "Pacific/Efate",
    "latitude": -17.73648,
    "longitude": 168.31366
  },
  {
    "city": "Port-Vato",
    "city_zh": "Port-Vato",
    "country": "Vanuatu",
    "country_zh": "萬那杜",
    "country_iso_code": "VU",
    "timezone": "Pacific/Efate",
    "latitude": -16.33333,
    "longitude": 168.03333
  },
  {
    "city": "Port-Stanley",
    "city_zh": "Port-Stanley",
    "country": "Vanuatu",
    "country_zh": "萬那杜",
    "country_iso_code": "VU",
    "timezone": "Pacific/Efate",
    "latitude": -16.15,
    "longitude": 167.45
  },
  {
    "city": "Port-Olry",
    "city_zh": "Port-Olry",
    "country": "Vanuatu",
    "country_zh": "萬那杜",
    "country_iso_code": "VU",
    "timezone": "Pacific/Efate",
    "latitude": -15.04175,
    "longitude": 167.07265
  },
  {
    "city": "Port Lautour",
    "city_zh": "Port Lautour",
    "country": "Vanuatu",
    "country_zh": "萬那杜",
    "country_iso_code": "VU",
    "timezone": "Pacific/Efate",
    "latitude": -15.61667,
    "longitude": 167.16667
  },
  {
    "city": "Port-Havannah",
    "city_zh": "Port-Havannah",
    "country": "Vanuatu",
    "country_zh": "萬那杜",
    "country_iso_code": "VU",
    "timezone": "Pacific/Efate",
    "latitude": -17.56751,
    "longitude": 168.27465
  },
  {
    "city": "Porao",
    "city_zh": "Porao",
    "country": "Vanuatu",
    "country_zh": "萬那杜",
    "country_iso_code": "VU",
    "timezone": "Pacific/Efate",
    "latitude": -14.68333,
    "longitude": 166.63333
  },
  {
    "city": "Poporonous",
    "city_zh": "Poporonous",
    "country": "Vanuatu",
    "country_zh": "萬那杜",
    "country_iso_code": "VU",
    "timezone": "Pacific/Efate",
    "latitude": -15.5,
    "longitude": 166.76667
  },
  {
    "city": "Pontasipsip",
    "city_zh": "Pontasipsip",
    "country": "Vanuatu",
    "country_zh": "萬那杜",
    "country_iso_code": "VU",
    "timezone": "Pacific/Efate",
    "latitude": -18.66667,
    "longitude": 169.15
  },
  {
    "city": "Ponrah",
    "city_zh": "Ponrah",
    "country": "Vanuatu",
    "country_zh": "萬那杜",
    "country_iso_code": "VU",
    "timezone": "Pacific/Efate",
    "latitude": -15.91667,
    "longitude": 168.26667
  },
  {
    "city": "Kwonu",
    "city_zh": "Kwonu",
    "country": "Vanuatu",
    "country_zh": "萬那杜",
    "country_iso_code": "VU",
    "timezone": "Pacific/Efate",
    "latitude": -13.69933,
    "longitude": 167.63512
  },
  {
    "city": "Ponof",
    "city_zh": "Ponof",
    "country": "Vanuatu",
    "country_zh": "萬那杜",
    "country_iso_code": "VU",
    "timezone": "Pacific/Efate",
    "latitude": -15.9,
    "longitude": 168.26667
  },
  {
    "city": "Poliba",
    "city_zh": "Poliba",
    "country": "Vanuatu",
    "country_zh": "萬那杜",
    "country_iso_code": "VU",
    "timezone": "Pacific/Efate",
    "latitude": -16.3,
    "longitude": 167.95
  },
  {
    "city": "Pohourour",
    "city_zh": "Pohourour",
    "country": "Vanuatu",
    "country_zh": "萬那杜",
    "country_iso_code": "VU",
    "timezone": "Pacific/Efate",
    "latitude": -15.96667,
    "longitude": 168.26667
  },
  {
    "city": "Poétsaysay",
    "city_zh": "Poétsaysay",
    "country": "Vanuatu",
    "country_zh": "萬那杜",
    "country_iso_code": "VU",
    "timezone": "Pacific/Efate",
    "latitude": -15.18333,
    "longitude": 166.86667
  },
  {
    "city": "Poal",
    "city_zh": "Poal",
    "country": "Vanuatu",
    "country_zh": "萬那杜",
    "country_iso_code": "VU",
    "timezone": "Pacific/Efate",
    "latitude": -16.26667,
    "longitude": 168.23333
  },
  {
    "city": "Plamaé",
    "city_zh": "Plamaé",
    "country": "Vanuatu",
    "country_zh": "萬那杜",
    "country_iso_code": "VU",
    "timezone": "Pacific/Efate",
    "latitude": -16.05,
    "longitude": 167.36667
  },
  {
    "city": "Pivosava",
    "city_zh": "Pivosava",
    "country": "Vanuatu",
    "country_zh": "萬那杜",
    "country_iso_code": "VU",
    "timezone": "Pacific/Efate",
    "latitude": -13.18333,
    "longitude": 166.56667
  },
  {
    "city": "Qetegaveg (gan wää mäh)",
    "city_zh": "Qetegaveg (gan wää mäh)",
    "country": "Vanuatu",
    "country_zh": "萬那杜",
    "country_iso_code": "VU",
    "timezone": "Pacific/Efate",
    "latitude": -14.26667,
    "longitude": 167.41667
  },
  {
    "city": "Pinapel",
    "city_zh": "Pinapel",
    "country": "Vanuatu",
    "country_zh": "萬那杜",
    "country_iso_code": "VU",
    "timezone": "Pacific/Efate",
    "latitude": -16.35,
    "longitude": 168.28333
  },
  {
    "city": "Pinambo",
    "city_zh": "Pinambo",
    "country": "Vanuatu",
    "country_zh": "萬那杜",
    "country_iso_code": "VU",
    "timezone": "Pacific/Efate",
    "latitude": -16.03333,
    "longitude": 167.16667
  },
  {
    "city": "Pinaloum",
    "city_zh": "Pinaloum",
    "country": "Vanuatu",
    "country_zh": "萬那杜",
    "country_iso_code": "VU",
    "timezone": "Pacific/Efate",
    "latitude": -16.01667,
    "longitude": 167.4
  },
  {
    "city": "Piloé",
    "city_zh": "Piloé",
    "country": "Vanuatu",
    "country_zh": "萬那杜",
    "country_iso_code": "VU",
    "timezone": "Pacific/Efate",
    "latitude": -15.11667,
    "longitude": 166.8
  },
  {
    "city": "Pilioura",
    "city_zh": "Pilioura",
    "country": "Vanuatu",
    "country_zh": "萬那杜",
    "country_iso_code": "VU",
    "timezone": "Pacific/Efate",
    "latitude": -17.5,
    "longitude": 168.4
  },
  {
    "city": "Pila",
    "city_zh": "Pila",
    "country": "Vanuatu",
    "country_zh": "萬那杜",
    "country_iso_code": "VU",
    "timezone": "Pacific/Efate",
    "latitude": -15.15,
    "longitude": 166.81667
  },
  {
    "city": "Piapiéo",
    "city_zh": "Piapiéo",
    "country": "Vanuatu",
    "country_zh": "萬那杜",
    "country_iso_code": "VU",
    "timezone": "Pacific/Efate",
    "latitude": -15.08333,
    "longitude": 166.75
  },
  {
    "city": "Pétel",
    "city_zh": "Pétel",
    "country": "Vanuatu",
    "country_zh": "萬那杜",
    "country_iso_code": "VU",
    "timezone": "Pacific/Efate",
    "latitude": -16.36667,
    "longitude": 168.25
  },
  {
    "city": "Peskarüs",
    "city_zh": "Peskarüs",
    "country": "Vanuatu",
    "country_zh": "萬那杜",
    "country_iso_code": "VU",
    "timezone": "Pacific/Efate",
    "latitude": -16.53333,
    "longitude": 167.81667
  },
  {
    "city": "Pesia",
    "city_zh": "Pesia",
    "country": "Vanuatu",
    "country_zh": "萬那杜",
    "country_iso_code": "VU",
    "timezone": "Pacific/Efate",
    "latitude": -16.31667,
    "longitude": 168.05
  },
  {
    "city": "Pépéksal",
    "city_zh": "Pépéksal",
    "country": "Vanuatu",
    "country_zh": "萬那杜",
    "country_iso_code": "VU",
    "timezone": "Pacific/Efate",
    "latitude": -15.98333,
    "longitude": 167.18333
  },
  {
    "city": "Pénoubéré",
    "city_zh": "Pénoubéré",
    "country": "Vanuatu",
    "country_zh": "萬那杜",
    "country_iso_code": "VU",
    "timezone": "Pacific/Efate",
    "latitude": -16.28333,
    "longitude": 167.68333
  },
  {
    "city": "Péniciès",
    "city_zh": "Péniciès",
    "country": "Vanuatu",
    "country_zh": "萬那杜",
    "country_iso_code": "VU",
    "timezone": "Pacific/Efate",
    "latitude": -16.43333,
    "longitude": 167.78333
  },
  {
    "city": "Pénap",
    "city_zh": "Pénap",
    "country": "Vanuatu",
    "country_zh": "萬那杜",
    "country_iso_code": "VU",
    "timezone": "Pacific/Efate",
    "latitude": -16.45,
    "longitude": 167.81667
  },
  {
    "city": "Pénantsiro",
    "city_zh": "Pénantsiro",
    "country": "Vanuatu",
    "country_zh": "萬那杜",
    "country_iso_code": "VU",
    "timezone": "Pacific/Efate",
    "latitude": -15.56667,
    "longitude": 166.88333
  },
  {
    "city": "Pélol",
    "city_zh": "Pélol",
    "country": "Vanuatu",
    "country_zh": "萬那杜",
    "country_iso_code": "VU",
    "timezone": "Pacific/Efate",
    "latitude": -14.78333,
    "longitude": 166.7
  },
  {
    "city": "Pellonk",
    "city_zh": "Pellonk",
    "country": "Vanuatu",
    "country_zh": "萬那杜",
    "country_iso_code": "VU",
    "timezone": "Pacific/Efate",
    "latitude": -16.53333,
    "longitude": 167.81667
  },
  {
    "city": "Worearu",
    "city_zh": "Worearu",
    "country": "Vanuatu",
    "country_zh": "萬那杜",
    "country_iso_code": "VU",
    "timezone": "Pacific/Efate",
    "latitude": -17.48629,
    "longitude": 168.39332
  },
  {
    "city": "Pêcherie",
    "city_zh": "Pêcherie",
    "country": "Vanuatu",
    "country_zh": "萬那杜",
    "country_iso_code": "VU",
    "timezone": "Pacific/Efate",
    "latitude": -15.48333,
    "longitude": 167.25
  },
  {
    "city": "Paten",
    "city_zh": "Paten",
    "country": "Vanuatu",
    "country_zh": "萬那杜",
    "country_iso_code": "VU",
    "timezone": "Pacific/Efate",
    "latitude": -15.46667,
    "longitude": 166.88333
  },
  {
    "city": "Patembiou",
    "city_zh": "Patembiou",
    "country": "Vanuatu",
    "country_zh": "萬那杜",
    "country_iso_code": "VU",
    "timezone": "Pacific/Efate",
    "latitude": -14.95,
    "longitude": 168.08333
  },
  {
    "city": "Papoulasmel",
    "city_zh": "Papoulasmel",
    "country": "Vanuatu",
    "country_zh": "萬那杜",
    "country_iso_code": "VU",
    "timezone": "Pacific/Efate",
    "latitude": -14.98333,
    "longitude": 166.6
  },
  {
    "city": "Papasoulé",
    "city_zh": "Papasoulé",
    "country": "Vanuatu",
    "country_zh": "萬那杜",
    "country_iso_code": "VU",
    "timezone": "Pacific/Efate",
    "latitude": -15.46667,
    "longitude": 166.76667
  },
  {
    "city": "Paouléli",
    "city_zh": "Paouléli",
    "country": "Vanuatu",
    "country_zh": "萬那杜",
    "country_iso_code": "VU",
    "timezone": "Pacific/Efate",
    "latitude": -16.5,
    "longitude": 168.21667
  },
  {
    "city": "Paonangisu",
    "city_zh": "Paonangisu",
    "country": "Vanuatu",
    "country_zh": "萬那杜",
    "country_iso_code": "VU",
    "timezone": "Pacific/Efate",
    "latitude": -17.53333,
    "longitude": 168.4
  },
  {
    "city": "Paona",
    "city_zh": "Paona",
    "country": "Vanuatu",
    "country_zh": "萬那杜",
    "country_iso_code": "VU",
    "timezone": "Pacific/Efate",
    "latitude": -15.71667,
    "longitude": 167.23333
  },
  {
    "city": "Pantévamal",
    "city_zh": "Pantévamal",
    "country": "Vanuatu",
    "country_zh": "萬那杜",
    "country_iso_code": "VU",
    "timezone": "Pacific/Efate",
    "latitude": -15.96667,
    "longitude": 168.18333
  },
  {
    "city": "Panoka",
    "city_zh": "Panoka",
    "country": "Vanuatu",
    "country_zh": "萬那杜",
    "country_iso_code": "VU",
    "timezone": "Pacific/Efate",
    "latitude": -16.0,
    "longitude": 168.21667
  },
  {
    "city": "Panmouwouom",
    "city_zh": "Panmouwouom",
    "country": "Vanuatu",
    "country_zh": "萬那杜",
    "country_iso_code": "VU",
    "timezone": "Pacific/Efate",
    "latitude": -16.25,
    "longitude": 168.38333
  },
  {
    "city": "Panita",
    "city_zh": "Panita",
    "country": "Vanuatu",
    "country_zh": "萬那杜",
    "country_iso_code": "VU",
    "timezone": "Pacific/Efate",
    "latitude": -16.91667,
    "longitude": 168.51667
  },
  {
    "city": "Panhavoul",
    "city_zh": "Panhavoul",
    "country": "Vanuatu",
    "country_zh": "萬那杜",
    "country_iso_code": "VU",
    "timezone": "Pacific/Efate",
    "latitude": -15.56667,
    "longitude": 168.15
  },
  {
    "city": "P̄ang-P̄ang",
    "city_zh": "P̄ang-P̄ang",
    "country": "Vanuatu",
    "country_zh": "萬那杜",
    "country_iso_code": "VU",
    "timezone": "Pacific/Efate",
    "latitude": -17.68333,
    "longitude": 168.53333
  },
  {
    "city": "Pangona",
    "city_zh": "Pangona",
    "country": "Vanuatu",
    "country_zh": "萬那杜",
    "country_iso_code": "VU",
    "timezone": "Pacific/Efate",
    "latitude": -17.73263,
    "longitude": 168.18268
  },
  {
    "city": "Pango",
    "city_zh": "Pango",
    "country": "Vanuatu",
    "country_zh": "萬那杜",
    "country_iso_code": "VU",
    "timezone": "Pacific/Efate",
    "latitude": -17.78333,
    "longitude": 168.28333
  },
  {
    "city": "Pancros",
    "city_zh": "Pancros",
    "country": "Vanuatu",
    "country_zh": "萬那杜",
    "country_iso_code": "VU",
    "timezone": "Pacific/Efate",
    "latitude": -16.00691,
    "longitude": 168.23015
  },
  {
    "city": "Panbroun",
    "city_zh": "Panbroun",
    "country": "Vanuatu",
    "country_zh": "萬那杜",
    "country_iso_code": "VU",
    "timezone": "Pacific/Efate",
    "latitude": -16.0,
    "longitude": 168.2
  },
  {
    "city": "Panas",
    "city_zh": "Panas",
    "country": "Vanuatu",
    "country_zh": "萬那杜",
    "country_iso_code": "VU",
    "timezone": "Pacific/Efate",
    "latitude": -15.91667,
    "longitude": 168.18333
  },
  {
    "city": "Panap",
    "city_zh": "Panap",
    "country": "Vanuatu",
    "country_zh": "萬那杜",
    "country_iso_code": "VU",
    "timezone": "Pacific/Efate",
    "latitude": -15.93333,
    "longitude": 168.26667
  },
  {
    "city": "Pamel",
    "city_zh": "Pamel",
    "country": "Vanuatu",
    "country_zh": "萬那杜",
    "country_iso_code": "VU",
    "timezone": "Pacific/Efate",
    "latitude": -16.33333,
    "longitude": 168.3
  },
  {
    "city": "Palikulo",
    "city_zh": "Palikulo",
    "country": "Vanuatu",
    "country_zh": "萬那杜",
    "country_iso_code": "VU",
    "timezone": "Pacific/Efate",
    "latitude": -15.51667,
    "longitude": 167.23333
  },
  {
    "city": "Pakatam",
    "city_zh": "Pakatam",
    "country": "Vanuatu",
    "country_zh": "萬那杜",
    "country_iso_code": "VU",
    "timezone": "Pacific/Efate",
    "latitude": -15.55,
    "longitude": 166.85
  },
  {
    "city": "Pakaroro",
    "city_zh": "Pakaroro",
    "country": "Vanuatu",
    "country_zh": "萬那杜",
    "country_iso_code": "VU",
    "timezone": "Pacific/Efate",
    "latitude": -15.23333,
    "longitude": 166.66667
  },
  {
    "city": "Pakapoultol",
    "city_zh": "Pakapoultol",
    "country": "Vanuatu",
    "country_zh": "萬那杜",
    "country_iso_code": "VU",
    "timezone": "Pacific/Efate",
    "latitude": -15.63333,
    "longitude": 166.8
  },
  {
    "city": "Païa",
    "city_zh": "Païa",
    "country": "Vanuatu",
    "country_zh": "萬那杜",
    "country_iso_code": "VU",
    "timezone": "Pacific/Efate",
    "latitude": -16.58333,
    "longitude": 168.2
  },
  {
    "city": "Paétoré",
    "city_zh": "Paétoré",
    "country": "Vanuatu",
    "country_zh": "萬那杜",
    "country_iso_code": "VU",
    "timezone": "Pacific/Efate",
    "latitude": -15.26667,
    "longitude": 166.66667
  },
  {
    "city": "Outèr",
    "city_zh": "Outèr",
    "country": "Vanuatu",
    "country_zh": "萬那杜",
    "country_iso_code": "VU",
    "timezone": "Pacific/Efate",
    "latitude": -16.0,
    "longitude": 167.35
  },
  {
    "city": "Outanlang",
    "city_zh": "Outanlang",
    "country": "Vanuatu",
    "country_zh": "萬那杜",
    "country_iso_code": "VU",
    "timezone": "Pacific/Efate",
    "latitude": -17.43333,
    "longitude": 168.31667
  },
  {
    "city": "Oussélé",
    "city_zh": "Oussélé",
    "country": "Vanuatu",
    "country_zh": "萬那杜",
    "country_iso_code": "VU",
    "timezone": "Pacific/Efate",
    "latitude": -16.1,
    "longitude": 167.41667
  },
  {
    "city": "Ousiév",
    "city_zh": "Ousiév",
    "country": "Vanuatu",
    "country_zh": "萬那杜",
    "country_iso_code": "VU",
    "timezone": "Pacific/Efate",
    "latitude": -15.41667,
    "longitude": 166.86667
  },
  {
    "city": "Oureboul",
    "city_zh": "Oureboul",
    "country": "Vanuatu",
    "country_zh": "萬那杜",
    "country_iso_code": "VU",
    "timezone": "Pacific/Efate",
    "latitude": -15.48333,
    "longitude": 166.95
  },
  {
    "city": "Ounwarou",
    "city_zh": "Ounwarou",
    "country": "Vanuatu",
    "country_zh": "萬那杜",
    "country_iso_code": "VU",
    "timezone": "Pacific/Efate",
    "latitude": -16.0,
    "longitude": 168.2
  },
  {
    "city": "Ounèvsèm",
    "city_zh": "Ounèvsèm",
    "country": "Vanuatu",
    "country_zh": "萬那杜",
    "country_iso_code": "VU",
    "timezone": "Pacific/Efate",
    "latitude": -18.8898,
    "longitude": 169.03401
  },
  {
    "city": "Ounavahé",
    "city_zh": "Ounavahé",
    "country": "Vanuatu",
    "country_zh": "萬那杜",
    "country_iso_code": "VU",
    "timezone": "Pacific/Efate",
    "latitude": -15.08264,
    "longitude": 166.62723
  },
  {
    "city": "Unakapu",
    "city_zh": "Unakapu",
    "country": "Vanuatu",
    "country_zh": "萬那杜",
    "country_iso_code": "VU",
    "timezone": "Pacific/Efate",
    "latitude": -17.47531,
    "longitude": 168.38535
  },
  {
    "city": "Oumetch",
    "city_zh": "Oumetch",
    "country": "Vanuatu",
    "country_zh": "萬那杜",
    "country_iso_code": "VU",
    "timezone": "Pacific/Efate",
    "latitude": -20.24678,
    "longitude": 169.85181
  },
  {
    "city": "Ulei",
    "city_zh": "Ulei",
    "country": "Vanuatu",
    "country_zh": "萬那杜",
    "country_iso_code": "VU",
    "timezone": "Pacific/Efate",
    "latitude": -16.33333,
    "longitude": 168.28333
  },
  {
    "city": "Otas",
    "city_zh": "Otas",
    "country": "Vanuatu",
    "country_zh": "萬那杜",
    "country_iso_code": "VU",
    "timezone": "Pacific/Efate",
    "latitude": -16.35,
    "longitude": 168.26667
  },
  {
    "city": "Orota",
    "city_zh": "Orota",
    "country": "Vanuatu",
    "country_zh": "萬那杜",
    "country_iso_code": "VU",
    "timezone": "Pacific/Efate",
    "latitude": -15.15,
    "longitude": 166.81667
  },
  {
    "city": "Oroni",
    "city_zh": "Oroni",
    "country": "Vanuatu",
    "country_zh": "萬那杜",
    "country_iso_code": "VU",
    "timezone": "Pacific/Efate",
    "latitude": -15.98333,
    "longitude": 167.18333
  },
  {
    "city": "Oroïbao",
    "city_zh": "Oroïbao",
    "country": "Vanuatu",
    "country_zh": "萬那杜",
    "country_iso_code": "VU",
    "timezone": "Pacific/Efate",
    "latitude": -15.43333,
    "longitude": 166.85
  },
  {
    "city": "Orap",
    "city_zh": "Orap",
    "country": "Vanuatu",
    "country_zh": "萬那杜",
    "country_iso_code": "VU",
    "timezone": "Pacific/Efate",
    "latitude": -15.96667,
    "longitude": 167.33333
  },
  {
    "city": "Ontar",
    "city_zh": "Ontar",
    "country": "Vanuatu",
    "country_zh": "萬那杜",
    "country_iso_code": "VU",
    "timezone": "Pacific/Efate",
    "latitude": -14.3,
    "longitude": 167.41667
  },
  {
    "city": "Onesua",
    "city_zh": "Onesua",
    "country": "Vanuatu",
    "country_zh": "萬那杜",
    "country_iso_code": "VU",
    "timezone": "Pacific/Efate",
    "latitude": -17.56667,
    "longitude": 168.45
  },
  {
    "city": "Ombous",
    "city_zh": "Ombous",
    "country": "Vanuatu",
    "country_zh": "萬那杜",
    "country_iso_code": "VU",
    "timezone": "Pacific/Efate",
    "latitude": -19.55,
    "longitude": 169.46667
  },
  {
    "city": "Olwaa",
    "city_zh": "Olwaa",
    "country": "Vanuatu",
    "country_zh": "萬那杜",
    "country_iso_code": "VU",
    "timezone": "Pacific/Efate",
    "latitude": -14.25,
    "longitude": 167.41667
  },
  {
    "city": "Olpoï",
    "city_zh": "Olpoï",
    "country": "Vanuatu",
    "country_zh": "萬那杜",
    "country_iso_code": "VU",
    "timezone": "Pacific/Efate",
    "latitude": -14.87146,
    "longitude": 166.55509
  },
  {
    "city": "Olbanga",
    "city_zh": "Olbanga",
    "country": "Vanuatu",
    "country_zh": "萬那杜",
    "country_iso_code": "VU",
    "timezone": "Pacific/Efate",
    "latitude": -15.13333,
    "longitude": 168.13333
  },
  {
    "city": "Olasi",
    "city_zh": "Olasi",
    "country": "Vanuatu",
    "country_zh": "萬那杜",
    "country_iso_code": "VU",
    "timezone": "Pacific/Efate",
    "latitude": -15.11667,
    "longitude": 166.76667
  },
  {
    "city": "Olal",
    "city_zh": "Olal",
    "country": "Vanuatu",
    "country_zh": "萬那杜",
    "country_iso_code": "VU",
    "timezone": "Pacific/Efate",
    "latitude": -16.1,
    "longitude": 168.15
  },
  {
    "city": "Npénanavèt",
    "city_zh": "Npénanavèt",
    "country": "Vanuatu",
    "country_zh": "萬那杜",
    "country_iso_code": "VU",
    "timezone": "Pacific/Efate",
    "latitude": -16.01667,
    "longitude": 167.16667
  },
  {
    "city": "Nouvi",
    "city_zh": "Nouvi",
    "country": "Vanuatu",
    "country_zh": "萬那杜",
    "country_iso_code": "VU",
    "timezone": "Pacific/Efate",
    "latitude": -16.65,
    "longitude": 168.21667
  },
  {
    "city": "Nountor",
    "city_zh": "Nountor",
    "country": "Vanuatu",
    "country_zh": "萬那杜",
    "country_iso_code": "VU",
    "timezone": "Pacific/Efate",
    "latitude": -16.15,
    "longitude": 168.11667
  },
  {
    "city": "Nounapon",
    "city_zh": "Nounapon",
    "country": "Vanuatu",
    "country_zh": "萬那杜",
    "country_iso_code": "VU",
    "timezone": "Pacific/Efate",
    "latitude": -18.8,
    "longitude": 169.01667
  },
  {
    "city": "Noul",
    "city_zh": "Noul",
    "country": "Vanuatu",
    "country_zh": "萬那杜",
    "country_iso_code": "VU",
    "timezone": "Pacific/Efate",
    "latitude": -16.76667,
    "longitude": 168.35
  },
  {
    "city": "Nosousou",
    "city_zh": "Nosousou",
    "country": "Vanuatu",
    "country_zh": "萬那杜",
    "country_iso_code": "VU",
    "timezone": "Pacific/Efate",
    "latitude": -15.45,
    "longitude": 166.88333
  },
  {
    "city": "Norsup",
    "city_zh": "Norsup",
    "country": "Vanuatu",
    "country_zh": "萬那杜",
    "country_iso_code": "VU",
    "timezone": "Pacific/Efate",
    "latitude": -16.06536,
    "longitude": 167.39714
  },
  {
    "city": "Noou",
    "city_zh": "Noou",
    "country": "Vanuatu",
    "country_zh": "萬那杜",
    "country_iso_code": "VU",
    "timezone": "Pacific/Efate",
    "latitude": -16.46667,
    "longitude": 168.21667
  },
  {
    "city": "Nonona",
    "city_zh": "Nonona",
    "country": "Vanuatu",
    "country_zh": "萬那杜",
    "country_iso_code": "VU",
    "timezone": "Pacific/Efate",
    "latitude": -15.35,
    "longitude": 166.78333
  },
  {
    "city": "Nokowoula",
    "city_zh": "Nokowoula",
    "country": "Vanuatu",
    "country_zh": "萬那杜",
    "country_iso_code": "VU",
    "timezone": "Pacific/Efate",
    "latitude": -15.35,
    "longitude": 166.73333
  },
  {
    "city": "Nokonsédé",
    "city_zh": "Nokonsédé",
    "country": "Vanuatu",
    "country_zh": "萬那杜",
    "country_iso_code": "VU",
    "timezone": "Pacific/Efate",
    "latitude": -15.73333,
    "longitude": 168.16667
  },
  {
    "city": "Nokongiri",
    "city_zh": "Nokongiri",
    "country": "Vanuatu",
    "country_zh": "萬那杜",
    "country_iso_code": "VU",
    "timezone": "Pacific/Efate",
    "latitude": -15.66667,
    "longitude": 168.18333
  },
  {
    "city": "Nokonbouin",
    "city_zh": "Nokonbouin",
    "country": "Vanuatu",
    "country_zh": "萬那杜",
    "country_iso_code": "VU",
    "timezone": "Pacific/Efate",
    "latitude": -15.71667,
    "longitude": 168.18333
  },
  {
    "city": "Nokombilatata",
    "city_zh": "Nokombilatata",
    "country": "Vanuatu",
    "country_zh": "萬那杜",
    "country_iso_code": "VU",
    "timezone": "Pacific/Efate",
    "latitude": -15.7,
    "longitude": 168.13333
  },