[
  {
    "city": "Ouanani",
    "city_zh": "Ouanani",
    "country": "Comoros",
    "country_zh": "葛摩",
    "country_iso_code": "KM",
    "timezone": "Indian/Comoro",
    "latitude": -12.3375,
    "longitude": 43.7975
  },
  {
    "city": "Vouani",
    "city_zh": "Vouani",
    "country": "Comoros",
    "country_zh": "葛摩",
    "country_iso_code": "KM",
    "timezone": "Indian/Comoro",
    "latitude": -12.24417,
    "longitude": 44.37444
  },
  {
    "city": "Vassy",
    "city_zh": "Vassy",
    "country": "Comoros",
    "country_zh": "葛摩",
    "country_iso_code": "KM",
    "timezone": "Indian/Comoro",
    "latitude": -12.23194,
    "longitude": 44.3425
  },
  {
    "city": "Vanambouani",
    "city_zh": "Vanambouani",
    "country": "Comoros",
    "country_zh": "葛摩",
    "country_iso_code": "KM",
    "timezone": "Indian/Comoro",
    "latitude": -11.61139,
    "longitude": 43.25306
  },
  {
    "city": "Tsimbeo",
    "city_zh": "Tsimbeo",
    "country": "Comoros",
    "country_zh": "葛摩",
    "country_iso_code": "KM",
    "timezone": "Indian/Comoro",
    "latitude": -12.20583,
    "longitude": 44.46472
  },
  {
    "city": "Singani",
    "city_zh": "Singani",
    "country": "Comoros",
    "country_zh": "葛摩",
    "country_iso_code": "KM",
    "timezone": "Indian/Comoro",
    "latitude": -11.84784,
    "longitude": 43.31731
  },
  {
    "city": "Sima",
    "city_zh": "Sima",
    "country": "Comoros",
    "country_zh": "葛摩",
    "country_iso_code": "KM",
    "timezone": "Indian/Comoro",
    "latitude": -12.19556,
    "longitude": 44.27667
  },
  {
    "city": "Sanadani",
    "city_zh": "Sanadani",
    "country": "Comoros",
    "country_zh": "葛摩",
    "country_iso_code": "KM",
    "timezone": "Indian/Comoro",
    "latitude": -12.19028,
    "longitude": 44.33278
  },
  {
    "city": "Sambia",
    "city_zh": "Sambia",
    "country": "Comoros",
    "country_zh": "葛摩",
    "country_iso_code": "KM",
    "timezone": "Indian/Comoro",
    "latitude": -12.36694,
    "longitude": 43.79611
  },
  {
    "city": "Samba-Madi",
    "city_zh": "Samba-Madi",
    "country": "Comoros",
    "country_zh": "葛摩",
    "country_iso_code": "KM",
    "timezone": "Indian/Comoro",
    "latitude": -11.66528,
    "longitude": 43.39806
  },
  {
    "city": "Salimani",
    "city_zh": "Salimani",
    "country": "Comoros",
    "country_zh": "葛摩",
    "country_iso_code": "KM",
    "timezone": "Indian/Comoro",
    "latitude": -11.8115,
    "longitude": 43.26823
  },
  {
    "city": "Pomoni",
    "city_zh": "Pomoni",
    "country": "Comoros",
    "country_zh": "葛摩",
    "country_iso_code": "KM",
    "timezone": "Indian/Comoro",
    "latitude": -12.28,
    "longitude": 44.40889
  },
  {
    "city": "Pidjani",
    "city_zh": "Pidjani",
    "country": "Comoros",
    "country_zh": "葛摩",
    "country_iso_code": "KM",
    "timezone": "Indian/Comoro",
    "latitude": -11.76425,
    "longitude": 43.45191
  },
  {
    "city": "Patsi",
    "city_zh": "Patsi",
    "country": "Comoros",
    "country_zh": "葛摩",
    "country_iso_code": "KM",
    "timezone": "Indian/Comoro",
    "latitude": -12.15556,
    "longitude": 44.43722
  },
  {
    "city": "Panda",
    "city_zh": "Panda",
    "country": "Comoros",
    "country_zh": "葛摩",
    "country_iso_code": "KM",
    "timezone": "Indian/Comoro",
    "latitude": -11.87482,
    "longitude": 43.3931
  },
  {
    "city": "Ouzini",
    "city_zh": "Ouzini",
    "country": "Comoros",
    "country_zh": "葛摩",
    "country_iso_code": "KM",
    "timezone": "Indian/Comoro",
    "latitude": -12.26722,
    "longitude": 44.47972
  },
  {
    "city": "Ajaho",
    "city_zh": "Ajaho",
    "country": "Comoros",
    "country_zh": "葛摩",
    "country_iso_code": "KM",
    "timezone": "Indian/Comoro",
    "latitude": -12.26528,
    "longitude": 44.505
  },
  {
    "city": "Oussivo",
    "city_zh": "Oussivo",
    "country": "Comoros",
    "country_zh": "葛摩",
    "country_iso_code": "KM",
    "timezone": "Indian/Comoro",
    "latitude": -11.585,
    "longitude": 43.26722
  },
  {
    "city": "Ourovéni",
    "city_zh": "Ourovéni",
    "country": "Comoros",
    "country_zh": "葛摩",
    "country_iso_code": "KM",
    "timezone": "Indian/Comoro",
    "latitude": -11.91375,
    "longitude": 43.49804
  },
  {
    "city": "Ouémani",
    "city_zh": "Ouémani",
    "country": "Comoros",
    "country_zh": "葛摩",
    "country_iso_code": "KM",
    "timezone": "Indian/Comoro",
    "latitude": -11.38028,
    "longitude": 43.32528
  },
  {
    "city": "Ouellah",
    "city_zh": "Ouellah",
    "country": "Comoros",
    "country_zh": "葛摩",
    "country_iso_code": "KM",
    "timezone": "Indian/Comoro",
    "latitude": -11.39028,
    "longitude": 43.33194
  },
  {
    "city": "Ouani",
    "city_zh": "Ouani",
    "country": "Comoros",
    "country_zh": "葛摩",
    "country_iso_code": "KM",
    "timezone": "Indian/Comoro",
    "latitude": -12.13554,
    "longitude": 44.42493
  },
  {
    "city": "Ouallah",
    "city_zh": "Ouallah",
    "country": "Comoros",
    "country_zh": "葛摩",
    "country_iso_code": "KM",
    "timezone": "Indian/Comoro",
    "latitude": -12.32556,
    "longitude": 43.66333
  },
  {
    "city": "Ongoujou",
    "city_zh": "Ongoujou",
    "country": "Comoros",
    "country_zh": "葛摩",
    "country_iso_code": "KM",
    "timezone": "Indian/Comoro",
    "latitude": -12.31,
    "longitude": 44.51389
  },
  {
    "city": "Ongoni",
    "city_zh": "Ongoni",
    "country": "Comoros",
    "country_zh": "葛摩",
    "country_iso_code": "KM",
    "timezone": "Indian/Comoro",
    "latitude": -12.17028,
    "longitude": 44.50694
  },
  {
    "city": "Nounga",
    "city_zh": "Nounga",
    "country": "Comoros",
    "country_zh": "葛摩",
    "country_iso_code": "KM",
    "timezone": "Indian/Comoro",
    "latitude": -12.34639,
    "longitude": 44.50278
  },
  {
    "city": "Ntsoudjini",
    "city_zh": "Ntsoudjini",
    "country": "Comoros",
    "country_zh": "葛摩",
    "country_iso_code": "KM",
    "timezone": "Indian/Comoro",
    "latitude": -11.66077,
    "longitude": 43.27157
  },
  {
    "city": "Ntsazou",
    "city_zh": "Ntsazou",
    "country": "Comoros",
    "country_zh": "葛摩",
    "country_iso_code": "KM",
    "timezone": "Indian/Comoro",
    "latitude": -12.16667,
    "longitude": 44.25
  },
  {
    "city": "Ntsaouéni",
    "city_zh": "Ntsaouéni",
    "country": "Comoros",
    "country_zh": "葛摩",
    "country_iso_code": "KM",
    "timezone": "Indian/Comoro",
    "latitude": -11.46583,
    "longitude": 43.26278
  },
  {
    "city": "Nioumbadjou",
    "city_zh": "Nioumbadjou",
    "country": "Comoros",
    "country_zh": "葛摩",
    "country_iso_code": "KM",
    "timezone": "Indian/Comoro",
    "latitude": -11.79917,
    "longitude": 43.29722
  },
  {
    "city": "Chaouéni",
    "city_zh": "Chaouéni",
    "country": "Comoros",
    "country_zh": "葛摩",
    "country_iso_code": "KM",
    "timezone": "Indian/Comoro",
    "latitude": -12.35342,
    "longitude": 44.50124
  },
  {
    "city": "Nioumadzaha Mvoumbari",
    "city_zh": "Nioumadzaha Mvoumbari",
    "country": "Comoros",
    "country_zh": "葛摩",
    "country_iso_code": "KM",
    "timezone": "Indian/Comoro",
    "latitude": -11.83944,
    "longitude": 43.45472
  },
  {
    "city": "Nioumachoua",
    "city_zh": "Nioumachoua",
    "country": "Comoros",
    "country_zh": "葛摩",
    "country_iso_code": "KM",
    "timezone": "Indian/Comoro",
    "latitude": -12.36139,
    "longitude": 43.71528
  },
  {
    "city": "Kyo",
    "city_zh": "Kyo",
    "country": "Comoros",
    "country_zh": "葛摩",
    "country_iso_code": "KM",
    "timezone": "Indian/Comoro",
    "latitude": -12.33222,
    "longitude": 44.51917
  },
  {
    "city": "Ndzaouze",
    "city_zh": "Ndzaouze",
    "country": "Comoros",
    "country_zh": "葛摩",
    "country_iso_code": "KM",
    "timezone": "Indian/Comoro",
    "latitude": -11.40611,
    "longitude": 43.26694
  },
  {
    "city": "Moutsamoudou",
    "city_zh": "Moutsamoudou",
    "country": "Comoros",
    "country_zh": "葛摩",
    "country_iso_code": "KM",
    "timezone": "Indian/Comoro",
    "latitude": -12.16672,
    "longitude": 44.39944
  },
  {
    "city": "Mtsamdou",
    "city_zh": "Mtsamdou",
    "country": "Comoros",
    "country_zh": "葛摩",
    "country_iso_code": "KM",
    "timezone": "Indian/Comoro",
    "latitude": -11.60694,
    "longitude": 43.38056
  },
  {
    "city": "Mrémani",
    "city_zh": "Mrémani",
    "country": "Comoros",
    "country_zh": "葛摩",
    "country_iso_code": "KM",
    "timezone": "Indian/Comoro",
    "latitude": -12.30833,
    "longitude": 44.49861
  },
  {
    "city": "Mramani",
    "city_zh": "Mramani",
    "country": "Comoros",
    "country_zh": "葛摩",
    "country_iso_code": "KM",
    "timezone": "Indian/Comoro",
    "latitude": -12.34639,
    "longitude": 44.52861
  },
  {
    "city": "Moya",
    "city_zh": "Moya",
    "country": "Comoros",
    "country_zh": "葛摩",
    "country_iso_code": "KM",
    "timezone": "Indian/Comoro",
    "latitude": -12.30967,
    "longitude": 44.43685
  },
  {
    "city": "Mouroumouli",
    "city_zh": "Mouroumouli",
    "country": "Comoros",
    "country_zh": "葛摩",
    "country_iso_code": "KM",
    "timezone": "Indian/Comoro",
    "latitude": -12.2,
    "longitude": 44.31667
  },
  {
    "city": "Moujou",
    "city_zh": "Moujou",
    "country": "Comoros",
    "country_zh": "葛摩",
    "country_iso_code": "KM",
    "timezone": "Indian/Comoro",
    "latitude": -12.15,
    "longitude": 44.48333
  },
  {
    "city": "Moroni",
    "city_zh": "莫洛尼",
    "country": "Comoros",
    "country_zh": "葛摩",
    "country_iso_code": "KM",
    "timezone": "Indian/Comoro",
    "latitude": -11.70216,
    "longitude": 43.25506
  },
  {
    "city": "Mouahani",
    "city_zh": "Mouahani",
    "country": "Comoros",
    "country_zh": "葛摩",
    "country_iso_code": "KM",
    "timezone": "Indian/Comoro",
    "latitude": -12.36167,
    "longitude": 43.78083
  },
  {
    "city": "Mohoro",
    "city_zh": "Mohoro",
    "country": "Comoros",
    "country_zh": "葛摩",
    "country_iso_code": "KM",
    "timezone": "Indian/Comoro",
    "latitude": -11.82701,
    "longitude": 43.45436
  },
  {
    "city": "Mjimandra",
    "city_zh": "Mjimandra",
    "country": "Comoros",
    "country_zh": "葛摩",
    "country_iso_code": "KM",
    "timezone": "Indian/Comoro",
    "latitude": -12.19167,
    "longitude": 44.37028
  },
  {
    "city": "Mjamaoué",
    "city_zh": "Mjamaoué",
    "country": "Comoros",
    "country_zh": "葛摩",
    "country_iso_code": "KM",
    "timezone": "Indian/Comoro",
    "latitude": -12.19361,
    "longitude": 44.31
  },
  {
    "city": "Mitsoudjé",
    "city_zh": "Mitsoudjé",
    "country": "Comoros",
    "country_zh": "葛摩",
    "country_iso_code": "KM",
    "timezone": "Indian/Comoro",
    "latitude": -11.81209,
    "longitude": 43.28043
  },
  {
    "city": "Mitsamiouli",
    "city_zh": "Mitsamiouli",
    "country": "Comoros",
    "country_zh": "葛摩",
    "country_iso_code": "KM",
    "timezone": "Indian/Comoro",
    "latitude": -11.38472,
    "longitude": 43.28444
  },
  {
    "city": "Mirondoni",
    "city_zh": "Mirondoni",
    "country": "Comoros",
    "country_zh": "葛摩",
    "country_iso_code": "KM",
    "timezone": "Indian/Comoro",
    "latitude": -12.32222,
    "longitude": 44.52111
  },
  {
    "city": "Miringoni",
    "city_zh": "Miringoni",
    "country": "Comoros",
    "country_zh": "葛摩",
    "country_iso_code": "KM",
    "timezone": "Indian/Comoro",
    "latitude": -12.29667,
    "longitude": 43.63528
  },
  {
    "city": "Miréréni",
    "city_zh": "Miréréni",
    "country": "Comoros",
    "country_zh": "葛摩",
    "country_iso_code": "KM",
    "timezone": "Indian/Comoro",
    "latitude": -11.69028,
    "longitude": 43.40806
  },
  {
    "city": "Milévani",
    "city_zh": "Milévani",
    "country": "Comoros",
    "country_zh": "葛摩",
    "country_iso_code": "KM",
    "timezone": "Indian/Comoro",
    "latitude": -11.5549,
    "longitude": 43.29762
  },
  {
    "city": "Mifoni",
    "city_zh": "Mifoni",
    "country": "Comoros",
    "country_zh": "葛摩",
    "country_iso_code": "KM",
    "timezone": "Indian/Comoro",
    "latitude": -12.26389,
    "longitude": 43.62917
  },
  {
    "city": "Membéni",
    "city_zh": "Membéni",
    "country": "Comoros",
    "country_zh": "葛摩",
    "country_iso_code": "KM",
    "timezone": "Indian/Comoro",
    "latitude": -11.77389,
    "longitude": 43.43306
  },
  {
    "city": "Mdjoyézi",
    "city_zh": "Mdjoyézi",
    "country": "Comoros",
    "country_zh": "葛摩",
    "country_iso_code": "KM",
    "timezone": "Indian/Comoro",
    "latitude": -11.83642,
    "longitude": 43.31388
  },
  {
    "city": "Mdjoizema",
    "city_zh": "Mdjoizema",
    "country": "Comoros",
    "country_zh": "葛摩",
    "country_iso_code": "KM",
    "timezone": "Indian/Comoro",
    "latitude": -11.71667,
    "longitude": 43.46667
  },
  {
    "city": "Mdé",
    "city_zh": "Mdé",
    "country": "Comoros",
    "country_zh": "葛摩",
    "country_iso_code": "KM",
    "timezone": "Indian/Comoro",
    "latitude": -11.73611,
    "longitude": 43.24056
  },
  {
    "city": "Mboudé",
    "city_zh": "Mboudé",
    "country": "Comoros",
    "country_zh": "葛摩",
    "country_iso_code": "KM",
    "timezone": "Indian/Comoro",
    "latitude": -11.69417,
    "longitude": 43.41972
  },
  {
    "city": "Mbéni",
    "city_zh": "Mbéni",
    "country": "Comoros",
    "country_zh": "葛摩",
    "country_iso_code": "KM",
    "timezone": "Indian/Comoro",
    "latitude": -11.50139,
    "longitude": 43.3775
  },
  {
    "city": "Mbatsé",
    "city_zh": "Mbatsé",
    "country": "Comoros",
    "country_zh": "葛摩",
    "country_iso_code": "KM",
    "timezone": "Indian/Comoro",
    "latitude": -12.25944,
    "longitude": 43.69778
  },
  {
    "city": "Mbachilé",
    "city_zh": "Mbachilé",
    "country": "Comoros",
    "country_zh": "葛摩",
    "country_iso_code": "KM",
    "timezone": "Indian/Comoro",
    "latitude": -11.74718,
    "longitude": 43.23818
  },
  {
    "city": "Mrijou",
    "city_zh": "Mrijou",
    "country": "Comoros",
    "country_zh": "葛摩",
    "country_iso_code": "KM",
    "timezone": "Indian/Comoro",
    "latitude": -12.33194,
    "longitude": 44.49306
  },
  {
    "city": "Maraharé",
    "city_zh": "Maraharé",
    "country": "Comoros",
    "country_zh": "葛摩",
    "country_iso_code": "KM",
    "timezone": "Indian/Comoro",
    "latitude": -12.23083,
    "longitude": 44.31333
  },
  {
    "city": "Malhani",
    "city_zh": "Malhani",
    "country": "Comoros",
    "country_zh": "葛摩",
    "country_iso_code": "KM",
    "timezone": "Indian/Comoro",
    "latitude": -12.35,
    "longitude": 43.78333
  },
  {
    "city": "Male",
    "city_zh": "Male",
    "country": "Comoros",
    "country_zh": "葛摩",
    "country_iso_code": "KM",
    "timezone": "Indian/Comoro",
    "latitude": -11.88417,
    "longitude": 43.4975
  },
  {
    "city": "Madjoumadjou",
    "city_zh": "Madjoumadjou",
    "country": "Comoros",
    "country_zh": "葛摩",
    "country_iso_code": "KM",
    "timezone": "Indian/Comoro",
    "latitude": -11.72833,
    "longitude": 43.42278
  },
  {
    "city": "Longoni",
    "city_zh": "Longoni",
    "country": "Comoros",
    "country_zh": "葛摩",
    "country_iso_code": "KM",
    "timezone": "Indian/Comoro",
    "latitude": -12.25,
    "longitude": 44.41667
  },
  {
    "city": "La Grotte",
    "city_zh": "La Grotte",
    "country": "Comoros",
    "country_zh": "葛摩",
    "country_iso_code": "KM",
    "timezone": "Indian/Comoro",
    "latitude": -11.6,
    "longitude": 43.31667
  },
  {
    "city": "La Grille",
    "city_zh": "La Grille",
    "country": "Comoros",
    "country_zh": "葛摩",
    "country_iso_code": "KM",
    "timezone": "Indian/Comoro",
    "latitude": -11.45,
    "longitude": 43.33333
  },
  {
    "city": "Labanda",
    "city_zh": "Labanda",
    "country": "Comoros",
    "country_zh": "葛摩",
    "country_iso_code": "KM",
    "timezone": "Indian/Comoro",
    "latitude": -12.31667,
    "longitude": 43.81667
  },
  {
    "city": "Kouhani",
    "city_zh": "Kouhani",
    "country": "Comoros",
    "country_zh": "葛摩",
    "country_iso_code": "KM",
    "timezone": "Indian/Comoro",
    "latitude": -11.5675,
    "longitude": 43.38722
  },
  {
    "city": "Koni-Djodjo",
    "city_zh": "Koni-Djodjo",
    "country": "Comoros",
    "country_zh": "葛摩",
    "country_iso_code": "KM",
    "timezone": "Indian/Comoro",
    "latitude": -12.22972,
    "longitude": 44.48167
  },
  {
    "city": "Koni-Ngani",
    "city_zh": "Koni-Ngani",
    "country": "Comoros",
    "country_zh": "葛摩",
    "country_iso_code": "KM",
    "timezone": "Indian/Comoro",
    "latitude": -12.21583,
    "longitude": 44.48
  },
  {
    "city": "Kondroni",
    "city_zh": "Kondroni",
    "country": "Comoros",
    "country_zh": "葛摩",
    "country_iso_code": "KM",
    "timezone": "Indian/Comoro",
    "latitude": -12.16861,
    "longitude": 44.44722
  },
  {
    "city": "Kouambani",
    "city_zh": "Kouambani",
    "country": "Comoros",
    "country_zh": "葛摩",
    "country_iso_code": "KM",
    "timezone": "Indian/Comoro",
    "latitude": -11.85583,
    "longitude": 43.47333
  },
  {
    "city": "Koki",
    "city_zh": "Koki",
    "country": "Comoros",
    "country_zh": "葛摩",
    "country_iso_code": "KM",
    "timezone": "Indian/Comoro",
    "latitude": -12.17139,
    "longitude": 44.44167
  },
  {
    "city": "Koimbani",
    "city_zh": "Koimbani",
    "country": "Comoros",
    "country_zh": "葛摩",
    "country_iso_code": "KM",
    "timezone": "Indian/Comoro",
    "latitude": -11.62306,
    "longitude": 43.35667
  },
  {
    "city": "Kangani",
    "city_zh": "Kangani",
    "country": "Comoros",
    "country_zh": "葛摩",
    "country_iso_code": "KM",
    "timezone": "Indian/Comoro",
    "latitude": -12.34278,
    "longitude": 43.82
  },
  {
    "city": "Kangani",
    "city_zh": "Kangani",
    "country": "Comoros",
    "country_zh": "葛摩",
    "country_iso_code": "KM",
    "timezone": "Indian/Comoro",
    "latitude": -12.32102,
    "longitude": 44.4727
  },
  {
    "city": "Jiroudain",
    "city_zh": "Jiroudain",
    "country": "Comoros",
    "country_zh": "葛摩",
    "country_iso_code": "KM",
    "timezone": "Indian/Comoro",
    "latitude": -12.31667,
    "longitude": 43.78333
  },
  {
    "city": "Jimilimé",
    "city_zh": "Jimilimé",
    "country": "Comoros",
    "country_zh": "葛摩",
    "country_iso_code": "KM",
    "timezone": "Indian/Comoro",
    "latitude": -12.09709,
    "longitude": 44.4642
  },
  {
    "city": "Ivouani",
    "city_zh": "Ivouani",
    "country": "Comoros",
    "country_zh": "葛摩",
    "country_iso_code": "KM",
    "timezone": "Indian/Comoro",
    "latitude": -11.39157,
    "longitude": 43.39454
  },
  {
    "city": "Ivembeni",
    "city_zh": "Ivembeni",
    "country": "Comoros",
    "country_zh": "葛摩",
    "country_iso_code": "KM",
    "timezone": "Indian/Comoro",
    "latitude": -11.47778,
    "longitude": 43.31806
  },
  {
    "city": "Itsoadjou",
    "city_zh": "Itsoadjou",
    "country": "Comoros",
    "country_zh": "葛摩",
    "country_iso_code": "KM",
    "timezone": "Indian/Comoro",
    "latitude": -11.41667,
    "longitude": 43.41667
  },
  {
    "city": "Itsikoudi",
    "city_zh": "Itsikoudi",
    "country": "Comoros",
    "country_zh": "葛摩",
    "country_iso_code": "KM",
    "timezone": "Indian/Comoro",
    "latitude": -11.58361,
    "longitude": 43.37583
  },
  {
    "city": "Itsandra",
    "city_zh": "Itsandra",
    "country": "Comoros",
    "country_zh": "葛摩",
    "country_iso_code": "KM",
    "timezone": "Indian/Comoro",
    "latitude": -11.67638,
    "longitude": 43.26466
  },
  {
    "city": "Itsamia",
    "city_zh": "Itsamia",
    "country": "Comoros",
    "country_zh": "葛摩",
    "country_iso_code": "KM",
    "timezone": "Indian/Comoro",
    "latitude": -12.36417,
    "longitude": 43.86778
  },
  {
    "city": "Héroumbili",
    "city_zh": "Héroumbili",
    "country": "Comoros",
    "country_zh": "葛摩",
    "country_iso_code": "KM",
    "timezone": "Indian/Comoro",
    "latitude": -11.54389,
    "longitude": 43.37972
  },
  {
    "city": "Ifoundihé Chambouani",
    "city_zh": "Ifoundihé Chambouani",
    "country": "Comoros",
    "country_zh": "葛摩",
    "country_iso_code": "KM",
    "timezone": "Indian/Comoro",
    "latitude": -11.90028,
    "longitude": 43.41222
  },
  {
    "city": "Ifoundihé",
    "city_zh": "Ifoundihé",
    "country": "Comoros",
    "country_zh": "葛摩",
    "country_iso_code": "KM",
    "timezone": "Indian/Comoro",
    "latitude": -11.53444,
    "longitude": 43.37667
  },
  {
    "city": "Idjikoundzi",
    "city_zh": "Idjikoundzi",
    "country": "Comoros",
    "country_zh": "葛摩",
    "country_iso_code": "KM",
    "timezone": "Indian/Comoro",
    "latitude": -11.71056,
    "longitude": 43.41389
  },
  {
    "city": "Hoani",
    "city_zh": "Hoani",
    "country": "Comoros",
    "country_zh": "葛摩",
    "country_iso_code": "KM",
    "timezone": "Indian/Comoro",
    "latitude": -12.25083,
    "longitude": 43.67472
  },
  {
    "city": "Hetsa",
    "city_zh": "Hetsa",
    "country": "Comoros",
    "country_zh": "葛摩",
    "country_iso_code": "KM",
    "timezone": "Indian/Comoro",
    "latitude": -11.84472,
    "longitude": 43.31583
  },
  {
    "city": "Helendjé",
    "city_zh": "Helendjé",
    "country": "Comoros",
    "country_zh": "葛摩",
    "country_iso_code": "KM",
    "timezone": "Indian/Comoro",
    "latitude": -11.43667,
    "longitude": 43.305
  },
  {
    "city": "Hantzinzi",
    "city_zh": "Hantzinzi",
    "country": "Comoros",
    "country_zh": "葛摩",
    "country_iso_code": "KM",
    "timezone": "Indian/Comoro",
    "latitude": -12.43333,
    "longitude": 43.41667
  },
  {
    "city": "Hambo",
    "city_zh": "Hambo",
    "country": "Comoros",
    "country_zh": "葛摩",
    "country_iso_code": "KM",
    "timezone": "Indian/Comoro",
    "latitude": -11.58333,
    "longitude": 43.38333
  },
  {
    "city": "Hahaya",
    "city_zh": "Hahaya",
    "country": "Comoros",
    "country_zh": "葛摩",
    "country_iso_code": "KM",
    "timezone": "Indian/Comoro",
    "latitude": -11.56223,
    "longitude": 43.27214
  },
  {
    "city": "Hagniamada",
    "city_zh": "Hagniamada",
    "country": "Comoros",
    "country_zh": "葛摩",
    "country_iso_code": "KM",
    "timezone": "Indian/Comoro",
    "latitude": -12.31667,
    "longitude": 43.85
  },
  {
    "city": "Hadjambo",
    "city_zh": "Hadjambo",
    "country": "Comoros",
    "country_zh": "葛摩",
    "country_iso_code": "KM",
    "timezone": "Indian/Comoro",
    "latitude": -11.45,
    "longitude": 43.41667
  },
  {
    "city": "Guamarumbo",
    "city_zh": "Guamarumbo",
    "country": "Comoros",
    "country_zh": "葛摩",
    "country_iso_code": "KM",
    "timezone": "Indian/Comoro",
    "latitude": -12.25,
    "longitude": 43.68333
  },
  {
    "city": "Foumbouni",
    "city_zh": "Foumbouni",
    "country": "Comoros",
    "country_zh": "葛摩",
    "country_iso_code": "KM",
    "timezone": "Indian/Comoro",
    "latitude": -11.86537,
    "longitude": 43.49529
  },
  {
    "city": "Fongapepo",
    "city_zh": "Fongapepo",
    "country": "Comoros",
    "country_zh": "葛摩",
    "country_iso_code": "KM",
    "timezone": "Indian/Comoro",
    "latitude": -12.25,
    "longitude": 43.65
  },
  {
    "city": "Fomboni",
    "city_zh": "Fomboni",
    "country": "Comoros",
    "country_zh": "葛摩",
    "country_iso_code": "KM",
    "timezone": "Indian/Comoro",
    "latitude": -12.28759,
    "longitude": 43.74344
  },
  {
    "city": "Fombani",
    "city_zh": "Fombani",
    "country": "Comoros",
    "country_zh": "葛摩",
    "country_iso_code": "KM",
    "timezone": "Indian/Comoro",
    "latitude": -12.18333,
    "longitude": 44.3
  },
  {
    "city": "Dziani",
    "city_zh": "Dziani",
    "country": "Comoros",
    "country_zh": "葛摩",
    "country_iso_code": "KM",
    "timezone": "Indian/Comoro",
    "latitude": -12.18333,
    "longitude": 44.48333
  },
  {
    "city": "Dzahadjou",
    "city_zh": "Dzahadjou",
    "country": "Comoros",
    "country_zh": "葛摩",
    "country_iso_code": "KM",
    "timezone": "Indian/Comoro",
    "latitude": -11.90778,
    "longitude": 43.44444
  },
  {
    "city": "Dzahadjou",
    "city_zh": "Dzahadjou",
    "country": "Comoros",
    "country_zh": "葛摩",
    "country_iso_code": "KM",
    "timezone": "Indian/Comoro",
    "latitude": -11.85287,
    "longitude": 43.34987
  },
  {
    "city": "Domoni",
    "city_zh": "多摩尼市",
    "country": "Comoros",
    "country_zh": "葛摩",
    "country_iso_code": "KM",
    "timezone": "Indian/Comoro",
    "latitude": -12.26067,
    "longitude": 44.52947
  },
  {
    "city": "Domoni",
    "city_zh": "Domoni",
    "country": "Comoros",
    "country_zh": "葛摩",
    "country_iso_code": "KM",
    "timezone": "Indian/Comoro",
    "latitude": -12.25194,
    "longitude": 43.64222
  },
  {
    "city": "Domoni",
    "city_zh": "Domoni",
    "country": "Comoros",
    "country_zh": "葛摩",
    "country_iso_code": "KM",
    "timezone": "Indian/Comoro",
    "latitude": -11.48694,
    "longitude": 43.26917
  },
  {
    "city": "Djoumbe",
    "city_zh": "Djoumbe",
    "country": "Comoros",
    "country_zh": "葛摩",
    "country_iso_code": "KM",
    "timezone": "Indian/Comoro",
    "latitude": -11.75,
    "longitude": 43.26667
  },
  {
    "city": "Djoumadounia",
    "city_zh": "Djoumadounia",
    "country": "Comoros",
    "country_zh": "葛摩",
    "country_iso_code": "KM",
    "timezone": "Indian/Comoro",
    "latitude": -12.28333,
    "longitude": 43.75
  },
  {
    "city": "Djomani",
    "city_zh": "Djomani",
    "country": "Comoros",
    "country_zh": "葛摩",
    "country_iso_code": "KM",
    "timezone": "Indian/Comoro",
    "latitude": -11.43028,
    "longitude": 43.25944
  },
  {
    "city": "Djoyézi",
    "city_zh": "Djoyézi",
    "country": "Comoros",
    "country_zh": "葛摩",
    "country_iso_code": "KM",
    "timezone": "Indian/Comoro",
    "latitude": -12.30587,
    "longitude": 43.77425
  },
  {
    "city": "Dindi",
    "city_zh": "Dindi",
    "country": "Comoros",
    "country_zh": "葛摩",
    "country_iso_code": "KM",
    "timezone": "Indian/Comoro",
    "latitude": -12.21,
    "longitude": 44.4525
  },
  {
    "city": "Dibouani",
    "city_zh": "Dibouani",
    "country": "Comoros",
    "country_zh": "葛摩",
    "country_iso_code": "KM",
    "timezone": "Indian/Comoro",
    "latitude": -11.55694,
    "longitude": 43.31444
  },
  {
    "city": "Demeani",
    "city_zh": "Demeani",
    "country": "Comoros",
    "country_zh": "葛摩",
    "country_iso_code": "KM",
    "timezone": "Indian/Comoro",
    "latitude": -12.38333,
    "longitude": 43.75
  },
  {
    "city": "Dembéni",
    "city_zh": "Dembéni",
    "country": "Comoros",
    "country_zh": "葛摩",
    "country_iso_code": "KM",
    "timezone": "Indian/Comoro",
    "latitude": -11.87361,
    "longitude": 43.39778
  },
  {
    "city": "Damou",
    "city_zh": "Damou",
    "country": "Comoros",
    "country_zh": "葛摩",
    "country_iso_code": "KM",
    "timezone": "Indian/Comoro",
    "latitude": -12.3,
    "longitude": 43.65
  },
  {
    "city": "La Convalescence",
    "city_zh": "La Convalescence",
    "country": "Comoros",
    "country_zh": "葛摩",
    "country_iso_code": "KM",
    "timezone": "Indian/Comoro",
    "latitude": -11.755,
    "longitude": 43.31972
  },
  {
    "city": "Chomoni",
    "city_zh": "Chomoni",
    "country": "Comoros",
    "country_zh": "葛摩",
    "country_iso_code": "KM",
    "timezone": "Indian/Comoro",
    "latitude": -11.64306,
    "longitude": 43.38583
  },
  {
    "city": "Chironkamba",
    "city_zh": "Chironkamba",
    "country": "Comoros",
    "country_zh": "葛摩",
    "country_iso_code": "KM",
    "timezone": "Indian/Comoro",
    "latitude": -12.19111,
    "longitude": 44.3525
  },
  {
    "city": "Chindini",
    "city_zh": "Chindini",
    "country": "Comoros",
    "country_zh": "葛摩",
    "country_iso_code": "KM",
    "timezone": "Indian/Comoro",
    "latitude": -11.92328,
    "longitude": 43.49109
  },
  {
    "city": "Chezani",
    "city_zh": "Chezani",
    "country": "Comoros",
    "country_zh": "葛摩",
    "country_iso_code": "KM",
    "timezone": "Indian/Comoro",
    "latitude": -11.4314,
    "longitude": 43.39625
  },
  {
    "city": "Chandra",
    "city_zh": "Chandra",
    "country": "Comoros",
    "country_zh": "葛摩",
    "country_iso_code": "KM",
    "timezone": "Indian/Comoro",
    "latitude": -12.195,
    "longitude": 44.46472
  },
  {
    "city": "Chouani",
    "city_zh": "Chouani",
    "country": "Comoros",
    "country_zh": "葛摩",
    "country_iso_code": "KM",
    "timezone": "Indian/Comoro",
    "latitude": -11.8233,
    "longitude": 43.29429
  },
  {
    "city": "Buanitonque",
    "city_zh": "Buanitonque",
    "country": "Comoros",
    "country_zh": "葛摩",
    "country_iso_code": "KM",
    "timezone": "Indian/Comoro",
    "latitude": -12.33333,
    "longitude": 43.71667
  },
  {
    "city": "Bouni",
    "city_zh": "Bouni",
    "country": "Comoros",
    "country_zh": "葛摩",
    "country_iso_code": "KM",
    "timezone": "Indian/Comoro",
    "latitude": -11.48694,
    "longitude": 43.38833
  },
  {
    "city": "Boungouéni",
    "city_zh": "Boungouéni",
    "country": "Comoros",
    "country_zh": "葛摩",
    "country_iso_code": "KM",
    "timezone": "Indian/Comoro",
    "latitude": -12.20556,
    "longitude": 44.29944
  },
  {
    "city": "Bouéjou",
    "city_zh": "Bouéjou",
    "country": "Comoros",
    "country_zh": "葛摩",
    "country_iso_code": "KM",
    "timezone": "Indian/Comoro",
    "latitude": -12.34889,
    "longitude": 44.51167
  },
  {
    "city": "Boboni",
    "city_zh": "Boboni",
    "country": "Comoros",
    "country_zh": "葛摩",
    "country_iso_code": "KM",
    "timezone": "Indian/Comoro",
    "latitude": -11.7525,
    "longitude": 43.28028
  },
  {
    "city": "Bimbini",
    "city_zh": "Bimbini",
    "country": "Comoros",
    "country_zh": "葛摩",
    "country_iso_code": "KM",
    "timezone": "Indian/Comoro",
    "latitude": -12.18833,
    "longitude": 44.23556
  },
  {
    "city": "Bazimini",
    "city_zh": "Bazimini",
    "country": "Comoros",
    "country_zh": "葛摩",
    "country_iso_code": "KM",
    "timezone": "Indian/Comoro",
    "latitude": -12.17917,
    "longitude": 44.44889
  },
  {
    "city": "Barakani",
    "city_zh": "Barakani",
    "country": "Comoros",
    "country_zh": "葛摩",
    "country_iso_code": "KM",
    "timezone": "Indian/Comoro",
    "latitude": -11.83333,
    "longitude": 43.41667
  },
  {
    "city": "Bangoma",
    "city_zh": "Bangoma",
    "country": "Comoros",
    "country_zh": "葛摩",
    "country_iso_code": "KM",
    "timezone": "Indian/Comoro",
    "latitude": -12.28389,
    "longitude": 43.75139
  },
  {
    "city": "Bangoua Kouni",
    "city_zh": "Bangoua Kouni",
    "country": "Comoros",
    "country_zh": "葛摩",
    "country_iso_code": "KM",
    "timezone": "Indian/Comoro",
    "latitude": -11.3675,
    "longitude": 43.35278
  },
  {
    "city": "Bangoi",
    "city_zh": "Bangoi",
    "country": "Comoros",
    "country_zh": "葛摩",
    "country_iso_code": "KM",
    "timezone": "Indian/Comoro",
    "latitude": -11.81667,
    "longitude": 43.3
  },
  {
    "city": "Bandani",
    "city_zh": "Bandani",
    "country": "Comoros",
    "country_zh": "葛摩",
    "country_iso_code": "KM",
    "timezone": "Indian/Comoro",
    "latitude": -12.33333,
    "longitude": 43.81667
  },
  {
    "city": "Bandani-Vouani",
    "city_zh": "Bandani-Vouani",
    "country": "Comoros",
    "country_zh": "葛摩",
    "country_iso_code": "KM",
    "timezone": "Indian/Comoro",
    "latitude": -12.24472,
    "longitude": 44.38556
  },
  {
    "city": "Bandamadji-Domba",
    "city_zh": "Bandamadji-Domba",
    "country": "Comoros",
    "country_zh": "葛摩",
    "country_iso_code": "KM",
    "timezone": "Indian/Comoro",
    "latitude": -11.78788,
    "longitude": 43.45356
  },
  {
    "city": "Bambao",
    "city_zh": "Bambao",
    "country": "Comoros",
    "country_zh": "葛摩",
    "country_iso_code": "KM",
    "timezone": "Indian/Comoro",
    "latitude": -12.20325,
    "longitude": 44.51638
  },
  {
    "city": "Babani",
    "city_zh": "Babani",
    "country": "Comoros",
    "country_zh": "葛摩",
    "country_iso_code": "KM",
    "timezone": "Indian/Comoro",
    "latitude": -12.3,
    "longitude": 43.8
  },
  {
    "city": "Assimpao",
    "city_zh": "Assimpao",
    "country": "Comoros",
    "country_zh": "葛摩",
    "country_iso_code": "KM",
    "timezone": "Indian/Comoro",
    "latitude": -12.23306,
    "longitude": 44.31972
  },
  {
    "city": "Antsahé",
    "city_zh": "Antsahé",
    "country": "Comoros",
    "country_zh": "葛摩",
    "country_iso_code": "KM",
    "timezone": "Indian/Comoro",
    "latitude": -12.35639,
    "longitude": 44.5225
  },
  {
    "city": "Kobela",
    "city_zh": "Kobela",
    "country": "Comoros",
    "country_zh": "葛摩",
    "country_iso_code": "KM",
    "timezone": "Indian/Comoro",
    "latitude": -12.26806,
    "longitude": 43.63417
  },
  {
    "city": "Hamba",
    "city_zh": "Hamba",
    "country": "Comoros",
    "country_zh": "葛摩",
    "country_iso_code": "KM",
    "timezone": "Indian/Comoro",
    "latitude": -12.27444,
    "longitude": 43.63194
  },
  {
    "city": "Chikoni",
    "city_zh": "Chikoni",
    "country": "Comoros",
    "country_zh": "葛摩",
    "country_iso_code": "KM",
    "timezone": "Indian/Comoro",
    "latitude": -12.28583,
    "longitude": 43.63167
  },
  {
    "city": "Miréréni",
    "city_zh": "Miréréni",
    "country": "Comoros",
    "country_zh": "葛摩",
    "country_iso_code": "KM",
    "timezone": "Indian/Comoro",
    "latitude": -12.32111,
    "longitude": 43.65972
  },
  {
    "city": "Mirémani",
    "city_zh": "Mirémani",
    "country": "Comoros",
    "country_zh": "葛摩",
    "country_iso_code": "KM",
    "timezone": "Indian/Comoro",
    "latitude": -12.33972,
    "longitude": 43.66833
  },
  {
    "city": "Ndrondroni",
    "city_zh": "Ndrondroni",
    "country": "Comoros",
    "country_zh": "葛摩",
    "country_iso_code": "KM",
    "timezone": "Indian/Comoro",
    "latitude": -12.34278,
    "longitude": 43.68222
  },
  {
    "city": "Ngamaroumbo",
    "city_zh": "Ngamaroumbo",
    "country": "Comoros",
    "country_zh": "葛摩",
    "country_iso_code": "KM",
    "timezone": "Indian/Comoro",
    "latitude": -12.26167,
    "longitude": 43.67306
  },
  {
    "city": "Gnambo Yamaoré",
    "city_zh": "Gnambo Yamaoré",
    "country": "Comoros",
    "country_zh": "葛摩",
    "country_iso_code": "KM",
    "timezone": "Indian/Comoro",
    "latitude": -12.25083,
    "longitude": 43.66917
  },
  {
    "city": "Mtakoudja",
    "city_zh": "Mtakoudja",
    "country": "Comoros",
    "country_zh": "葛摩",
    "country_iso_code": "KM",
    "timezone": "Indian/Comoro",
    "latitude": -12.26111,
    "longitude": 43.70361
  },
  {
    "city": "Bandaressalam",
    "city_zh": "Bandaressalam",
    "country": "Comoros",
    "country_zh": "葛摩",
    "country_iso_code": "KM",
    "timezone": "Indian/Comoro",
    "latitude": -12.29845,
    "longitude": 43.75854
  },
  {
    "city": "Mnadzi Modja",
    "city_zh": "Mnadzi Modja",
    "country": "Comoros",
    "country_zh": "葛摩",
    "country_iso_code": "KM",
    "timezone": "Indian/Comoro",
    "latitude": -12.27861,
    "longitude": 43.74583
  },
  {
    "city": "Ndréméani",
    "city_zh": "Ndréméani",
    "country": "Comoros",
    "country_zh": "葛摩",
    "country_iso_code": "KM",
    "timezone": "Indian/Comoro",
    "latitude": -12.35083,
    "longitude": 43.75194
  },
  {
    "city": "Mihoungouni",
    "city_zh": "Mihoungouni",
    "country": "Comoros",
    "country_zh": "葛摩",
    "country_iso_code": "KM",
    "timezone": "Indian/Comoro",
    "latitude": -12.35833,
    "longitude": 43.7675
  },
  {
    "city": "Siri",
    "city_zh": "Siri",
    "country": "Comoros",
    "country_zh": "葛摩",
    "country_iso_code": "KM",
    "timezone": "Indian/Comoro",
    "latitude": -12.33417,
    "longitude": 43.78056
  },
  {
    "city": "Ziroudani",
    "city_zh": "Ziroudani",
    "country": "Comoros",
    "country_zh": "葛摩",
    "country_iso_code": "KM",
    "timezone": "Indian/Comoro",
    "latitude": -12.3325,
    "longitude": 43.7775
  },
  {
    "city": "Gnombéni",
    "city_zh": "Gnombéni",
    "country": "Comoros",
    "country_zh": "葛摩",
    "country_iso_code": "KM",
    "timezone": "Indian/Comoro",
    "latitude": -12.30056,
    "longitude": 43.77806
  },
  {
    "city": "Mlabanda",
    "city_zh": "Mlabanda",
    "country": "Comoros",
    "country_zh": "葛摩",
    "country_iso_code": "KM",
    "timezone": "Indian/Comoro",
    "latitude": -12.33139,
    "longitude": 43.81139
  },
  {
    "city": "Kirimani",
    "city_zh": "Kirimani",
    "country": "Comoros",
    "country_zh": "葛摩",
    "country_iso_code": "KM",
    "timezone": "Indian/Comoro",
    "latitude": -12.34056,
    "longitude": 43.79917
  },
  {
    "city": "Hagnengélé",
    "city_zh": "Hagnengélé",
    "country": "Comoros",
    "country_zh": "葛摩",
    "country_iso_code": "KM",
    "timezone": "Indian/Comoro",
    "latitude": -12.375,
    "longitude": 43.83083
  },
  {
    "city": "Mouhou",
    "city_zh": "Mouhou",
    "country": "Comoros",
    "country_zh": "葛摩",
    "country_iso_code": "KM",
    "timezone": "Indian/Comoro",
    "latitude": -12.33972,
    "longitude": 43.83139
  },
  {
    "city": "Hamavouna",
    "city_zh": "Hamavouna",
    "country": "Comoros",
    "country_zh": "葛摩",
    "country_iso_code": "KM",
    "timezone": "Indian/Comoro",
    "latitude": -12.37306,
    "longitude": 43.83833
  },
  {
    "city": "Hagnamouada",
    "city_zh": "Hagnamouada",
    "country": "Comoros",
    "country_zh": "葛摩",
    "country_iso_code": "KM",
    "timezone": "Indian/Comoro",
    "latitude": -12.33333,
    "longitude": 43.8425
  },
  {
    "city": "Ntakoudja",
    "city_zh": "Ntakoudja",
    "country": "Comoros",
    "country_zh": "葛摩",
    "country_iso_code": "KM",
    "timezone": "Indian/Comoro",
    "latitude": -12.16861,
    "longitude": 44.22278
  },
  {
    "city": "Bangouélamvouéra",
    "city_zh": "Bangouélamvouéra",
    "country": "Comoros",
    "country_zh": "葛摩",
    "country_iso_code": "KM",
    "timezone": "Indian/Comoro",
    "latitude": -12.17139,
    "longitude": 44.22639
  },
  {
    "city": "Ntsajou",
    "city_zh": "Ntsajou",
    "country": "Comoros",
    "country_zh": "葛摩",
    "country_iso_code": "KM",
    "timezone": "Indian/Comoro",
    "latitude": -12.17778,
    "longitude": 44.23667
  },
  {
    "city": "Souni",
    "city_zh": "Souni",
    "country": "Comoros",
    "country_zh": "葛摩",
    "country_iso_code": "KM",
    "timezone": "Indian/Comoro",
    "latitude": -12.19556,
    "longitude": 44.24583
  },
  {
    "city": "Mirongani",
    "city_zh": "Mirongani",
    "country": "Comoros",
    "country_zh": "葛摩",
    "country_iso_code": "KM",
    "timezone": "Indian/Comoro",
    "latitude": -12.19056,
    "longitude": 44.2525
  },
  {
    "city": "Milembéni",
    "city_zh": "Milembéni",
    "country": "Comoros",
    "country_zh": "葛摩",
    "country_iso_code": "KM",
    "timezone": "Indian/Comoro",
    "latitude": -12.19806,
    "longitude": 44.26389
  },
  {
    "city": "Kavani",
    "city_zh": "Kavani",
    "country": "Comoros",
    "country_zh": "葛摩",
    "country_iso_code": "KM",
    "timezone": "Indian/Comoro",
    "latitude": -12.19194,
    "longitude": 44.26944
  },
  {
    "city": "Majouani",
    "city_zh": "Majouani",
    "country": "Comoros",
    "country_zh": "葛摩",
    "country_iso_code": "KM",
    "timezone": "Indian/Comoro",
    "latitude": -12.18583,
    "longitude": 44.27472
  },
  {
    "city": "Mtsangamléni",
    "city_zh": "Mtsangamléni",
    "country": "Comoros",
    "country_zh": "葛摩",
    "country_iso_code": "KM",
    "timezone": "Indian/Comoro",
    "latitude": -12.18111,
    "longitude": 44.25778
  },
  {
    "city": "Bandajou",
    "city_zh": "Bandajou",
    "country": "Comoros",
    "country_zh": "葛摩",
    "country_iso_code": "KM",
    "timezone": "Indian/Comoro",
    "latitude": -12.19167,
    "longitude": 44.28694
  },
  {
    "city": "Lamboué",
    "city_zh": "Lamboué",
    "country": "Comoros",
    "country_zh": "葛摩",
    "country_iso_code": "KM",
    "timezone": "Indian/Comoro",
    "latitude": -12.21889,
    "longitude": 44.28944
  },
  {
    "city": "Iméré",
    "city_zh": "Iméré",
    "country": "Comoros",
    "country_zh": "葛摩",
    "country_iso_code": "KM",
    "timezone": "Indian/Comoro",
    "latitude": -12.21833,
    "longitude": 44.30111
  },
  {
    "city": "Mro Mouhouli",
    "city_zh": "Mro Mouhouli",
    "country": "Comoros",
    "country_zh": "葛摩",
    "country_iso_code": "KM",
    "timezone": "Indian/Comoro",
    "latitude": -12.225,
    "longitude": 44.30306
  },
  {
    "city": "Mitréni",
    "city_zh": "Mitréni",
    "country": "Comoros",
    "country_zh": "葛摩",
    "country_iso_code": "KM",
    "timezone": "Indian/Comoro",
    "latitude": -12.22917,
    "longitude": 44.31028
  },
  {
    "city": "Chitsangachélé",
    "city_zh": "Chitsangachélé",
    "country": "Comoros",
    "country_zh": "葛摩",
    "country_iso_code": "KM",
    "timezone": "Indian/Comoro",
    "latitude": -12.23556,
    "longitude": 44.32306
  },
  {
    "city": "Vindjajou",
    "city_zh": "Vindjajou",
    "country": "Comoros",
    "country_zh": "葛摩",
    "country_iso_code": "KM",
    "timezone": "Indian/Comoro",
    "latitude": -12.20722,
    "longitude": 44.30972
  },
  {
    "city": "Mkirijou",
    "city_zh": "Mkirijou",
    "country": "Comoros",
    "country_zh": "葛摩",
    "country_iso_code": "KM",
    "timezone": "Indian/Comoro",
    "latitude": -12.19444,
    "longitude": 44.31778
  },
  {
    "city": "Sombé",
    "city_zh": "Sombé",
    "country": "Comoros",
    "country_zh": "葛摩",
    "country_iso_code": "KM",
    "timezone": "Indian/Comoro",
    "latitude": -12.19222,
    "longitude": 44.32056
  },
  {
    "city": "Chongochahari",
    "city_zh": "Chongochahari",
    "country": "Comoros",
    "country_zh": "葛摩",
    "country_iso_code": "KM",
    "timezone": "Indian/Comoro",
    "latitude": -12.19056,
    "longitude": 44.31861
  },
  {
    "city": "Chitrouni",
    "city_zh": "Chitrouni",
    "country": "Comoros",
    "country_zh": "葛摩",
    "country_iso_code": "KM",
    "timezone": "Indian/Comoro",
    "latitude": -12.18583,
    "longitude": 44.33556
  },
  {
    "city": "Hadongo",
    "city_zh": "Hadongo",
    "country": "Comoros",
    "country_zh": "葛摩",
    "country_iso_code": "KM",
    "timezone": "Indian/Comoro",
    "latitude": -12.23639,
    "longitude": 44.33111
  },
  {
    "city": "Dzindri Mtsangani",
    "city_zh": "Dzindri Mtsangani",
    "country": "Comoros",
    "country_zh": "葛摩",
    "country_iso_code": "KM",
    "timezone": "Indian/Comoro",
    "latitude": -12.235,
    "longitude": 44.36194
  },
  {
    "city": "Salamani",
    "city_zh": "Salamani",
    "country": "Comoros",
    "country_zh": "葛摩",
    "country_iso_code": "KM",
    "timezone": "Indian/Comoro",
    "latitude": -12.23278,
    "longitude": 44.36222
  },
  {
    "city": "Dzindri",
    "city_zh": "Dzindri",
    "country": "Comoros",
    "country_zh": "葛摩",
    "country_iso_code": "KM",
    "timezone": "Indian/Comoro",
    "latitude": -12.23028,
    "longitude": 44.35361
  },
  {
    "city": "Bandani Mtsangani",
    "city_zh": "Bandani Mtsangani",
    "country": "Comoros",
    "country_zh": "葛摩",
    "country_iso_code": "KM",
    "timezone": "Indian/Comoro",
    "latitude": -12.18944,
    "longitude": 44.34194
  },
  {
    "city": "Maouéni",
    "city_zh": "Maouéni",
    "country": "Comoros",
    "country_zh": "葛摩",
    "country_iso_code": "KM",
    "timezone": "Indian/Comoro",
    "latitude": -12.19611,
    "longitude": 44.34472
  },
  {
    "city": "Ankibani",
    "city_zh": "Ankibani",
    "country": "Comoros",
    "country_zh": "葛摩",
    "country_iso_code": "KM",
    "timezone": "Indian/Comoro",
    "latitude": -12.19333,
    "longitude": 44.36167
  },
  {
    "city": "Marontronii",
    "city_zh": "Marontronii",
    "country": "Comoros",
    "country_zh": "葛摩",
    "country_iso_code": "KM",
    "timezone": "Indian/Comoro",
    "latitude": -12.23889,
    "longitude": 44.36694
  },
  {
    "city": "Iméré",
    "city_zh": "Iméré",
    "country": "Comoros",
    "country_zh": "葛摩",
    "country_iso_code": "KM",
    "timezone": "Indian/Comoro",
    "latitude": -12.23611,
    "longitude": 44.36778
  },
  {
    "city": "Dar Salam",
    "city_zh": "Dar Salam",
    "country": "Comoros",
    "country_zh": "葛摩",
    "country_iso_code": "KM",
    "timezone": "Indian/Comoro",
    "latitude": -12.25083,
    "longitude": 44.38806
  },
  {
    "city": "Choungoui",
    "city_zh": "Choungoui",
    "country": "Comoros",
    "country_zh": "葛摩",
    "country_iso_code": "KM",
    "timezone": "Indian/Comoro",
    "latitude": -12.25194,
    "longitude": 44.39694
  },
  {
    "city": "Banda Mtsanga",
    "city_zh": "Banda Mtsanga",
    "country": "Comoros",
    "country_zh": "葛摩",
    "country_iso_code": "KM",
    "timezone": "Indian/Comoro",
    "latitude": -12.07667,
    "longitude": 44.48111
  },
  {
    "city": "Hajoho",
    "city_zh": "Hajoho",
    "country": "Comoros",
    "country_zh": "葛摩",
    "country_iso_code": "KM",
    "timezone": "Indian/Comoro",
    "latitude": -12.12434,
    "longitude": 44.48881
  },
  {
    "city": "Ndrangani",
    "city_zh": "Ndrangani",
    "country": "Comoros",
    "country_zh": "葛摩",
    "country_iso_code": "KM",
    "timezone": "Indian/Comoro",
    "latitude": -12.11917,
    "longitude": 44.49417
  },
  {
    "city": "Gnantranga",
    "city_zh": "Gnantranga",
    "country": "Comoros",
    "country_zh": "葛摩",
    "country_iso_code": "KM",
    "timezone": "Indian/Comoro",
    "latitude": -12.13886,
    "longitude": 44.43656
  },
  {
    "city": "Barakani",
    "city_zh": "Barakani",
    "country": "Comoros",
    "country_zh": "葛摩",
    "country_iso_code": "KM",
    "timezone": "Indian/Comoro",
    "latitude": -12.13861,
    "longitude": 44.43026
  },
  {
    "city": "Harembo",
    "city_zh": "Harembo",
    "country": "Comoros",
    "country_zh": "葛摩",
    "country_iso_code": "KM",
    "timezone": "Indian/Comoro",
    "latitude": -12.15108,
    "longitude": 44.49828
  },
  {
    "city": "Lamahalé",
    "city_zh": "Lamahalé",
    "country": "Comoros",
    "country_zh": "葛摩",
    "country_iso_code": "KM",
    "timezone": "Indian/Comoro",
    "latitude": -12.14722,
    "longitude": 44.49889
  },
  {
    "city": "Goungouamoué",
    "city_zh": "Goungouamoué",
    "country": "Comoros",
    "country_zh": "葛摩",
    "country_iso_code": "KM",
    "timezone": "Indian/Comoro",
    "latitude": -12.15972,
    "longitude": 44.4025
  },
  {
    "city": "Mirontsi",
    "city_zh": "Mirontsi",
    "country": "Comoros",
    "country_zh": "葛摩",
    "country_iso_code": "KM",
    "timezone": "Indian/Comoro",
    "latitude": -12.1604,
    "longitude": 44.40986
  },
  {
    "city": "Hombo",
    "city_zh": "Hombo",
    "country": "Comoros",
    "country_zh": "葛摩",
    "country_iso_code": "KM",
    "timezone": "Indian/Comoro",
    "latitude": -12.16917,
    "longitude": 44.40139
  },
  {
    "city": "Sangani",
    "city_zh": "Sangani",
    "country": "Comoros",
    "country_zh": "葛摩",
    "country_iso_code": "KM",
    "timezone": "Indian/Comoro",
    "latitude": -12.17333,
    "longitude": 44.40667
  },
  {
    "city": "Pajé",
    "city_zh": "Pajé",
    "country": "Comoros",
    "country_zh": "葛摩",
    "country_iso_code": "KM",
    "timezone": "Indian/Comoro",
    "latitude": -12.16972,
    "longitude": 44.38806
  },
  {
    "city": "Moujimouvia",
    "city_zh": "Moujimouvia",
    "country": "Comoros",
    "country_zh": "葛摩",
    "country_iso_code": "KM",
    "timezone": "Indian/Comoro",
    "latitude": -12.17444,
    "longitude": 44.3875
  },
  {
    "city": "Mouamoua",
    "city_zh": "Mouamoua",
    "country": "Comoros",
    "country_zh": "葛摩",
    "country_iso_code": "KM",
    "timezone": "Indian/Comoro",
    "latitude": -12.18,
    "longitude": 44.37833
  },
  {
    "city": "Mromagi",
    "city_zh": "Mromagi",
    "country": "Comoros",
    "country_zh": "葛摩",
    "country_iso_code": "KM",
    "timezone": "Indian/Comoro",
    "latitude": -12.20361,
    "longitude": 44.51056
  },
  {
    "city": "Jéjé",
    "city_zh": "Jéjé",
    "country": "Comoros",
    "country_zh": "葛摩",
    "country_iso_code": "KM",
    "timezone": "Indian/Comoro",
    "latitude": -12.22333,
    "longitude": 44.5225
  },
  {
    "city": "Limbi",
    "city_zh": "Limbi",
    "country": "Comoros",
    "country_zh": "葛摩",
    "country_iso_code": "KM",
    "timezone": "Indian/Comoro",
    "latitude": -12.23944,
    "longitude": 44.50528
  },
  {
    "city": "Lingoni",
    "city_zh": "Lingoni",
    "country": "Comoros",
    "country_zh": "葛摩",
    "country_iso_code": "KM",
    "timezone": "Indian/Comoro",
    "latitude": -12.25583,
    "longitude": 44.41833
  },
  {
    "city": "Hamamboua",
    "city_zh": "Hamamboua",
    "country": "Comoros",
    "country_zh": "葛摩",
    "country_iso_code": "KM",
    "timezone": "Indian/Comoro",
    "latitude": -12.26556,
    "longitude": 44.39778
  },
  {
    "city": "Mbouéladoungou",
    "city_zh": "Mbouéladoungou",
    "country": "Comoros",
    "country_zh": "葛摩",
    "country_iso_code": "KM",
    "timezone": "Indian/Comoro",
    "latitude": -12.27444,
    "longitude": 44.52639
  },
  {
    "city": "Outsa",
    "city_zh": "Outsa",
    "country": "Comoros",
    "country_zh": "葛摩",
    "country_iso_code": "KM",
    "timezone": "Indian/Comoro",
    "latitude": -12.27861,
    "longitude": 44.49778
  },
  {
    "city": "Magnassini-Nindri",
    "city_zh": "Magnassini-Nindri",
    "country": "Comoros",
    "country_zh": "葛摩",
    "country_iso_code": "KM",
    "timezone": "Indian/Comoro",
    "latitude": -12.27806,
    "longitude": 44.41583
  },
  {
    "city": "Koué",
    "city_zh": "Koué",
    "country": "Comoros",
    "country_zh": "葛摩",
    "country_iso_code": "KM",
    "timezone": "Indian/Comoro",
    "latitude": -12.28222,
    "longitude": 44.41944
  },
  {
    "city": "Nkozini",
    "city_zh": "Nkozini",
    "country": "Comoros",
    "country_zh": "葛摩",
    "country_iso_code": "KM",
    "timezone": "Indian/Comoro",
    "latitude": -12.28889,
    "longitude": 44.43944
  },
  {
    "city": "Adda-Douéni",
    "city_zh": "Adda-Douéni",
    "country": "Comoros",
    "country_zh": "葛摩",
    "country_iso_code": "KM",
    "timezone": "Indian/Comoro",
    "latitude": -12.2925,
    "longitude": 44.49722
  },
  {
    "city": "Jandza",
    "city_zh": "Jandza",
    "country": "Comoros",
    "country_zh": "葛摩",
    "country_iso_code": "KM",
    "timezone": "Indian/Comoro",
    "latitude": -12.29917,
    "longitude": 44.49722
  },
  {
    "city": "Bandracouni",
    "city_zh": "Bandracouni",
    "country": "Comoros",
    "country_zh": "葛摩",
    "country_iso_code": "KM",
    "timezone": "Indian/Comoro",
    "latitude": -12.31306,
    "longitude": 44.49556
  },
  {
    "city": "Bandamaji",
    "city_zh": "Bandamaji",
    "country": "Comoros",
    "country_zh": "葛摩",
    "country_iso_code": "KM",
    "timezone": "Indian/Comoro",
    "latitude": -12.36222,
    "longitude": 44.52
  },
  {
    "city": "Mnazichoumoué",
    "city_zh": "Mnazichoumoué",
    "country": "Comoros",
    "country_zh": "葛摩",
    "country_iso_code": "KM",
    "timezone": "Indian/Comoro",
    "latitude": -12.3425,
    "longitude": 44.50194
  },
  {
    "city": "Daji",
    "city_zh": "Daji",
    "country": "Comoros",
    "country_zh": "葛摩",
    "country_iso_code": "KM",
    "timezone": "Indian/Comoro",
    "latitude": -12.32583,
    "longitude": 44.48861
  },
  {
    "city": "Chindrini",
    "city_zh": "Chindrini",
    "country": "Comoros",
    "country_zh": "葛摩",
    "country_iso_code": "KM",
    "timezone": "Indian/Comoro",
    "latitude": -12.31694,
    "longitude": 44.46306
  },
  {
    "city": "Maouéni",
    "city_zh": "Maouéni",
    "country": "Comoros",
    "country_zh": "葛摩",
    "country_iso_code": "KM",
    "timezone": "Indian/Comoro",
    "latitude": -12.31948,
    "longitude": 44.45688
  },
  {
    "city": "Bouijou",
    "city_zh": "Bouijou",
    "country": "Comoros",
    "country_zh": "葛摩",
    "country_iso_code": "KM",
    "timezone": "Indian/Comoro",
    "latitude": -12.35639,
    "longitude": 44.50306
  },
  {
    "city": "Salapouani",
    "city_zh": "Salapouani",
    "country": "Comoros",
    "country_zh": "葛摩",
    "country_iso_code": "KM",
    "timezone": "Indian/Comoro",
    "latitude": -12.37111,
    "longitude": 44.50694
  },
  {
    "city": "Trou du Prophète",
    "city_zh": "Trou du Prophète",
    "country": "Comoros",
    "country_zh": "葛摩",
    "country_iso_code": "KM",
    "timezone": "Indian/Comoro",
    "latitude": -11.37722,
    "longitude": 43.305
  },
  {
    "city": "Memboua Bouani",
    "city_zh": "Memboua Bouani",
    "country": "Comoros",
    "country_zh": "葛摩",
    "country_iso_code": "KM",
    "timezone": "Indian/Comoro",
    "latitude": -11.38056,
    "longitude": 43.30667
  },
  {
    "city": "Nkourani",
    "city_zh": "Nkourani",
    "country": "Comoros",
    "country_zh": "葛摩",
    "country_iso_code": "KM",
    "timezone": "Indian/Comoro",
    "latitude": -11.38972,
    "longitude": 43.28806
  },
  {
    "city": "Songomani",
    "city_zh": "Songomani",
    "country": "Comoros",
    "country_zh": "葛摩",
    "country_iso_code": "KM",
    "timezone": "Indian/Comoro",
    "latitude": -11.39222,
    "longitude": 43.29083
  },
  {
    "city": "Bangouamafsakoa",
    "city_zh": "Bangouamafsakoa",
    "country": "Comoros",
    "country_zh": "葛摩",
    "country_iso_code": "KM",
    "timezone": "Indian/Comoro",
    "latitude": -11.39639,
    "longitude": 43.29389
  },
  {
    "city": "Ntsadjéni",
    "city_zh": "Ntsadjéni",
    "country": "Comoros",
    "country_zh": "葛摩",
    "country_iso_code": "KM",
    "timezone": "Indian/Comoro",
    "latitude": -11.39861,
    "longitude": 43.28472
  },
  {
    "city": "Fâssi",
    "city_zh": "Fâssi",
    "country": "Comoros",
    "country_zh": "葛摩",
    "country_iso_code": "KM",
    "timezone": "Indian/Comoro",
    "latitude": -11.39861,
    "longitude": 43.26806
  },
  {
    "city": "Ouhozi",
    "city_zh": "Ouhozi",
    "country": "Comoros",
    "country_zh": "葛摩",
    "country_iso_code": "KM",
    "timezone": "Indian/Comoro",
    "latitude": -11.405,
    "longitude": 43.28222
  },
  {
    "city": "Founga",
    "city_zh": "Founga",
    "country": "Comoros",
    "country_zh": "葛摩",
    "country_iso_code": "KM",
    "timezone": "Indian/Comoro",
    "latitude": -11.41194,
    "longitude": 43.28778
  },
  {
    "city": "Anihani",
    "city_zh": "Anihani",
    "country": "Comoros",
    "country_zh": "葛摩",
    "country_iso_code": "KM",
    "timezone": "Indian/Comoro",
    "latitude": -11.41083,
    "longitude": 43.29528
  },
  {
    "city": "Toyifa",
    "city_zh": "Toyifa",
    "country": "Comoros",
    "country_zh": "葛摩",
    "country_iso_code": "KM",
    "timezone": "Indian/Comoro",
    "latitude": -11.40528,
    "longitude": 43.30528
  },
  {
    "city": "Membouadjou",
    "city_zh": "Membouadjou",
    "country": "Comoros",
    "country_zh": "葛摩",
    "country_iso_code": "KM",
    "timezone": "Indian/Comoro",
    "latitude": -11.40028,
    "longitude": 43.31361
  },
  {
    "city": "Koua",
    "city_zh": "Koua",
    "country": "Comoros",
    "country_zh": "葛摩",
    "country_iso_code": "KM",
    "timezone": "Indian/Comoro",
    "latitude": -11.40222,
    "longitude": 43.33833
  },
  {
    "city": "Balsa",
    "city_zh": "Balsa",
    "country": "Comoros",
    "country_zh": "葛摩",
    "country_iso_code": "KM",
    "timezone": "Indian/Comoro",
    "latitude": -11.39804,
    "longitude": 43.37209
  },
  {
    "city": "Ouzio",
    "city_zh": "Ouzio",
    "country": "Comoros",
    "country_zh": "葛摩",
    "country_iso_code": "KM",
    "timezone": "Indian/Comoro",
    "latitude": -11.40364,
    "longitude": 43.37565
  },
  {
    "city": "Ndroudé",
    "city_zh": "Ndroudé",
    "country": "Comoros",
    "country_zh": "葛摩",
    "country_iso_code": "KM",
    "timezone": "Indian/Comoro",
    "latitude": -11.42143,
    "longitude": 43.40921
  },
  {
    "city": "Mrouadjou",
    "city_zh": "Mrouadjou",
    "country": "Comoros",
    "country_zh": "葛摩",
    "country_iso_code": "KM",
    "timezone": "Indian/Comoro",
    "latitude": -11.41333,
    "longitude": 43.38056
  },
  {
    "city": "Massihini",
    "city_zh": "Massihini",
    "country": "Comoros",
    "country_zh": "葛摩",
    "country_iso_code": "KM",
    "timezone": "Indian/Comoro",
    "latitude": -11.41833,
    "longitude": 43.38278
  },
  {
    "city": "Salimani",
    "city_zh": "Salimani",
    "country": "Comoros",
    "country_zh": "葛摩",
    "country_iso_code": "KM",
    "timezone": "Indian/Comoro",
    "latitude": -11.42,
    "longitude": 43.38306
  },
  {
    "city": "Bandamadji",
    "city_zh": "Bandamadji",
    "country": "Comoros",
    "country_zh": "葛摩",
    "country_iso_code": "KM",
    "timezone": "Indian/Comoro",
    "latitude": -11.41833,
    "longitude": 43.38222
  },
  {
    "city": "Maoré",
    "city_zh": "Maoré",
    "country": "Comoros",
    "country_zh": "葛摩",
    "country_iso_code": "KM",
    "timezone": "Indian/Comoro",
    "latitude": -11.42111,
    "longitude": 43.38417
  },
  {
    "city": "Mandza",
    "city_zh": "Mandza",
    "country": "Comoros",
    "country_zh": "葛摩",
    "country_iso_code": "KM",
    "timezone": "Indian/Comoro",
    "latitude": -11.41806,
    "longitude": 43.29528
  },
  {
    "city": "Douniani",
    "city_zh": "Douniani",
    "country": "Comoros",
    "country_zh": "葛摩",
    "country_iso_code": "KM",
    "timezone": "Indian/Comoro",
    "latitude": -11.42111,
    "longitude": 43.28889
  },
  {
    "city": "Koua",
    "city_zh": "Koua",
    "country": "Comoros",
    "country_zh": "葛摩",
    "country_iso_code": "KM",
    "timezone": "Indian/Comoro",
    "latitude": -11.40514,
    "longitude": 43.34713
  },
  {
    "city": "Mchénazi",
    "city_zh": "Mchénazi",
    "country": "Comoros",
    "country_zh": "葛摩",
    "country_iso_code": "KM",
    "timezone": "Indian/Comoro",
    "latitude": -11.43028,
    "longitude": 43.26778
  },
  {
    "city": "Zouda",
    "city_zh": "Zouda",
    "country": "Comoros",
    "country_zh": "葛摩",
    "country_iso_code": "KM",
    "timezone": "Indian/Comoro",
    "latitude": -11.43,
    "longitude": 43.29833
  },
  {
    "city": "Haïgnandrama",
    "city_zh": "Haïgnandrama",
    "country": "Comoros",
    "country_zh": "葛摩",
    "country_iso_code": "KM",
    "timezone": "Indian/Comoro",
    "latitude": -11.44222,
    "longitude": 43.29361
  },
  {
    "city": "Hantsindzi",
    "city_zh": "Hantsindzi",
    "country": "Comoros",
    "country_zh": "葛摩",
    "country_iso_code": "KM",
    "timezone": "Indian/Comoro",
    "latitude": -11.43178,
    "longitude": 43.41102
  },
  {
    "city": "Nioumamilina",
    "city_zh": "Nioumamilina",
    "country": "Comoros",
    "country_zh": "葛摩",
    "country_iso_code": "KM",
    "timezone": "Indian/Comoro",
    "latitude": -11.44297,
    "longitude": 43.40479
  },
  {
    "city": "Minoungouni",
    "city_zh": "Minoungouni",
    "country": "Comoros",
    "country_zh": "葛摩",
    "country_iso_code": "KM",
    "timezone": "Indian/Comoro",
    "latitude": -11.44167,
    "longitude": 43.30167
  },
  {
    "city": "Manda",
    "city_zh": "Manda",
    "country": "Comoros",
    "country_zh": "葛摩",
    "country_iso_code": "KM",
    "timezone": "Indian/Comoro",
    "latitude": -11.44972,
    "longitude": 43.29194
  },
  {
    "city": "Miréréni",
    "city_zh": "Miréréni",
    "country": "Comoros",
    "country_zh": "葛摩",
    "country_iso_code": "KM",
    "timezone": "Indian/Comoro",
    "latitude": -11.4475,
    "longitude": 43.27694
  },
  {
    "city": "Chamle",
    "city_zh": "Chamle",
    "country": "Comoros",
    "country_zh": "葛摩",
    "country_iso_code": "KM",
    "timezone": "Indian/Comoro",
    "latitude": -11.44472,
    "longitude": 43.26694
  },
  {
    "city": "Djoengoé",
    "city_zh": "Djoengoé",
    "country": "Comoros",
    "country_zh": "葛摩",
    "country_iso_code": "KM",
    "timezone": "Indian/Comoro",
    "latitude": -11.46361,
    "longitude": 43.27778
  },
  {
    "city": "Simboussa",
    "city_zh": "Simboussa",
    "country": "Comoros",
    "country_zh": "葛摩",
    "country_iso_code": "KM",
    "timezone": "Indian/Comoro",
    "latitude": -11.46806,
    "longitude": 43.27778
  },
  {
    "city": "Mouadja",
    "city_zh": "Mouadja",
    "country": "Comoros",
    "country_zh": "葛摩",
    "country_iso_code": "KM",
    "timezone": "Indian/Comoro",
    "latitude": -11.46806,
    "longitude": 43.28694
  },
  {
    "city": "Founga",
    "city_zh": "Founga",
    "country": "Comoros",
    "country_zh": "葛摩",
    "country_iso_code": "KM",
    "timezone": "Indian/Comoro",
    "latitude": -11.47194,
    "longitude": 43.295
  },
  {
    "city": "Maouéni",
    "city_zh": "Maouéni",
    "country": "Comoros",
    "country_zh": "葛摩",
    "country_iso_code": "KM",
    "timezone": "Indian/Comoro",
    "latitude": -11.46333,
    "longitude": 43.31611
  },
  {
    "city": "Dimadjou",
    "city_zh": "Dimadjou",
    "country": "Comoros",
    "country_zh": "葛摩",
    "country_iso_code": "KM",
    "timezone": "Indian/Comoro",
    "latitude": -11.47361,
    "longitude": 43.36444
  },
  {
    "city": "Mbatsé",
    "city_zh": "Mbatsé",
    "country": "Comoros",
    "country_zh": "葛摩",
    "country_iso_code": "KM",
    "timezone": "Indian/Comoro",
    "latitude": -11.45667,
    "longitude": 43.39167
  },
  {
    "city": "Mouadja",
    "city_zh": "Mouadja",
    "country": "Comoros",
    "country_zh": "葛摩",
    "country_iso_code": "KM",
    "timezone": "Indian/Comoro",
    "latitude": -11.46333,
    "longitude": 43.37917
  },
  {
    "city": "Ngolé",
    "city_zh": "Ngolé",
    "country": "Comoros",
    "country_zh": "葛摩",
    "country_iso_code": "KM",
    "timezone": "Indian/Comoro",
    "latitude": -11.46528,
    "longitude": 43.38806
  },
  {
    "city": "Niadoumbouéni",
    "city_zh": "Niadoumbouéni",
    "country": "Comoros",
    "country_zh": "葛摩",
    "country_iso_code": "KM",
    "timezone": "Indian/Comoro",
    "latitude": -11.46778,
    "longitude": 43.37667
  },
  {
    "city": "Itsandzéni",
    "city_zh": "Itsandzéni",
    "country": "Comoros",
    "country_zh": "葛摩",
    "country_iso_code": "KM",
    "timezone": "Indian/Comoro",
    "latitude": -11.47278,
    "longitude": 43.38444
  },
  {
    "city": "Ouéla",
    "city_zh": "Ouéla",
    "country": "Comoros",
    "country_zh": "葛摩",
    "country_iso_code": "KM",
    "timezone": "Indian/Comoro",
    "latitude": -11.475,
    "longitude": 43.39278
  },
  {
    "city": "Bambadjani",
    "city_zh": "Bambadjani",
    "country": "Comoros",
    "country_zh": "葛摩",
    "country_iso_code": "KM",
    "timezone": "Indian/Comoro",
    "latitude": -11.47861,
    "longitude": 43.37722
  },
  {
    "city": "Mdjibari",
    "city_zh": "Mdjibari",
    "country": "Comoros",
    "country_zh": "葛摩",
    "country_iso_code": "KM",
    "timezone": "Indian/Comoro",
    "latitude": -11.48389,
    "longitude": 43.37333
  },
  {
    "city": "Domoni Adjou",
    "city_zh": "Domoni Adjou",
    "country": "Comoros",
    "country_zh": "葛摩",
    "country_iso_code": "KM",
    "timezone": "Indian/Comoro",
    "latitude": -11.48361,
    "longitude": 43.27778
  },
  {
    "city": "Domoni Ambouani",
    "city_zh": "Domoni Ambouani",
    "country": "Comoros",
    "country_zh": "葛摩",
    "country_iso_code": "KM",
    "timezone": "Indian/Comoro",
    "latitude": -11.48806,
    "longitude": 43.26889
  },
  {
    "city": "Batou",
    "city_zh": "Batou",
    "country": "Comoros",
    "country_zh": "葛摩",
    "country_iso_code": "KM",
    "timezone": "Indian/Comoro",
    "latitude": -11.49861,
    "longitude": 43.3575
  },
  {
    "city": "Touaïfa",
    "city_zh": "Touaïfa",
    "country": "Comoros",
    "country_zh": "葛摩",
    "country_iso_code": "KM",
    "timezone": "Indian/Comoro",
    "latitude": -11.4975,
    "longitude": 43.3575
  },
  {
    "city": "Kourani",
    "city_zh": "Kourani",
    "country": "Comoros",
    "country_zh": "葛摩",
    "country_iso_code": "KM",
    "timezone": "Indian/Comoro",
    "latitude": -11.49361,
    "longitude": 43.36833
  },
  {
    "city": "Sada Mouamboua",
    "city_zh": "Sada Mouamboua",
    "country": "Comoros",
    "country_zh": "葛摩",
    "country_iso_code": "KM",
    "timezone": "Indian/Comoro",
    "latitude": -11.49556,
    "longitude": 43.37167
  },
  {
    "city": "Séléyani",
    "city_zh": "Séléyani",
    "country": "Comoros",
    "country_zh": "葛摩",
    "country_iso_code": "KM",
    "timezone": "Indian/Comoro",
    "latitude": -11.49944,
    "longitude": 43.39028
  },
  {
    "city": "Salémani",
    "city_zh": "Salémani",
    "country": "Comoros",
    "country_zh": "葛摩",
    "country_iso_code": "KM",
    "timezone": "Indian/Comoro",
    "latitude": -11.50861,
    "longitude": 43.37778
  },
  {
    "city": "Sada-Chihoué",
    "city_zh": "Sada-Chihoué",
    "country": "Comoros",
    "country_zh": "葛摩",
    "country_iso_code": "KM",
    "timezone": "Indian/Comoro",
    "latitude": -11.50944,
    "longitude": 43.37611
  },
  {
    "city": "Mnoungou",
    "city_zh": "Mnoungou",
    "country": "Comoros",
    "country_zh": "葛摩",
    "country_iso_code": "KM",
    "timezone": "Indian/Comoro",
    "latitude": -11.51778,
    "longitude": 43.37389
  },
  {
    "city": "Mbaléni",
    "city_zh": "Mbaléni",
    "country": "Comoros",
    "country_zh": "葛摩",
    "country_iso_code": "KM",
    "timezone": "Indian/Comoro",
    "latitude": -11.55,
    "longitude": 43.27417
  },
  {
    "city": "Kangalinda",
    "city_zh": "Kangalinda",
    "country": "Comoros",
    "country_zh": "葛摩",
    "country_iso_code": "KM",
    "timezone": "Indian/Comoro",
    "latitude": -11.53806,
    "longitude": 43.38861
  },
  {
    "city": "Dzahadjou",
    "city_zh": "Dzahadjou",
    "country": "Comoros",
    "country_zh": "葛摩",
    "country_iso_code": "KM",
    "timezone": "Indian/Comoro",
    "latitude": -11.55278,
    "longitude": 43.31167
  },
  {
    "city": "Bouenindi",
    "city_zh": "Bouenindi",
    "country": "Comoros",
    "country_zh": "葛摩",
    "country_iso_code": "KM",
    "timezone": "Indian/Comoro",
    "latitude": -11.56568,
    "longitude": 43.28725
  },
  {
    "city": "Bibavou",
    "city_zh": "Bibavou",
    "country": "Comoros",
    "country_zh": "葛摩",
    "country_iso_code": "KM",
    "timezone": "Indian/Comoro",
    "latitude": -11.57916,
    "longitude": 43.28776
  },
  {
    "city": "Bangahani",
    "city_zh": "Bangahani",
    "country": "Comoros",
    "country_zh": "葛摩",
    "country_iso_code": "KM",
    "timezone": "Indian/Comoro",
    "latitude": -11.58,
    "longitude": 43.27917
  },
  {
    "city": "Dzaheni",
    "city_zh": "Dzaheni",
    "country": "Comoros",
    "country_zh": "葛摩",
    "country_iso_code": "KM",
    "timezone": "Indian/Comoro",
    "latitude": -11.5825,
    "longitude": 43.3625
  },
  {
    "city": "Vounambadani",
    "city_zh": "Vounambadani",
    "country": "Comoros",
    "country_zh": "葛摩",
    "country_iso_code": "KM",
    "timezone": "Indian/Comoro",
    "latitude": -11.61083,
    "longitude": 43.26222
  },
  {
    "city": "Vanadjou",
    "city_zh": "Vanadjou",
    "country": "Comoros",
    "country_zh": "葛摩",
    "country_iso_code": "KM",
    "timezone": "Indian/Comoro",
    "latitude": -11.6075,
    "longitude": 43.27611
  },
  {
    "city": "Hassendjé",
    "city_zh": "Hassendjé",
    "country": "Comoros",
    "country_zh": "葛摩",
    "country_iso_code": "KM",
    "timezone": "Indian/Comoro",
    "latitude": -11.61778,
    "longitude": 43.38222
  },
  {
    "city": "Sima",
    "city_zh": "Sima",
    "country": "Comoros",
    "country_zh": "葛摩",
    "country_iso_code": "KM",
    "timezone": "Indian/Comoro",
    "latitude": -11.61,
    "longitude": 43.37028
  },
  {
    "city": "Batsa",
    "city_zh": "Batsa",
    "country": "Comoros",
    "country_zh": "葛摩",
    "country_iso_code": "KM",
    "timezone": "Indian/Comoro",
    "latitude": -11.62833,
    "longitude": 43.26
  },
  {
    "city": "Dzahadjou",
    "city_zh": "Dzahadjou",
    "country": "Comoros",
    "country_zh": "葛摩",
    "country_iso_code": "KM",
    "timezone": "Indian/Comoro",
    "latitude": -11.62639,
    "longitude": 43.27472
  },
  {
    "city": "Bouéni",
    "city_zh": "Bouéni",
    "country": "Comoros",
    "country_zh": "葛摩",
    "country_iso_code": "KM",
    "timezone": "Indian/Comoro",
    "latitude": -11.63083,
    "longitude": 43.3525
  },
  {
    "city": "Sada",
    "city_zh": "Sada",
    "country": "Comoros",
    "country_zh": "葛摩",
    "country_iso_code": "KM",
    "timezone": "Indian/Comoro",
    "latitude": -11.63194,
    "longitude": 43.35778
  },
  {
    "city": "Sadani",
    "city_zh": "Sadani",
    "country": "Comoros",
    "country_zh": "葛摩",
    "country_iso_code": "KM",
    "timezone": "Indian/Comoro",
    "latitude": -11.62472,
    "longitude": 43.36139
  },
  {
    "city": "Irouhé",
    "city_zh": "Irouhé",
    "country": "Comoros",
    "country_zh": "葛摩",
    "country_iso_code": "KM",
    "timezone": "Indian/Comoro",
    "latitude": -11.63306,
    "longitude": 43.35222
  },
  {
    "city": "Dzahadjou",
    "city_zh": "Dzahadjou",
    "country": "Comoros",
    "country_zh": "葛摩",
    "country_iso_code": "KM",
    "timezone": "Indian/Comoro",
    "latitude": -11.64583,
    "longitude": 43.35972
  },
  {
    "city": "Bahani",
    "city_zh": "Bahani",
    "country": "Comoros",
    "country_zh": "葛摩",
    "country_iso_code": "KM",
    "timezone": "Indian/Comoro",
    "latitude": -11.63972,
    "longitude": 43.28417
  },
  {
    "city": "Sima",
    "city_zh": "Sima",
    "country": "Comoros",
    "country_zh": "葛摩",
    "country_iso_code": "KM",
    "timezone": "Indian/Comoro",
    "latitude": -11.645,
    "longitude": 43.28361
  },
  {
    "city": "Zivandani",
    "city_zh": "Zivandani",
    "country": "Comoros",
    "country_zh": "葛摩",
    "country_iso_code": "KM",
    "timezone": "Indian/Comoro",
    "latitude": -11.64583,
    "longitude": 43.26583
  },
  {
    "city": "Vouadjou",
    "city_zh": "Vouadjou",
    "country": "Comoros",
    "country_zh": "葛摩",
    "country_iso_code": "KM",
    "timezone": "Indian/Comoro",
    "latitude": -11.63694,
    "longitude": 43.25444
  },
  {
    "city": "Sambakouni",
    "city_zh": "Sambakouni",
    "country": "Comoros",
    "country_zh": "葛摩",
    "country_iso_code": "KM",
    "timezone": "Indian/Comoro",
    "latitude": -11.64806,
    "longitude": 43.27361
  },
  {
    "city": "Gouni",
    "city_zh": "Gouni",
    "country": "Comoros",
    "country_zh": "葛摩",
    "country_iso_code": "KM",
    "timezone": "Indian/Comoro",
    "latitude": -11.65361,
    "longitude": 43.25667
  },
  {
    "city": "Hantsambou",
    "city_zh": "Hantsambou",
    "country": "Comoros",
    "country_zh": "葛摩",
    "country_iso_code": "KM",
    "timezone": "Indian/Comoro",
    "latitude": -11.66395,
    "longitude": 43.26569
  },
  {
    "city": "Milembéni",
    "city_zh": "Milembéni",
    "country": "Comoros",
    "country_zh": "葛摩",
    "country_iso_code": "KM",
    "timezone": "Indian/Comoro",
    "latitude": -11.66167,
    "longitude": 43.26639
  },
  {
    "city": "Bandamadji",
    "city_zh": "Bandamadji",
    "country": "Comoros",
    "country_zh": "葛摩",
    "country_iso_code": "KM",
    "timezone": "Indian/Comoro",
    "latitude": -11.66611,
    "longitude": 43.26028
  },
  {
    "city": "Samba",
    "city_zh": "Samba",
    "country": "Comoros",
    "country_zh": "葛摩",
    "country_iso_code": "KM",
    "timezone": "Indian/Comoro",
    "latitude": -11.66833,
    "longitude": 43.26889
  },
  {
    "city": "Minassini",
    "city_zh": "Minassini",
    "country": "Comoros",
    "country_zh": "葛摩",
    "country_iso_code": "KM",
    "timezone": "Indian/Comoro",
    "latitude": -11.66278,
    "longitude": 43.27333
  },
  {
    "city": "Dzahani",
    "city_zh": "Dzahani",
    "country": "Comoros",
    "country_zh": "葛摩",
    "country_iso_code": "KM",
    "timezone": "Indian/Comoro",
    "latitude": -11.65722,
    "longitude": 43.27556
  },
  {
    "city": "Wela",
    "city_zh": "Wela",
    "country": "Comoros",
    "country_zh": "葛摩",
    "country_iso_code": "KM",
    "timezone": "Indian/Comoro",
    "latitude": -11.65361,
    "longitude": 43.28056
  },
  {
    "city": "Chamro",
    "city_zh": "Chamro",
    "country": "Comoros",
    "country_zh": "葛摩",
    "country_iso_code": "KM",
    "timezone": "Indian/Comoro",
    "latitude": -11.65444,
    "longitude": 43.39139
  },
  {
    "city": "Sidjou",
    "city_zh": "Sidjou",
    "country": "Comoros",
    "country_zh": "葛摩",
    "country_iso_code": "KM",
    "timezone": "Indian/Comoro",
    "latitude": -11.67139,
    "longitude": 43.405
  },
  {
    "city": "Ntsoralé",
    "city_zh": "Ntsoralé",
    "country": "Comoros",
    "country_zh": "葛摩",
    "country_iso_code": "KM",
    "timezone": "Indian/Comoro",
    "latitude": -11.68667,
    "longitude": 43.405
  },
  {
    "city": "Mdé",
    "city_zh": "Mdé",
    "country": "Comoros",
    "country_zh": "葛摩",
    "country_iso_code": "KM",
    "timezone": "Indian/Comoro",
    "latitude": -11.67167,
    "longitude": 43.27389
  },
  {
    "city": "Dimadjou",
    "city_zh": "Dimadjou",
    "country": "Comoros",
    "country_zh": "葛摩",
    "country_iso_code": "KM",
    "timezone": "Indian/Comoro",
    "latitude": -11.67306,
    "longitude": 43.27528
  },
  {
    "city": "Itsambouni",
    "city_zh": "Itsambouni",
    "country": "Comoros",
    "country_zh": "葛摩",
    "country_iso_code": "KM",
    "timezone": "Indian/Comoro",
    "latitude": -11.67861,
    "longitude": 43.26361
  },
  {
    "city": "Salimani",
    "city_zh": "Salimani",
    "country": "Comoros",
    "country_zh": "葛摩",
    "country_iso_code": "KM",
    "timezone": "Indian/Comoro",
    "latitude": -11.68415,
    "longitude": 43.27504
  },
  {
    "city": "Tsidjé",
    "city_zh": "Tsidjé",
    "country": "Comoros",
    "country_zh": "葛摩",
    "country_iso_code": "KM",
    "timezone": "Indian/Comoro",
    "latitude": -11.70137,
    "longitude": 43.27057
  },
  {
    "city": "Foumboudzivouni",
    "city_zh": "Foumboudzivouni",
    "country": "Comoros",
    "country_zh": "葛摩",
    "country_iso_code": "KM",
    "timezone": "Indian/Comoro",
    "latitude": -11.70583,
    "longitude": 43.42417
  },
  {
    "city": "Tsangadjou",
    "city_zh": "Tsangadjou",
    "country": "Comoros",
    "country_zh": "葛摩",
    "country_iso_code": "KM",
    "timezone": "Indian/Comoro",
    "latitude": -11.715,
    "longitude": 43.425
  },
  {
    "city": "Idjouandradja",
    "city_zh": "Idjouandradja",
    "country": "Comoros",
    "country_zh": "葛摩",
    "country_iso_code": "KM",
    "timezone": "Indian/Comoro",
    "latitude": -11.72194,
    "longitude": 43.42667
  },
  {
    "city": "Mvouni",
    "city_zh": "Mvouni",
    "country": "Comoros",
    "country_zh": "葛摩",
    "country_iso_code": "KM",
    "timezone": "Indian/Comoro",
    "latitude": -11.71965,
    "longitude": 43.2752
  },
  {
    "city": "Daché",
    "city_zh": "Daché",
    "country": "Comoros",
    "country_zh": "葛摩",
    "country_iso_code": "KM",
    "timezone": "Indian/Comoro",
    "latitude": -11.7125,
    "longitude": 43.25139
  },
  {
    "city": "Mavingouni",
    "city_zh": "Mavingouni",
    "country": "Comoros",
    "country_zh": "葛摩",
    "country_iso_code": "KM",
    "timezone": "Indian/Comoro",
    "latitude": -11.71953,
    "longitude": 43.26233
  },
  {
    "city": "Itsambouni",
    "city_zh": "Itsambouni",
    "country": "Comoros",
    "country_zh": "葛摩",
    "country_iso_code": "KM",
    "timezone": "Indian/Comoro",
    "latitude": -11.72583,
    "longitude": 43.25528
  },
  {
    "city": "Sahani",
    "city_zh": "Sahani",
    "country": "Comoros",
    "country_zh": "葛摩",
    "country_iso_code": "KM",
    "timezone": "Indian/Comoro",
    "latitude": -11.72972,
    "longitude": 43.24361
  },
  {
    "city": "Mkazi",
    "city_zh": "Mkazi",
    "country": "Comoros",
    "country_zh": "葛摩",
    "country_iso_code": "KM",
    "timezone": "Indian/Comoro",
    "latitude": -11.73415,
    "longitude": 43.26622
  },
  {
    "city": "Djitaché",
    "city_zh": "Djitaché",
    "country": "Comoros",
    "country_zh": "葛摩",
    "country_iso_code": "KM",
    "timezone": "Indian/Comoro",
    "latitude": -11.75722,
    "longitude": 43.27861
  },
  {
    "city": "Vouvouni",
    "city_zh": "Vouvouni",
    "country": "Comoros",
    "country_zh": "葛摩",
    "country_iso_code": "KM",
    "timezone": "Indian/Comoro",
    "latitude": -11.75,
    "longitude": 43.24333
  },
  {
    "city": "Ikoni",
    "city_zh": "Ikoni",
    "country": "Comoros",
    "country_zh": "葛摩",
    "country_iso_code": "KM",
    "timezone": "Indian/Comoro",
    "latitude": -11.74487,
    "longitude": 43.2371
  },
  {
    "city": "Séréhini",
    "city_zh": "Séréhini",
    "country": "Comoros",
    "country_zh": "葛摩",
    "country_iso_code": "KM",
    "timezone": "Indian/Comoro",
    "latitude": -11.75639,
    "longitude": 43.23472
  },
  {
    "city": "Ndroini",
    "city_zh": "Ndroini",
    "country": "Comoros",
    "country_zh": "葛摩",
    "country_iso_code": "KM",
    "timezone": "Indian/Comoro",
    "latitude": -11.76748,
    "longitude": 43.25345
  },
  {
    "city": "Mouandzaza Ambouani",
    "city_zh": "Mouandzaza Ambouani",
    "country": "Comoros",
    "country_zh": "葛摩",
    "country_iso_code": "KM",
    "timezone": "Indian/Comoro",
    "latitude": -11.77487,
    "longitude": 43.24371
  },
  {
    "city": "Daouéni",
    "city_zh": "Daouéni",
    "country": "Comoros",
    "country_zh": "葛摩",
    "country_iso_code": "KM",
    "timezone": "Indian/Comoro",
    "latitude": -11.7675,
    "longitude": 43.26361
  },
  {
    "city": "Boudé-Adjou",
    "city_zh": "Boudé-Adjou",
    "country": "Comoros",
    "country_zh": "葛摩",
    "country_iso_code": "KM",
    "timezone": "Indian/Comoro",
    "latitude": -11.77139,
    "longitude": 43.265
  },
  {
    "city": "Mouandzaza Djoumbé",
    "city_zh": "Mouandzaza Djoumbé",
    "country": "Comoros",
    "country_zh": "葛摩",
    "country_iso_code": "KM",
    "timezone": "Indian/Comoro",
    "latitude": -11.7771,
    "longitude": 43.2647
  },
  {
    "city": "Oungoni",
    "city_zh": "Oungoni",
    "country": "Comoros",
    "country_zh": "葛摩",
    "country_iso_code": "KM",
    "timezone": "Indian/Comoro",
    "latitude": -11.75444,
    "longitude": 43.43611
  },
  {
    "city": "Banda Daouéni",
    "city_zh": "Banda Daouéni",
    "country": "Comoros",
    "country_zh": "葛摩",
    "country_iso_code": "KM",
    "timezone": "Indian/Comoro",
    "latitude": -11.7725,
    "longitude": 43.43861
  },
  {
    "city": "Mahavani",
    "city_zh": "Mahavani",
    "country": "Comoros",
    "country_zh": "葛摩",
    "country_iso_code": "KM",
    "timezone": "Indian/Comoro",
    "latitude": -11.78722,
    "longitude": 43.42472
  },
  {
    "city": "Séléa",
    "city_zh": "Séléa",
    "country": "Comoros",
    "country_zh": "葛摩",
    "country_iso_code": "KM",
    "timezone": "Indian/Comoro",
    "latitude": -11.78756,
    "longitude": 43.27036
  },
  {
    "city": "Nioumadzaha",
    "city_zh": "Nioumadzaha",
    "country": "Comoros",
    "country_zh": "葛摩",
    "country_iso_code": "KM",
    "timezone": "Indian/Comoro",
    "latitude": -11.79449,
    "longitude": 43.27602
  },
  {
    "city": "Tsinimouapanga",
    "city_zh": "Tsinimouapanga",
    "country": "Comoros",
    "country_zh": "葛摩",
    "country_iso_code": "KM",
    "timezone": "Indian/Comoro",
    "latitude": -11.79714,
    "longitude": 43.43552
  },
  {
    "city": "Mrondadjou",
    "city_zh": "Mrondadjou",
    "country": "Comoros",
    "country_zh": "葛摩",
    "country_iso_code": "KM",
    "timezone": "Indian/Comoro",
    "latitude": -11.79556,
    "longitude": 43.42611
  },
  {
    "city": "Itsangoué",
    "city_zh": "Itsangoué",
    "country": "Comoros",
    "country_zh": "葛摩",
    "country_iso_code": "KM",
    "timezone": "Indian/Comoro",
    "latitude": -11.81028,
    "longitude": 43.44278
  },
  {
    "city": "Komioni",
    "city_zh": "Komioni",
    "country": "Comoros",
    "country_zh": "葛摩",
    "country_iso_code": "KM",
    "timezone": "Indian/Comoro",
    "latitude": -11.80722,
    "longitude": 43.28083
  },
  {
    "city": "Djoumouachongo",
    "city_zh": "Djoumouachongo",
    "country": "Comoros",
    "country_zh": "葛摩",
    "country_iso_code": "KM",
    "timezone": "Indian/Comoro",
    "latitude": -11.80979,
    "longitude": 43.2951
  },
  {
    "city": "Magaridjou",
    "city_zh": "Magaridjou",
    "country": "Comoros",
    "country_zh": "葛摩",
    "country_iso_code": "KM",
    "timezone": "Indian/Comoro",
    "latitude": -11.80111,
    "longitude": 43.285
  },
  {
    "city": "Zikaledjou",
    "city_zh": "Zikaledjou",
    "country": "Comoros",
    "country_zh": "葛摩",
    "country_iso_code": "KM",
    "timezone": "Indian/Comoro",
    "latitude": -11.80222,
    "longitude": 43.26917
  },
  {
    "city": "Madjeouéni",
    "city_zh": "Madjeouéni",
    "country": "Comoros",
    "country_zh": "葛摩",
    "country_iso_code": "KM",
    "timezone": "Indian/Comoro",
    "latitude": -11.82167,
    "longitude": 43.27806
  },
  {
    "city": "Hamsaoua",
    "city_zh": "Hamsaoua",
    "country": "Comoros",
    "country_zh": "葛摩",
    "country_iso_code": "KM",
    "timezone": "Indian/Comoro",
    "latitude": -11.83139,
    "longitude": 43.28444
  },
  {
    "city": "Nioumamilima",
    "city_zh": "Nioumamilima",
    "country": "Comoros",
    "country_zh": "葛摩",
    "country_iso_code": "KM",
    "timezone": "Indian/Comoro",
    "latitude": -11.85461,
    "longitude": 43.44607
  },
  {
    "city": "Kourani",
    "city_zh": "Kourani",
    "country": "Comoros",
    "country_zh": "葛摩",
    "country_iso_code": "KM",
    "timezone": "Indian/Comoro",
    "latitude": -11.85068,
    "longitude": 43.42624
  },
  {
    "city": "Mdjoua Hahia",
    "city_zh": "Mdjoua Hahia",
    "country": "Comoros",
    "country_zh": "葛摩",
    "country_iso_code": "KM",
    "timezone": "Indian/Comoro",
    "latitude": -11.85556,
    "longitude": 43.38861
  },
  {
    "city": "Kanzilé",
    "city_zh": "Kanzilé",
    "country": "Comoros",
    "country_zh": "葛摩",
    "country_iso_code": "KM",
    "timezone": "Indian/Comoro",
    "latitude": -11.85895,
    "longitude": 43.39164
  },
  {
    "city": "Tsinimouachongo",
    "city_zh": "Tsinimouachongo",
    "country": "Comoros",
    "country_zh": "葛摩",
    "country_iso_code": "KM",
    "timezone": "Indian/Comoro",
    "latitude": -11.84993,
    "longitude": 43.37882
  },
  {
    "city": "Makorani",
    "city_zh": "Makorani",
    "country": "Comoros",
    "country_zh": "葛摩",
    "country_iso_code": "KM",
    "timezone": "Indian/Comoro",
    "latitude": -11.85111,
    "longitude": 43.35833
  },
  {
    "city": "Djivani",
    "city_zh": "Djivani",
    "country": "Comoros",
    "country_zh": "葛摩",
    "country_iso_code": "KM",
    "timezone": "Indian/Comoro",
    "latitude": -11.84917,
    "longitude": 43.3575
  },
  {
    "city": "Mbambani",
    "city_zh": "Mbambani",
    "country": "Comoros",
    "country_zh": "葛摩",
    "country_iso_code": "KM",
    "timezone": "Indian/Comoro",
    "latitude": -11.8524,
    "longitude": 43.3416
  },
  {
    "city": "Samba",
    "city_zh": "Samba",
    "country": "Comoros",
    "country_zh": "葛摩",
    "country_iso_code": "KM",
    "timezone": "Indian/Comoro",
    "latitude": -11.84722,
    "longitude": 43.32944
  },
  {
    "city": "Bangoua",
    "city_zh": "Bangoua",
    "country": "Comoros",
    "country_zh": "葛摩",
    "country_iso_code": "KM",
    "timezone": "Indian/Comoro",
    "latitude": -11.84221,
    "longitude": 43.29225
  },
  {
    "city": "Mdji Diakagnoa",
    "city_zh": "Mdji Diakagnoa",
    "country": "Comoros",
    "country_zh": "葛摩",
    "country_iso_code": "KM",
    "timezone": "Indian/Comoro",
    "latitude": -11.87889,
    "longitude": 43.40389
  },
  {
    "city": "Domoni",
    "city_zh": "Domoni",
    "country": "Comoros",
    "country_zh": "葛摩",
    "country_iso_code": "KM",
    "timezone": "Indian/Comoro",
    "latitude": -11.87869,
    "longitude": 43.41893
  },
  {
    "city": "Dzouadjou",
    "city_zh": "Dzouadjou",
    "country": "Comoros",
    "country_zh": "葛摩",
    "country_iso_code": "KM",
    "timezone": "Indian/Comoro",
    "latitude": -11.87694,
    "longitude": 43.42222
  },
  {
    "city": "Famaré",
    "city_zh": "Famaré",
    "country": "Comoros",
    "country_zh": "葛摩",
    "country_iso_code": "KM",
    "timezone": "Indian/Comoro",
    "latitude": -11.85861,
    "longitude": 43.42333
  },
  {
    "city": "Mlalouankoudjou",
    "city_zh": "Mlalouankoudjou",
    "country": "Comoros",
    "country_zh": "葛摩",
    "country_iso_code": "KM",
    "timezone": "Indian/Comoro",
    "latitude": -11.86528,
    "longitude": 43.45889
  },
  {
    "city": "Missouiri",
    "city_zh": "Missouiri",
    "country": "Comoros",
    "country_zh": "葛摩",
    "country_iso_code": "KM",
    "timezone": "Indian/Comoro",
    "latitude": -11.8525,
    "longitude": 43.47028
  },
  {
    "city": "Kové",
    "city_zh": "Kové",
    "country": "Comoros",
    "country_zh": "葛摩",
    "country_iso_code": "KM",
    "timezone": "Indian/Comoro",
    "latitude": -11.87583,
    "longitude": 43.47222
  },
  {
    "city": "Simboussa",
    "city_zh": "Simboussa",
    "country": "Comoros",
    "country_zh": "葛摩",
    "country_iso_code": "KM",
    "timezone": "Indian/Comoro",
    "latitude": -11.87944,
    "longitude": 43.45222
  },
  {
    "city": "Mindralou",
    "city_zh": "Mindralou",
    "country": "Comoros",
    "country_zh": "葛摩",
    "country_iso_code": "KM",
    "timezone": "Indian/Comoro",
    "latitude": -11.88,
    "longitude": 43.38917
  },
  {
    "city": "Ourondroni",
    "city_zh": "Ourondroni",
    "country": "Comoros",
    "country_zh": "葛摩",
    "country_iso_code": "KM",
    "timezone": "Indian/Comoro",
    "latitude": -11.88111,
    "longitude": 43.3925
  },
  {
    "city": "Mandzissani",
    "city_zh": "Mandzissani",
    "country": "Comoros",
    "country_zh": "葛摩",
    "country_iso_code": "KM",
    "timezone": "Indian/Comoro",
    "latitude": -11.88389,
    "longitude": 43.39667
  },
  {
    "city": "Mlimani",
    "city_zh": "Mlimani",
    "country": "Comoros",
    "country_zh": "葛摩",
    "country_iso_code": "KM",
    "timezone": "Indian/Comoro",
    "latitude": -11.88528,
    "longitude": 43.39889
  },
  {
    "city": "Ouziouani",
    "city_zh": "Ouziouani",
    "country": "Comoros",
    "country_zh": "葛摩",
    "country_iso_code": "KM",
    "timezone": "Indian/Comoro",
    "latitude": -11.88861,
    "longitude": 43.41528
  },
  {
    "city": "Dima",
    "city_zh": "Dima",
    "country": "Comoros",
    "country_zh": "葛摩",
    "country_iso_code": "KM",
    "timezone": "Indian/Comoro",
    "latitude": -11.88639,
    "longitude": 43.41083
  },
  {
    "city": "Kourani-Mkanga",
    "city_zh": "Kourani-Mkanga",
    "country": "Comoros",
    "country_zh": "葛摩",
    "country_iso_code": "KM",
    "timezone": "Indian/Comoro",
    "latitude": -11.88667,
    "longitude": 43.44417
  },
  {
    "city": "Bandamadji",
    "city_zh": "Bandamadji",
    "country": "Comoros",
    "country_zh": "葛摩",
    "country_iso_code": "KM",
    "timezone": "Indian/Comoro",
    "latitude": -11.8925,
    "longitude": 43.46111
  },
  {
    "city": "Inané",
    "city_zh": "Inané",
    "country": "Comoros",
    "country_zh": "葛摩",
    "country_iso_code": "KM",
    "timezone": "Indian/Comoro",
    "latitude": -11.88778,
    "longitude": 43.46611
  },
  {
    "city": "Ngnambéni",
    "city_zh": "Ngnambéni",
    "country": "Comoros",
    "country_zh": "葛摩",
    "country_iso_code": "KM",
    "timezone": "Indian/Comoro",
    "latitude": -11.89444,
    "longitude": 43.47056
  },
  {
    "city": "Didjoni",
    "city_zh": "Didjoni",
    "country": "Comoros",
    "country_zh": "葛摩",
    "country_iso_code": "KM",
    "timezone": "Indian/Comoro",
    "latitude": -11.88083,
    "longitude": 43.48111
  },
  {
    "city": "Ndzouani",
    "city_zh": "Ndzouani",
    "country": "Comoros",
    "country_zh": "葛摩",
    "country_iso_code": "KM",
    "timezone": "Indian/Comoro",
    "latitude": -11.90139,
    "longitude": 43.47722
  },
  {
    "city": "Midjendjéni",
    "city_zh": "Midjendjéni",
    "country": "Comoros",
    "country_zh": "葛摩",
    "country_iso_code": "KM",
    "timezone": "Indian/Comoro",
    "latitude": -11.91249,
    "longitude": 43.48495
  },
  {
    "city": "Sima Ambouani",
    "city_zh": "Sima Ambouani",
    "country": "Comoros",
    "country_zh": "葛摩",
    "country_iso_code": "KM",
    "timezone": "Indian/Comoro",
    "latitude": -11.91556,
    "longitude": 43.46167
  },
  {
    "city": "Hada-Haïa",
    "city_zh": "Hada-Haïa",
    "country": "Comoros",
    "country_zh": "葛摩",
    "country_iso_code": "KM",
    "timezone": "Indian/Comoro",
    "latitude": -11.90972,
    "longitude": 43.45278
  },
  {
    "city": "Sima Oichili",
    "city_zh": "Sima Oichili",
    "country": "Comoros",
    "country_zh": "葛摩",
    "country_iso_code": "KM",
    "timezone": "Indian/Comoro",
    "latitude": -11.61428,
    "longitude": 43.3808
  }
]