[
  {
    "city": "Tumaseu Village",
    "city_zh": "Tumaseu Village",
    "country": "Tuvalu",
    "country_zh": "吐瓦魯",
    "country_iso_code": "TV",
    "timezone": "Pacific/Funafuti",
    "latitude": -7.48784,
    "longitude": 178.67942
  },
  {
    "city": "Toga Village",
    "city_zh": "Toga Village",
    "country": "Tuvalu",
    "country_zh": "吐瓦魯",
    "country_iso_code": "TV",
    "timezone": "Pacific/Funafuti",
    "latitude": -6.28764,
    "longitude": 176.31472
  },
  {
    "city": "Tanrake Village",
    "city_zh": "Tanrake Village",
    "country": "Tuvalu",
    "country_zh": "吐瓦魯",
    "country_iso_code": "TV",
    "timezone": "Pacific/Funafuti",
    "latitude": -7.24562,
    "longitude": 177.14511
  },
  {
    "city": "Temotu Village",
    "city_zh": "Temotu Village",
    "country": "Tuvalu",
    "country_zh": "吐瓦魯",
    "country_iso_code": "TV",
    "timezone": "Pacific/Funafuti",
    "latitude": -7.46168,
    "longitude": 178.66748
  },
  {
    "city": "Funafala Village",
    "city_zh": "Funafala Village",
    "country": "Tuvalu",
    "country_zh": "吐瓦魯",
    "country_iso_code": "TV",
    "timezone": "Pacific/Funafuti",
    "latitude": -8.62975,
    "longitude": 179.10066
  },
  {
    "city": "Kulia Village",
    "city_zh": "Kulia Village",
    "country": "Tuvalu",
    "country_zh": "吐瓦魯",
    "country_iso_code": "TV",
    "timezone": "Pacific/Funafuti",
    "latitude": -6.10819,
    "longitude": 177.33393
  },
  {
    "city": "Amatuku Village",
    "city_zh": "Amatuku Village",
    "country": "Tuvalu",
    "country_zh": "吐瓦魯",
    "country_iso_code": "TV",
    "timezone": "Pacific/Funafuti",
    "latitude": -8.4379,
    "longitude": 179.17031
  },
  {
    "city": "Funafuti",
    "city_zh": "Funafuti",
    "country": "Tuvalu",
    "country_zh": "吐瓦魯",
    "country_iso_code": "TV",
    "timezone": "Pacific/Funafuti",
    "latitude": -8.52425,
    "longitude": 179.19417
  },
  {
    "city": "Tekavatoetoe Village",
    "city_zh": "Tekavatoetoe Village",
    "country": "Tuvalu",
    "country_zh": "吐瓦魯",
    "country_iso_code": "TV",
    "timezone": "Pacific/Funafuti",
    "latitude": -8.53493,
    "longitude": 179.18554
  },
  {
    "city": "Asau Village",
    "city_zh": "Asau Village",
    "country": "Tuvalu",
    "country_zh": "吐瓦魯",
    "country_iso_code": "TV",
    "timezone": "Pacific/Funafuti",
    "latitude": -7.49026,
    "longitude": 178.68016
  },
  {
    "city": "Vaiaku Village",
    "city_zh": "Vaiaku Village",
    "country": "Tuvalu",
    "country_zh": "吐瓦魯",
    "country_iso_code": "TV",
    "timezone": "Pacific/Funafuti",
    "latitude": -8.52544,
    "longitude": 179.1941
  },
  {
    "city": "Niulakita",
    "city_zh": "Niulakita",
    "country": "Tuvalu",
    "country_zh": "吐瓦魯",
    "country_iso_code": "TV",
    "timezone": "Pacific/Funafuti",
    "latitude": -10.791,
    "longitude": 179.4667
  },
  {
    "city": "Nukualofa Village",
    "city_zh": "Nukualofa Village",
    "country": "Tuvalu",
    "country_zh": "吐瓦魯",
    "country_iso_code": "TV",
    "timezone": "Pacific/Funafuti",
    "latitude": -9.37058,
    "longitude": 179.80785
  },
  {
    "city": "Pepesala Village",
    "city_zh": "Pepesala Village",
    "country": "Tuvalu",
    "country_zh": "吐瓦魯",
    "country_iso_code": "TV",
    "timezone": "Pacific/Funafuti",
    "latitude": -9.37322,
    "longitude": 179.80917
  },
  {
    "city": "Displaced Atoll Population During WW2",
    "city_zh": "Displaced Atoll Population During WW2",
    "country": "Tuvalu",
    "country_zh": "吐瓦魯",
    "country_iso_code": "TV",
    "timezone": "Pacific/Funafuti",
    "latitude": -5.65262,
    "longitude": 176.07716
  },
  {
    "city": "Lolua Village",
    "city_zh": "Lolua Village",
    "country": "Tuvalu",
    "country_zh": "吐瓦魯",
    "country_iso_code": "TV",
    "timezone": "Pacific/Funafuti",
    "latitude": -5.67398,
    "longitude": 176.11515
  },
  {
    "city": "Hauma Village",
    "city_zh": "Hauma Village",
    "country": "Tuvalu",
    "country_zh": "吐瓦魯",
    "country_iso_code": "TV",
    "timezone": "Pacific/Funafuti",
    "latitude": -5.67586,
    "longitude": 176.11693
  },
  {
    "city": "Tokelau Village",
    "city_zh": "Tokelau Village",
    "country": "Tuvalu",
    "country_zh": "吐瓦魯",
    "country_iso_code": "TV",
    "timezone": "Pacific/Funafuti",
    "latitude": -6.28536,
    "longitude": 176.31534
  },
  {
    "city": "Teava Village",
    "city_zh": "Teava Village",
    "country": "Tuvalu",
    "country_zh": "吐瓦魯",
    "country_iso_code": "TV",
    "timezone": "Pacific/Funafuti",
    "latitude": -6.11005,
    "longitude": 177.33524
  },
  {
    "city": "Meang Village",
    "city_zh": "Meang Village",
    "country": "Tuvalu",
    "country_zh": "吐瓦魯",
    "country_iso_code": "TV",
    "timezone": "Pacific/Funafuti",
    "latitude": -7.20592,
    "longitude": 177.15025
  },
  {
    "city": "Motufoua School",
    "city_zh": "Motufoua School",
    "country": "Tuvalu",
    "country_zh": "吐瓦魯",
    "country_iso_code": "TV",
    "timezone": "Pacific/Funafuti",
    "latitude": -7.48996,
    "longitude": 178.69256
  },
  {
    "city": "Savave Village",
    "city_zh": "Savave Village",
    "country": "Tuvalu",
    "country_zh": "吐瓦魯",
    "country_iso_code": "TV",
    "timezone": "Pacific/Funafuti",
    "latitude": -8.02731,
    "longitude": 178.31351
  },
  {
    "city": "Alapi Village",
    "city_zh": "Alapi Village",
    "country": "Tuvalu",
    "country_zh": "吐瓦魯",
    "country_iso_code": "TV",
    "timezone": "Pacific/Funafuti",
    "latitude": -8.52074,
    "longitude": 179.1968
  },
  {
    "city": "Senala Village",
    "city_zh": "Senala Village",
    "country": "Tuvalu",
    "country_zh": "吐瓦魯",
    "country_iso_code": "TV",
    "timezone": "Pacific/Funafuti",
    "latitude": -8.5174,
    "longitude": 179.19829
  },
  {
    "city": "Fakaifou Village",
    "city_zh": "Fakaifou Village",
    "country": "Tuvalu",
    "country_zh": "吐瓦魯",
    "country_iso_code": "TV",
    "timezone": "Pacific/Funafuti",
    "latitude": -8.51758,
    "longitude": 179.20094
  },
  {
    "city": "Lofeagai Village",
    "city_zh": "Lofeagai Village",
    "country": "Tuvalu",
    "country_zh": "吐瓦魯",
    "country_iso_code": "TV",
    "timezone": "Pacific/Funafuti",
    "latitude": -8.48103,
    "longitude": 179.19233
  },
  {
    "city": "Teone Village",
    "city_zh": "Teone Village",
    "country": "Tuvalu",
    "country_zh": "吐瓦魯",
    "country_iso_code": "TV",
    "timezone": "Pacific/Funafuti",
    "latitude": -8.49922,
    "longitude": 179.19502
  }
]