[
  {
    "city": "Fale old settlement",
    "city_zh": "Fale old settlement",
    "country": "Tokelau",
    "country_zh": "Tokelau",
    "country_iso_code": "TK",
    "timezone": "Pacific/Fakaofo",
    "latitude": -9.38516,
    "longitude": -171.24675
  },
  {
    "city": "Nukunonu",
    "city_zh": "Nukunonu",
    "country": "Tokelau",
    "country_zh": "Tokelau",
    "country_iso_code": "TK",
    "timezone": "Pacific/Fakaofo",
    "latitude": -9.20045,
    "longitude": -171.84804
  },
  {
    "city": "Atafu Village",
    "city_zh": "Atafu Village",
    "country": "Tokelau",
    "country_zh": "Tokelau",
    "country_iso_code": "TK",
    "timezone": "Pacific/Fakaofo",
    "latitude": -8.54212,
    "longitude": -172.51591
  },
  {
    "city": "Fenua Fala New Settlement",
    "city_zh": "Fenua Fala New Settlement",
    "country": "Tokelau",
    "country_zh": "Tokelau",
    "country_iso_code": "TK",
    "timezone": "Pacific/Fakaofo",
    "latitude": -9.37387,
    "longitude": -171.26536
  },
  {
    "city": "Motuhaga",
    "city_zh": "Motuhaga",
    "country": "Tokelau",
    "country_zh": "Tokelau",
    "country_iso_code": "TK",
    "timezone": "Pacific/Fakaofo",
    "latitude": -9.20311,
    "longitude": -171.84591
  }
]