[
  {
    "city": "Zompopa",
    "city_zh": "Zompopa",
    "country": "Costa Rica",
    "country_zh": "哥斯大黎加",
    "country_iso_code": "CR",
    "timezone": "America/Costa_Rica",
    "latitude": 10.09655,
    "longitude": -85.48231
  },
  {
    "city": "Zent",
    "city_zh": "Zent",
    "country": "Costa Rica",
    "country_zh": "哥斯大黎加",
    "country_iso_code": "CR",
    "timezone": "America/Costa_Rica",
    "latitude": 10.02882,
    "longitude": -83.27628
  },
  {
    "city": "Zarcero",
    "city_zh": "Zarcero",
    "country": "Costa Rica",
    "country_zh": "哥斯大黎加",
    "country_iso_code": "CR",
    "timezone": "America/Costa_Rica",
    "latitude": 10.18455,
    "longitude": -84.39163
  },
  {
    "city": "Zaragoza",
    "city_zh": "Zaragoza",
    "country": "Costa Rica",
    "country_zh": "哥斯大黎加",
    "country_iso_code": "CR",
    "timezone": "America/Costa_Rica",
    "latitude": 10.04149,
    "longitude": -84.42923
  },
  {
    "city": "Zapote",
    "city_zh": "Zapote",
    "country": "Costa Rica",
    "country_zh": "哥斯大黎加",
    "country_iso_code": "CR",
    "timezone": "America/Costa_Rica",
    "latitude": 10.26667,
    "longitude": -85.15
  },
  {
    "city": "Zapote",
    "city_zh": "Zapote",
    "country": "Costa Rica",
    "country_zh": "哥斯大黎加",
    "country_iso_code": "CR",
    "timezone": "America/Costa_Rica",
    "latitude": 10.25268,
    "longitude": -85.43111
  },
  {
    "city": "Zapote",
    "city_zh": "Zapote",
    "country": "Costa Rica",
    "country_zh": "哥斯大黎加",
    "country_iso_code": "CR",
    "timezone": "America/Costa_Rica",
    "latitude": 10.22513,
    "longitude": -84.42028
  },
  {
    "city": "Zapote",
    "city_zh": "Zapote",
    "country": "Costa Rica",
    "country_zh": "哥斯大黎加",
    "country_iso_code": "CR",
    "timezone": "America/Costa_Rica",
    "latitude": 9.92024,
    "longitude": -84.05487
  },
  {
    "city": "Zapote",
    "city_zh": "Zapote",
    "country": "Costa Rica",
    "country_zh": "哥斯大黎加",
    "country_iso_code": "CR",
    "timezone": "America/Costa_Rica",
    "latitude": 9.86976,
    "longitude": -84.33085
  },
  {
    "city": "Zapote",
    "city_zh": "Zapote",
    "country": "Costa Rica",
    "country_zh": "哥斯大黎加",
    "country_iso_code": "CR",
    "timezone": "America/Costa_Rica",
    "latitude": 9.83365,
    "longitude": -85.19027
  },
  {
    "city": "Zapote",
    "city_zh": "Zapote",
    "country": "Costa Rica",
    "country_zh": "哥斯大黎加",
    "country_iso_code": "CR",
    "timezone": "America/Costa_Rica",
    "latitude": 9.12949,
    "longitude": -83.55581
  },
  {
    "city": "Zapotal",
    "city_zh": "Zapotal",
    "country": "Costa Rica",
    "country_zh": "哥斯大黎加",
    "country_iso_code": "CR",
    "timezone": "America/Costa_Rica",
    "latitude": 10.49743,
    "longitude": -85.79144
  },
  {
    "city": "Zapotal",
    "city_zh": "Zapotal",
    "country": "Costa Rica",
    "country_zh": "哥斯大黎加",
    "country_iso_code": "CR",
    "timezone": "America/Costa_Rica",
    "latitude": 10.17824,
    "longitude": -84.67727
  },
  {
    "city": "Zapotal",
    "city_zh": "Zapotal",
    "country": "Costa Rica",
    "country_zh": "哥斯大黎加",
    "country_iso_code": "CR",
    "timezone": "America/Costa_Rica",
    "latitude": 10.11667,
    "longitude": -84.58333
  },
  {
    "city": "Zapotal",
    "city_zh": "Zapotal",
    "country": "Costa Rica",
    "country_zh": "哥斯大黎加",
    "country_iso_code": "CR",
    "timezone": "America/Costa_Rica",
    "latitude": 10.0,
    "longitude": -85.3
  },
  {
    "city": "Zapotal",
    "city_zh": "Zapotal",
    "country": "Costa Rica",
    "country_zh": "哥斯大黎加",
    "country_iso_code": "CR",
    "timezone": "America/Costa_Rica",
    "latitude": 9.3212,
    "longitude": -83.50913
  },
  {
    "city": "Zapatón",
    "city_zh": "Zapatón",
    "country": "Costa Rica",
    "country_zh": "哥斯大黎加",
    "country_iso_code": "CR",
    "timezone": "America/Costa_Rica",
    "latitude": 9.6859,
    "longitude": -84.3332
  },
  {
    "city": "Zancudo",
    "city_zh": "Zancudo",
    "country": "Costa Rica",
    "country_zh": "哥斯大黎加",
    "country_iso_code": "CR",
    "timezone": "America/Costa_Rica",
    "latitude": 8.53753,
    "longitude": -83.14397
  },
  {
    "city": "Zagala Vieja",
    "city_zh": "Zagala Vieja",
    "country": "Costa Rica",
    "country_zh": "哥斯大黎加",
    "country_iso_code": "CR",
    "timezone": "America/Costa_Rica",
    "latitude": 10.09829,
    "longitude": -84.78399
  },
  {
    "city": "Zagala Nueva",
    "city_zh": "Zagala Nueva",
    "country": "Costa Rica",
    "country_zh": "哥斯大黎加",
    "country_iso_code": "CR",
    "timezone": "America/Costa_Rica",
    "latitude": 10.15901,
    "longitude": -84.73976
  },
  {
    "city": "Yolanda",
    "city_zh": "Yolanda",
    "country": "Costa Rica",
    "country_zh": "哥斯大黎加",
    "country_iso_code": "CR",
    "timezone": "America/Costa_Rica",
    "latitude": 9.84884,
    "longitude": -83.68923
  },
  {
    "city": "Yas",
    "city_zh": "Yas",
    "country": "Costa Rica",
    "country_zh": "哥斯大黎加",
    "country_iso_code": "CR",
    "timezone": "America/Costa_Rica",
    "latitude": 9.85863,
    "longitude": -83.81853
  },
  {
    "city": "Shiroles",
    "city_zh": "Shiroles",
    "country": "Costa Rica",
    "country_zh": "哥斯大黎加",
    "country_iso_code": "CR",
    "timezone": "America/Costa_Rica",
    "latitude": 9.588,
    "longitude": -82.95574
  },
  {
    "city": "Williamsburg",
    "city_zh": "Williamsburg",
    "country": "Costa Rica",
    "country_zh": "哥斯大黎加",
    "country_iso_code": "CR",
    "timezone": "America/Costa_Rica",
    "latitude": 10.15785,
    "longitude": -83.58478
  },
  {
    "city": "Westfalia",
    "city_zh": "Westfalia",
    "country": "Costa Rica",
    "country_zh": "哥斯大黎加",
    "country_iso_code": "CR",
    "timezone": "America/Costa_Rica",
    "latitude": 9.94145,
    "longitude": -83.00995
  },
  {
    "city": "Waldeck",
    "city_zh": "Waldeck",
    "country": "Costa Rica",
    "country_zh": "哥斯大黎加",
    "country_iso_code": "CR",
    "timezone": "America/Costa_Rica",
    "latitude": 10.1,
    "longitude": -83.38
  },
  {
    "city": "Vueltas",
    "city_zh": "Vueltas",
    "country": "Costa Rica",
    "country_zh": "哥斯大黎加",
    "country_iso_code": "CR",
    "timezone": "America/Costa_Rica",
    "latitude": 11.1794,
    "longitude": -85.61487
  },
  {
    "city": "Las Vueltas",
    "city_zh": "Las Vueltas",
    "country": "Costa Rica",
    "country_zh": "哥斯大黎加",
    "country_iso_code": "CR",
    "timezone": "America/Costa_Rica",
    "latitude": 9.94598,
    "longitude": -84.2915
  },
  {
    "city": "Vueltas",
    "city_zh": "Vueltas",
    "country": "Costa Rica",
    "country_zh": "哥斯大黎加",
    "country_iso_code": "CR",
    "timezone": "America/Costa_Rica",
    "latitude": 9.8356,
    "longitude": -83.71172
  },
  {
    "city": "Vueltas",
    "city_zh": "Vueltas",
    "country": "Costa Rica",
    "country_zh": "哥斯大黎加",
    "country_iso_code": "CR",
    "timezone": "America/Costa_Rica",
    "latitude": 8.9668,
    "longitude": -83.17129
  },
  {
    "city": "Vuelta Virilla",
    "city_zh": "Vuelta Virilla",
    "country": "Costa Rica",
    "country_zh": "哥斯大黎加",
    "country_iso_code": "CR",
    "timezone": "America/Costa_Rica",
    "latitude": 9.96001,
    "longitude": -84.10975
  },
  {
    "city": "Vuelta de Jorco",
    "city_zh": "Vuelta de Jorco",
    "country": "Costa Rica",
    "country_zh": "哥斯大黎加",
    "country_iso_code": "CR",
    "timezone": "America/Costa_Rica",
    "latitude": 9.7988,
    "longitude": -84.13156
  },
  {
    "city": "Volio",
    "city_zh": "Volio",
    "country": "Costa Rica",
    "country_zh": "哥斯大黎加",
    "country_iso_code": "CR",
    "timezone": "America/Costa_Rica",
    "latitude": 10.12869,
    "longitude": -84.45543
  },
  {
    "city": "Volio",
    "city_zh": "Volio",
    "country": "Costa Rica",
    "country_zh": "哥斯大黎加",
    "country_iso_code": "CR",
    "timezone": "America/Costa_Rica",
    "latitude": 9.81598,
    "longitude": -83.80772
  },
  {
    "city": "Volcancito",
    "city_zh": "Volcancito",
    "country": "Costa Rica",
    "country_zh": "哥斯大黎加",
    "country_iso_code": "CR",
    "timezone": "America/Costa_Rica",
    "latitude": 9.0356,
    "longitude": -83.27971
  },
  {
    "city": "Volcán",
    "city_zh": "Volcán",
    "country": "Costa Rica",
    "country_zh": "哥斯大黎加",
    "country_iso_code": "CR",
    "timezone": "America/Costa_Rica",
    "latitude": 9.20777,
    "longitude": -83.44825
  },
  {
    "city": "Vista de Mar",
    "city_zh": "Vista de Mar",
    "country": "Costa Rica",
    "country_zh": "哥斯大黎加",
    "country_iso_code": "CR",
    "timezone": "America/Costa_Rica",
    "latitude": 9.96784,
    "longitude": -83.98597
  },
  {
    "city": "Vista del Mar",
    "city_zh": "Vista del Mar",
    "country": "Costa Rica",
    "country_zh": "哥斯大黎加",
    "country_iso_code": "CR",
    "timezone": "America/Costa_Rica",
    "latitude": 9.99401,
    "longitude": -85.28562
  },
  {
    "city": "Virginia",
    "city_zh": "Virginia",
    "country": "Costa Rica",
    "country_zh": "哥斯大黎加",
    "country_iso_code": "CR",
    "timezone": "America/Costa_Rica",
    "latitude": 9.52883,
    "longitude": -82.63517
  },
  {
    "city": "Villarreal",
    "city_zh": "Villarreal",
    "country": "Costa Rica",
    "country_zh": "哥斯大黎加",
    "country_iso_code": "CR",
    "timezone": "America/Costa_Rica",
    "latitude": 10.30616,
    "longitude": -85.80508
  },
  {
    "city": "Villanueva",
    "city_zh": "Villanueva",
    "country": "Costa Rica",
    "country_zh": "哥斯大黎加",
    "country_iso_code": "CR",
    "timezone": "America/Costa_Rica",
    "latitude": 9.76903,
    "longitude": -84.1058
  },
  {
    "city": "Villa Mills",
    "city_zh": "Villa Mills",
    "country": "Costa Rica",
    "country_zh": "哥斯大黎加",
    "country_iso_code": "CR",
    "timezone": "America/Costa_Rica",
    "latitude": 9.56073,
    "longitude": -83.70701
  },
  {
    "city": "Villalta",
    "city_zh": "Villalta",
    "country": "Costa Rica",
    "country_zh": "哥斯大黎加",
    "country_iso_code": "CR",
    "timezone": "America/Costa_Rica",
    "latitude": 9.72997,
    "longitude": -85.19028
  },
  {
    "city": "Villafranca",
    "city_zh": "Villafranca",
    "country": "Costa Rica",
    "country_zh": "哥斯大黎加",
    "country_iso_code": "CR",
    "timezone": "America/Costa_Rica",
    "latitude": 10.28717,
    "longitude": -83.60718
  },
  {
    "city": "Villa Colón",
    "city_zh": "Villa Colón",
    "country": "Costa Rica",
    "country_zh": "哥斯大黎加",
    "country_iso_code": "CR",
    "timezone": "America/Costa_Rica",
    "latitude": 8.87049,
    "longitude": -83.33947
  },
  {
    "city": "Villa Briceño",
    "city_zh": "Villa Briceño",
    "country": "Costa Rica",
    "country_zh": "哥斯大黎加",
    "country_iso_code": "CR",
    "timezone": "America/Costa_Rica",
    "latitude": 8.7198,
    "longitude": -83.16538
  },
  {
    "city": "Vigía",
    "city_zh": "Vigía",
    "country": "Costa Rica",
    "country_zh": "哥斯大黎加",
    "country_iso_code": "CR",
    "timezone": "America/Costa_Rica",
    "latitude": 10.10295,
    "longitude": -85.28563
  },
  {
    "city": "Vieja",
    "city_zh": "Vieja",
    "country": "Costa Rica",
    "country_zh": "哥斯大黎加",
    "country_iso_code": "CR",
    "timezone": "America/Costa_Rica",
    "latitude": 10.3298,
    "longitude": -84.4882
  },
  {
    "city": "Victoria",
    "city_zh": "Victoria",
    "country": "Costa Rica",
    "country_zh": "哥斯大黎加",
    "country_iso_code": "CR",
    "timezone": "America/Costa_Rica",
    "latitude": 9.97504,
    "longitude": -83.27084
  },
  {
    "city": "Alto Victoria",
    "city_zh": "Alto Victoria",
    "country": "Costa Rica",
    "country_zh": "哥斯大黎加",
    "country_iso_code": "CR",
    "timezone": "America/Costa_Rica",
    "latitude": 9.90122,
    "longitude": -83.72897
  },
  {
    "city": "Vesta",
    "city_zh": "Vesta",
    "country": "Costa Rica",
    "country_zh": "哥斯大黎加",
    "country_iso_code": "CR",
    "timezone": "America/Costa_Rica",
    "latitude": 9.72545,
    "longitude": -83.05356
  },
  {
    "city": "Vergel",
    "city_zh": "Vergel",
    "country": "Costa Rica",
    "country_zh": "哥斯大黎加",
    "country_iso_code": "CR",
    "timezone": "America/Costa_Rica",
    "latitude": 10.44328,
    "longitude": -85.04854
  },
  {
    "city": "Verbena Sur",
    "city_zh": "Verbena Sur",
    "country": "Costa Rica",
    "country_zh": "哥斯大黎加",
    "country_iso_code": "CR",
    "timezone": "America/Costa_Rica",
    "latitude": 9.93936,
    "longitude": -83.70154
  },
  {
    "city": "Verbena Norte",
    "city_zh": "Verbena Norte",
    "country": "Costa Rica",
    "country_zh": "哥斯大黎加",
    "country_iso_code": "CR",
    "timezone": "America/Costa_Rica",
    "latitude": 9.94893,
    "longitude": -83.69764
  },
  {
    "city": "Veracruz",
    "city_zh": "Veracruz",
    "country": "Costa Rica",
    "country_zh": "哥斯大黎加",
    "country_iso_code": "CR",
    "timezone": "America/Costa_Rica",
    "latitude": 10.51504,
    "longitude": -84.24519
  },
  {
    "city": "Veracruz",
    "city_zh": "Veracruz",
    "country": "Costa Rica",
    "country_zh": "哥斯大黎加",
    "country_iso_code": "CR",
    "timezone": "America/Costa_Rica",
    "latitude": 10.23593,
    "longitude": -84.81958
  },
  {
    "city": "Ventanas",
    "city_zh": "Ventanas",
    "country": "Costa Rica",
    "country_zh": "哥斯大黎加",
    "country_iso_code": "CR",
    "timezone": "America/Costa_Rica",
    "latitude": 10.2082,
    "longitude": -84.6997
  },
  {
    "city": "Venecia",
    "city_zh": "Venecia",
    "country": "Costa Rica",
    "country_zh": "哥斯大黎加",
    "country_iso_code": "CR",
    "timezone": "America/Costa_Rica",
    "latitude": 10.35373,
    "longitude": -84.2739
  },
  {
    "city": "Venecia",
    "city_zh": "Venecia",
    "country": "Costa Rica",
    "country_zh": "哥斯大黎加",
    "country_iso_code": "CR",
    "timezone": "America/Costa_Rica",
    "latitude": 10.02764,
    "longitude": -83.24332
  },
  {
    "city": "Venecia",
    "city_zh": "Venecia",
    "country": "Costa Rica",
    "country_zh": "哥斯大黎加",
    "country_iso_code": "CR",
    "timezone": "America/Costa_Rica",
    "latitude": 8.83828,
    "longitude": -83.29937
  },
  {
    "city": "Venado",
    "city_zh": "Venado",
    "country": "Costa Rica",
    "country_zh": "哥斯大黎加",
    "country_iso_code": "CR",
    "timezone": "America/Costa_Rica",
    "latitude": 10.5572,
    "longitude": -84.7488
  },
  {
    "city": "Venado",
    "city_zh": "Venado",
    "country": "Costa Rica",
    "country_zh": "哥斯大黎加",
    "country_iso_code": "CR",
    "timezone": "America/Costa_Rica",
    "latitude": 10.14042,
    "longitude": -85.78828
  },
  {
    "city": "Venado",
    "city_zh": "Venado",
    "country": "Costa Rica",
    "country_zh": "哥斯大黎加",
    "country_iso_code": "CR",
    "timezone": "America/Costa_Rica",
    "latitude": 9.66667,
    "longitude": -84.43333
  },
  {
    "city": "Veintisiete de Abril",
    "city_zh": "Veintisiete de Abril",
    "country": "Costa Rica",
    "country_zh": "哥斯大黎加",
    "country_iso_code": "CR",
    "timezone": "America/Costa_Rica",
    "latitude": 10.24532,
    "longitude": -85.70946
  },
  {
    "city": "Vara del Roble",
    "city_zh": "Vara del Roble",
    "country": "Costa Rica",
    "country_zh": "哥斯大黎加",
    "country_iso_code": "CR",
    "timezone": "America/Costa_Rica",
    "latitude": 9.74268,
    "longitude": -83.95879
  },
  {
    "city": "Vaca Blanca",
    "city_zh": "Vaca Blanca",
    "country": "Costa Rica",
    "country_zh": "哥斯大黎加",
    "country_iso_code": "CR",
    "timezone": "America/Costa_Rica",
    "latitude": 10.44859,
    "longitude": -84.40286
  },
  {
    "city": "Vara Blanca",
    "city_zh": "Vara Blanca",
    "country": "Costa Rica",
    "country_zh": "哥斯大黎加",
    "country_iso_code": "CR",
    "timezone": "America/Costa_Rica",
    "latitude": 10.17227,
    "longitude": -84.15803
  },
  {
    "city": "Vara Blanca",
    "city_zh": "Vara Blanca",
    "country": "Costa Rica",
    "country_zh": "哥斯大黎加",
    "country_iso_code": "CR",
    "timezone": "America/Costa_Rica",
    "latitude": 9.73889,
    "longitude": -84.38088
  },
  {
    "city": "Vapor",
    "city_zh": "Vapor",
    "country": "Costa Rica",
    "country_zh": "哥斯大黎加",
    "country_iso_code": "CR",
    "timezone": "America/Costa_Rica",
    "latitude": 9.64483,
    "longitude": -83.98648
  },
  {
    "city": "Valle Bonito",
    "city_zh": "Valle Bonito",
    "country": "Costa Rica",
    "country_zh": "哥斯大黎加",
    "country_iso_code": "CR",
    "timezone": "America/Costa_Rica",
    "latitude": 8.72144,
    "longitude": -83.20316
  },
  {
    "city": "Vainilla",
    "city_zh": "Vainilla",
    "country": "Costa Rica",
    "country_zh": "哥斯大黎加",
    "country_iso_code": "CR",
    "timezone": "America/Costa_Rica",
    "latitude": 9.96198,
    "longitude": -85.19431
  },
  {
    "city": "Uvita",
    "city_zh": "Uvita",
    "country": "Costa Rica",
    "country_zh": "哥斯大黎加",
    "country_iso_code": "CR",
    "timezone": "America/Costa_Rica",
    "latitude": 10.05089,
    "longitude": -84.08748
  },
  {
    "city": "Uvita",
    "city_zh": "Uvita",
    "country": "Costa Rica",
    "country_zh": "哥斯大黎加",
    "country_iso_code": "CR",
    "timezone": "America/Costa_Rica",
    "latitude": 9.17039,
    "longitude": -83.7395
  },
  {
    "city": "Uruchico",
    "city_zh": "Uruchico",
    "country": "Costa Rica",
    "country_zh": "哥斯大黎加",
    "country_iso_code": "CR",
    "timezone": "America/Costa_Rica",
    "latitude": 9.53333,
    "longitude": -83.06667
  },
  {
    "city": "Uruca",
    "city_zh": "Uruca",
    "country": "Costa Rica",
    "country_zh": "哥斯大黎加",
    "country_iso_code": "CR",
    "timezone": "America/Costa_Rica",
    "latitude": 9.94775,
    "longitude": -84.09576
  },
  {
    "city": "Uruca",
    "city_zh": "Uruca",
    "country": "Costa Rica",
    "country_zh": "哥斯大黎加",
    "country_iso_code": "CR",
    "timezone": "America/Costa_Rica",
    "latitude": 9.76315,
    "longitude": -84.13488
  },
  {
    "city": "Urinama",
    "city_zh": "Urinama",
    "country": "Costa Rica",
    "country_zh": "哥斯大黎加",
    "country_iso_code": "CR",
    "timezone": "America/Costa_Rica",
    "latitude": 9.55,
    "longitude": -83.36667
  },
  {
    "city": "Uriche",
    "city_zh": "Uriche",
    "country": "Costa Rica",
    "country_zh": "哥斯大黎加",
    "country_iso_code": "CR",
    "timezone": "America/Costa_Rica",
    "latitude": 10.00155,
    "longitude": -84.0958
  },
  {
    "city": "Urasca",
    "city_zh": "Urasca",
    "country": "Costa Rica",
    "country_zh": "哥斯大黎加",
    "country_iso_code": "CR",
    "timezone": "America/Costa_Rica",
    "latitude": 9.84115,
    "longitude": -83.78666
  },
  {
    "city": "Upala",
    "city_zh": "Upala",
    "country": "Costa Rica",
    "country_zh": "哥斯大黎加",
    "country_iso_code": "CR",
    "timezone": "America/Costa_Rica",
    "latitude": 10.89908,
    "longitude": -85.01366
  },
  {
    "city": "Ciudad Universitaria",
    "city_zh": "Ciudad Universitaria",
    "country": "Costa Rica",
    "country_zh": "哥斯大黎加",
    "country_iso_code": "CR",
    "timezone": "America/Costa_Rica",
    "latitude": 9.9372,
    "longitude": -84.0513
  },
  {
    "city": "La Unión",
    "city_zh": "La Unión",
    "country": "Costa Rica",
    "country_zh": "哥斯大黎加",
    "country_iso_code": "CR",
    "timezone": "America/Costa_Rica",
    "latitude": 10.71667,
    "longitude": -85.19514
  },
  {
    "city": "Unión",
    "city_zh": "Unión",
    "country": "Costa Rica",
    "country_zh": "哥斯大黎加",
    "country_iso_code": "CR",
    "timezone": "America/Costa_Rica",
    "latitude": 10.48974,
    "longitude": -84.83608
  },
  {
    "city": "La Unión",
    "city_zh": "La Unión",
    "country": "Costa Rica",
    "country_zh": "哥斯大黎加",
    "country_iso_code": "CR",
    "timezone": "America/Costa_Rica",
    "latitude": 10.15601,
    "longitude": -84.72344
  },
  {
    "city": "Unión de Coto",
    "city_zh": "Unión de Coto",
    "country": "Costa Rica",
    "country_zh": "哥斯大黎加",
    "country_iso_code": "CR",
    "timezone": "America/Costa_Rica",
    "latitude": 8.60315,
    "longitude": -83.04965
  },
  {
    "city": "Ujarrás",
    "city_zh": "Ujarrás",
    "country": "Costa Rica",
    "country_zh": "哥斯大黎加",
    "country_iso_code": "CR",
    "timezone": "America/Costa_Rica",
    "latitude": 10.27801,
    "longitude": -84.18404
  },
  {
    "city": "Ujarrás",
    "city_zh": "Ujarrás",
    "country": "Costa Rica",
    "country_zh": "哥斯大黎加",
    "country_iso_code": "CR",
    "timezone": "America/Costa_Rica",
    "latitude": 10.21667,
    "longitude": -85.03333
  },
  {
    "city": "Ujarrás",
    "city_zh": "Ujarrás",
    "country": "Costa Rica",
    "country_zh": "哥斯大黎加",
    "country_iso_code": "CR",
    "timezone": "America/Costa_Rica",
    "latitude": 9.8274,
    "longitude": -83.83186
  },
  {
    "city": "Ujarráz",
    "city_zh": "Ujarráz",
    "country": "Costa Rica",
    "country_zh": "哥斯大黎加",
    "country_iso_code": "CR",
    "timezone": "America/Costa_Rica",
    "latitude": 9.22953,
    "longitude": -83.30815
  },
  {
    "city": "Uatsi",
    "city_zh": "Uatsi",
    "country": "Costa Rica",
    "country_zh": "哥斯大黎加",
    "country_iso_code": "CR",
    "timezone": "America/Costa_Rica",
    "latitude": 9.62734,
    "longitude": -82.87024
  },
  {
    "city": "Tziola",
    "city_zh": "Tziola",
    "country": "Costa Rica",
    "country_zh": "哥斯大黎加",
    "country_iso_code": "CR",
    "timezone": "America/Costa_Rica",
    "latitude": 9.55,
    "longitude": -83.28333
  },
  {
    "city": "Turrúcares",
    "city_zh": "Turrúcares",
    "country": "Costa Rica",
    "country_zh": "哥斯大黎加",
    "country_iso_code": "CR",
    "timezone": "America/Costa_Rica",
    "latitude": 9.96061,
    "longitude": -84.31849
  },
  {
    "city": "Turrialba",
    "city_zh": "Turrialba",
    "country": "Costa Rica",
    "country_zh": "哥斯大黎加",
    "country_iso_code": "CR",
    "timezone": "America/Costa_Rica",
    "latitude": 9.90371,
    "longitude": -83.68361
  },
  {
    "city": "Turín",
    "city_zh": "Turín",
    "country": "Costa Rica",
    "country_zh": "哥斯大黎加",
    "country_iso_code": "CR",
    "timezone": "America/Costa_Rica",
    "latitude": 10.34836,
    "longitude": -84.86691
  },
  {
    "city": "Túnsula",
    "city_zh": "Túnsula",
    "country": "Costa Rica",
    "country_zh": "哥斯大黎加",
    "country_iso_code": "CR",
    "timezone": "America/Costa_Rica",
    "latitude": 9.5,
    "longitude": -82.96667
  },
  {
    "city": "Túnsula",
    "city_zh": "Túnsula",
    "country": "Costa Rica",
    "country_zh": "哥斯大黎加",
    "country_iso_code": "CR",
    "timezone": "America/Costa_Rica",
    "latitude": 9.38333,
    "longitude": -83.15
  },
  {
    "city": "Tumbas",
    "city_zh": "Tumbas",
    "country": "Costa Rica",
    "country_zh": "哥斯大黎加",
    "country_iso_code": "CR",
    "timezone": "America/Costa_Rica",
    "latitude": 9.28364,
    "longitude": -83.77816
  },
  {
    "city": "Tulín",
    "city_zh": "Tulín",
    "country": "Costa Rica",
    "country_zh": "哥斯大黎加",
    "country_iso_code": "CR",
    "timezone": "America/Costa_Rica",
    "latitude": 9.75643,
    "longitude": -84.41478
  },
  {
    "city": "Tulín",
    "city_zh": "Tulín",
    "country": "Costa Rica",
    "country_zh": "哥斯大黎加",
    "country_iso_code": "CR",
    "timezone": "America/Costa_Rica",
    "latitude": 9.59658,
    "longitude": -84.48348
  },
  {
    "city": "Tuis",
    "city_zh": "Tuis",
    "country": "Costa Rica",
    "country_zh": "哥斯大黎加",
    "country_iso_code": "CR",
    "timezone": "America/Costa_Rica",
    "latitude": 9.83893,
    "longitude": -83.58091
  },
  {
    "city": "Túfares",
    "city_zh": "Túfares",
    "country": "Costa Rica",
    "country_zh": "哥斯大黎加",
    "country_iso_code": "CR",
    "timezone": "America/Costa_Rica",
    "latitude": 9.75405,
    "longitude": -84.3838
  },
  {
    "city": "Tuetal Norte",
    "city_zh": "Tuetal Norte",
    "country": "Costa Rica",
    "country_zh": "哥斯大黎加",
    "country_iso_code": "CR",
    "timezone": "America/Costa_Rica",
    "latitude": 10.0335,
    "longitude": -84.2294
  },
  {
    "city": "Tucurrique",
    "city_zh": "Tucurrique",
    "country": "Costa Rica",
    "country_zh": "哥斯大黎加",
    "country_iso_code": "CR",
    "timezone": "America/Costa_Rica",
    "latitude": 9.85336,
    "longitude": -83.72273
  },
  {
    "city": "Tuba Creek",
    "city_zh": "Tuba Creek",
    "country": "Costa Rica",
    "country_zh": "哥斯大黎加",
    "country_iso_code": "CR",
    "timezone": "America/Costa_Rica",
    "latitude": 9.7667,
    "longitude": -82.89767
  },
  {
    "city": "Troya",
    "city_zh": "Troya",
    "country": "Costa Rica",
    "country_zh": "哥斯大黎加",
    "country_iso_code": "CR",
    "timezone": "America/Costa_Rica",
    "latitude": 9.80971,
    "longitude": -83.85791
  },
  {
    "city": "Tronadora",
    "city_zh": "Tronadora",
    "country": "Costa Rica",
    "country_zh": "哥斯大黎加",
    "country_iso_code": "CR",
    "timezone": "America/Costa_Rica",
    "latitude": 10.50157,
    "longitude": -84.92419
  },
  {
    "city": "Trojas",
    "city_zh": "Trojas",
    "country": "Costa Rica",
    "country_zh": "哥斯大黎加",
    "country_iso_code": "CR",
    "timezone": "America/Costa_Rica",
    "latitude": 10.14156,
    "longitude": -84.3168
  },
  {
    "city": "Triunfo",
    "city_zh": "Triunfo",
    "country": "Costa Rica",
    "country_zh": "哥斯大黎加",
    "country_iso_code": "CR",
    "timezone": "America/Costa_Rica",
    "latitude": 10.67793,
    "longitude": -84.86858
  },
  {
    "city": "Punta Trinidad",
    "city_zh": "Punta Trinidad",
    "country": "Costa Rica",
    "country_zh": "哥斯大黎加",
    "country_iso_code": "CR",
    "timezone": "America/Costa_Rica",
    "latitude": 10.03333,
    "longitude": -85.75
  },
  {
    "city": "Trinidad",
    "city_zh": "Trinidad",
    "country": "Costa Rica",
    "country_zh": "哥斯大黎加",
    "country_iso_code": "CR",
    "timezone": "America/Costa_Rica",
    "latitude": 10.71901,
    "longitude": -83.93701
  },
  {
    "city": "Trinidad",
    "city_zh": "Trinidad",
    "country": "Costa Rica",
    "country_zh": "哥斯大黎加",
    "country_iso_code": "CR",
    "timezone": "America/Costa_Rica",
    "latitude": 10.14695,
    "longitude": -83.54983
  },
  {
    "city": "Trinidad",
    "city_zh": "Trinidad",
    "country": "Costa Rica",
    "country_zh": "哥斯大黎加",
    "country_iso_code": "CR",
    "timezone": "America/Costa_Rica",
    "latitude": 9.96535,
    "longitude": -85.41285
  },
  {
    "city": "Trinidad",
    "city_zh": "Trinidad",
    "country": "Costa Rica",
    "country_zh": "哥斯大黎加",
    "country_iso_code": "CR",
    "timezone": "America/Costa_Rica",
    "latitude": 9.96667,
    "longitude": -83.75
  },
  {
    "city": "Trinidad de Leon Cortes",
    "city_zh": "Trinidad de Leon Cortes",
    "country": "Costa Rica",
    "country_zh": "哥斯大黎加",
    "country_iso_code": "CR",
    "timezone": "America/Costa_Rica",
    "latitude": 9.65876,
    "longitude": -84.08385
  },
  {
    "city": "Trinidad",
    "city_zh": "Trinidad",
    "country": "Costa Rica",
    "country_zh": "哥斯大黎加",
    "country_iso_code": "CR",
    "timezone": "America/Costa_Rica",
    "latitude": 9.66919,
    "longitude": -83.88643
  },
  {
    "city": "Trinidad",
    "city_zh": "Trinidad",
    "country": "Costa Rica",
    "country_zh": "哥斯大黎加",
    "country_iso_code": "CR",
    "timezone": "America/Costa_Rica",
    "latitude": 9.11848,
    "longitude": -83.58208
  },
  {
    "city": "Tres Ríos",
    "city_zh": "Tres Ríos",
    "country": "Costa Rica",
    "country_zh": "哥斯大黎加",
    "country_iso_code": "CR",
    "timezone": "America/Costa_Rica",
    "latitude": 9.91107,
    "longitude": -85.17924
  },
  {
    "city": "Tres Ríos",
    "city_zh": "Tres Ríos",
    "country": "Costa Rica",
    "country_zh": "哥斯大黎加",
    "country_iso_code": "CR",
    "timezone": "America/Costa_Rica",
    "latitude": 9.90692,
    "longitude": -83.98789
  },
  {
    "city": "Tres Millas",
    "city_zh": "Tres Millas",
    "country": "Costa Rica",
    "country_zh": "哥斯大黎加",
    "country_iso_code": "CR",
    "timezone": "America/Costa_Rica",
    "latitude": 10.15589,
    "longitude": -83.51265
  },
  {
    "city": "Tres Hermanos",
    "city_zh": "Tres Hermanos",
    "country": "Costa Rica",
    "country_zh": "哥斯大黎加",
    "country_iso_code": "CR",
    "timezone": "America/Costa_Rica",
    "latitude": 10.30903,
    "longitude": -84.92937
  },
  {
    "city": "Tres de Junio",
    "city_zh": "Tres de Junio",
    "country": "Costa Rica",
    "country_zh": "哥斯大黎加",
    "country_iso_code": "CR",
    "timezone": "America/Costa_Rica",
    "latitude": 9.6684,
    "longitude": -83.84764
  },
  {
    "city": "Tres Amigos",
    "city_zh": "Tres Amigos",
    "country": "Costa Rica",
    "country_zh": "哥斯大黎加",
    "country_iso_code": "CR",
    "timezone": "America/Costa_Rica",
    "latitude": 10.30195,
    "longitude": -84.92788
  },
  {
    "city": "Trenzas",
    "city_zh": "Trenzas",
    "country": "Costa Rica",
    "country_zh": "哥斯大黎加",
    "country_iso_code": "CR",
    "timezone": "America/Costa_Rica",
    "latitude": 8.56615,
    "longitude": -83.06227
  },
  {
    "city": "Trébol",
    "city_zh": "Trébol",
    "country": "Costa Rica",
    "country_zh": "哥斯大黎加",
    "country_iso_code": "CR",
    "timezone": "America/Costa_Rica",
    "latitude": 9.93477,
    "longitude": -83.08805
  },
  {
    "city": "Trapiche",
    "city_zh": "Trapiche",
    "country": "Costa Rica",
    "country_zh": "哥斯大黎加",
    "country_iso_code": "CR",
    "timezone": "America/Costa_Rica",
    "latitude": 10.2907,
    "longitude": -85.72052
  },
  {
    "city": "Tranquerillas",
    "city_zh": "Tranquerillas",
    "country": "Costa Rica",
    "country_zh": "哥斯大黎加",
    "country_iso_code": "CR",
    "timezone": "America/Costa_Rica",
    "latitude": 9.80789,
    "longitude": -84.10418
  },
  {
    "city": "Tortuguero",
    "city_zh": "Tortuguero",
    "country": "Costa Rica",
    "country_zh": "哥斯大黎加",
    "country_iso_code": "CR",
    "timezone": "America/Costa_Rica",
    "latitude": 10.54143,
    "longitude": -83.50211
  },
  {
    "city": "Tortuga Arriba",
    "city_zh": "Tortuga Arriba",
    "country": "Costa Rica",
    "country_zh": "哥斯大黎加",
    "country_iso_code": "CR",
    "timezone": "America/Costa_Rica",
    "latitude": 9.10859,
    "longitude": -83.6421
  },
  {
    "city": "Torrotillo",
    "city_zh": "Torrotillo",
    "country": "Costa Rica",
    "country_zh": "哥斯大黎加",
    "country_iso_code": "CR",
    "timezone": "America/Costa_Rica",
    "latitude": 9.89655,
    "longitude": -84.12877
  },
  {
    "city": "Bajo del Toro",
    "city_zh": "Bajo del Toro",
    "country": "Costa Rica",
    "country_zh": "哥斯大黎加",
    "country_iso_code": "CR",
    "timezone": "America/Costa_Rica",
    "latitude": 10.21852,
    "longitude": -84.29044
  },
  {
    "city": "Toro Amarillo",
    "city_zh": "Toro Amarillo",
    "country": "Costa Rica",
    "country_zh": "哥斯大黎加",
    "country_iso_code": "CR",
    "timezone": "America/Costa_Rica",
    "latitude": 10.21261,
    "longitude": -83.80651
  },
  {
    "city": "Toro",
    "city_zh": "Toro",
    "country": "Costa Rica",
    "country_zh": "哥斯大黎加",
    "country_iso_code": "CR",
    "timezone": "America/Costa_Rica",
    "latitude": 10.01034,
    "longitude": -83.21717
  },
  {
    "city": "Tornos",
    "city_zh": "Tornos",
    "country": "Costa Rica",
    "country_zh": "哥斯大黎加",
    "country_iso_code": "CR",
    "timezone": "America/Costa_Rica",
    "latitude": 9.9397,
    "longitude": -84.3957
  },
  {
    "city": "Torno",
    "city_zh": "Torno",
    "country": "Costa Rica",
    "country_zh": "哥斯大黎加",
    "country_iso_code": "CR",
    "timezone": "America/Costa_Rica",
    "latitude": 10.63717,
    "longitude": -85.22917
  },
  {
    "city": "Torito",
    "city_zh": "Torito",
    "country": "Costa Rica",
    "country_zh": "哥斯大黎加",
    "country_iso_code": "CR",
    "timezone": "America/Costa_Rica",
    "latitude": 9.99159,
    "longitude": -83.69957
  },
  {
    "city": "Torito",
    "city_zh": "Torito",
    "country": "Costa Rica",
    "country_zh": "哥斯大黎加",
    "country_iso_code": "CR",
    "timezone": "America/Costa_Rica",
    "latitude": 9.95203,
    "longitude": -83.62718
  },
  {
    "city": "Tonjibe",
    "city_zh": "Tonjibe",
    "country": "Costa Rica",
    "country_zh": "哥斯大黎加",
    "country_iso_code": "CR",
    "timezone": "America/Costa_Rica",
    "latitude": 10.62867,
    "longitude": -84.78576
  },
  {
    "city": "Toledo",
    "city_zh": "Toledo",
    "country": "Costa Rica",
    "country_zh": "哥斯大黎加",
    "country_iso_code": "CR",
    "timezone": "America/Costa_Rica",
    "latitude": 9.80219,
    "longitude": -84.24559
  },
  {
    "city": "Tobosi",
    "city_zh": "Tobosi",
    "country": "Costa Rica",
    "country_zh": "哥斯大黎加",
    "country_iso_code": "CR",
    "timezone": "America/Costa_Rica",
    "latitude": 9.83837,
    "longitude": -83.98391
  },
  {
    "city": "Tivives",
    "city_zh": "Tivives",
    "country": "Costa Rica",
    "country_zh": "哥斯大黎加",
    "country_iso_code": "CR",
    "timezone": "America/Costa_Rica",
    "latitude": 9.87024,
    "longitude": -84.70081
  },
  {
    "city": "Tirimbina",
    "city_zh": "Tirimbina",
    "country": "Costa Rica",
    "country_zh": "哥斯大黎加",
    "country_iso_code": "CR",
    "timezone": "America/Costa_Rica",
    "latitude": 10.4,
    "longitude": -84.10653
  },
  {
    "city": "Tiquirusas",
    "city_zh": "Tiquirusas",
    "country": "Costa Rica",
    "country_zh": "哥斯大黎加",
    "country_iso_code": "CR",
    "timezone": "America/Costa_Rica",
    "latitude": 10.26036,
    "longitude": -85.16943
  },
  {
    "city": "Tinamaste",
    "city_zh": "Tinamaste",
    "country": "Costa Rica",
    "country_zh": "哥斯大黎加",
    "country_iso_code": "CR",
    "timezone": "America/Costa_Rica",
    "latitude": 9.87076,
    "longitude": -84.30292
  },
  {
    "city": "Tinamaste",
    "city_zh": "Tinamaste",
    "country": "Costa Rica",
    "country_zh": "哥斯大黎加",
    "country_iso_code": "CR",
    "timezone": "America/Costa_Rica",
    "latitude": 9.30102,
    "longitude": -83.78146
  },
  {
    "city": "Tilarán",
    "city_zh": "Tilarán",
    "country": "Costa Rica",
    "country_zh": "哥斯大黎加",
    "country_iso_code": "CR",
    "timezone": "America/Costa_Rica",
    "latitude": 10.46701,
    "longitude": -84.96775
  },
  {
    "city": "Tigre",
    "city_zh": "Tigre",
    "country": "Costa Rica",
    "country_zh": "哥斯大黎加",
    "country_iso_code": "CR",
    "timezone": "America/Costa_Rica",
    "latitude": 10.41651,
    "longitude": -83.98128
  },
  {
    "city": "Tigre",
    "city_zh": "Tigre",
    "country": "Costa Rica",
    "country_zh": "哥斯大黎加",
    "country_iso_code": "CR",
    "timezone": "America/Costa_Rica",
    "latitude": 9.81293,
    "longitude": -84.09113
  },
  {
    "city": "Tigre",
    "city_zh": "Tigre",
    "country": "Costa Rica",
    "country_zh": "哥斯大黎加",
    "country_iso_code": "CR",
    "timezone": "America/Costa_Rica",
    "latitude": 8.68223,
    "longitude": -83.00575
  },
  {
    "city": "Tigre",
    "city_zh": "Tigre",
    "country": "Costa Rica",
    "country_zh": "哥斯大黎加",
    "country_iso_code": "CR",
    "timezone": "America/Costa_Rica",
    "latitude": 8.53925,
    "longitude": -83.37396
  },
  {
    "city": "La Tigra",
    "city_zh": "La Tigra",
    "country": "Costa Rica",
    "country_zh": "哥斯大黎加",
    "country_iso_code": "CR",
    "timezone": "America/Costa_Rica",
    "latitude": 10.34045,
    "longitude": -84.5814
  },
  {
    "city": "Tigra",
    "city_zh": "Tigra",
    "country": "Costa Rica",
    "country_zh": "哥斯大黎加",
    "country_iso_code": "CR",
    "timezone": "America/Costa_Rica",
    "latitude": 9.93781,
    "longitude": -85.1543
  },
  {
    "city": "El Tieso",
    "city_zh": "El Tieso",
    "country": "Costa Rica",
    "country_zh": "哥斯大黎加",
    "country_iso_code": "CR",
    "timezone": "America/Costa_Rica",
    "latitude": 10.28073,
    "longitude": -85.75254
  },
  {
    "city": "Tierras Morenas",
    "city_zh": "Tierras Morenas",
    "country": "Costa Rica",
    "country_zh": "哥斯大黎加",
    "country_iso_code": "CR",
    "timezone": "America/Costa_Rica",
    "latitude": 10.57112,
    "longitude": -85.02438
  },
  {
    "city": "Tierras Morenas",
    "city_zh": "Tierras Morenas",
    "country": "Costa Rica",
    "country_zh": "哥斯大黎加",
    "country_iso_code": "CR",
    "timezone": "America/Costa_Rica",
    "latitude": 9.34268,
    "longitude": -83.86479
  },
  {
    "city": "Tierra Colorada",
    "city_zh": "Tierra Colorada",
    "country": "Costa Rica",
    "country_zh": "哥斯大黎加",
    "country_iso_code": "CR",
    "timezone": "America/Costa_Rica",
    "latitude": 10.21108,
    "longitude": -84.91703
  },
  {
    "city": "Tierra Blanca",
    "city_zh": "Tierra Blanca",
    "country": "Costa Rica",
    "country_zh": "哥斯大黎加",
    "country_iso_code": "CR",
    "timezone": "America/Costa_Rica",
    "latitude": 10.13333,
    "longitude": -85.41667
  },
  {
    "city": "Tierra Blanca",
    "city_zh": "Tierra Blanca",
    "country": "Costa Rica",
    "country_zh": "哥斯大黎加",
    "country_iso_code": "CR",
    "timezone": "America/Costa_Rica",
    "latitude": 9.91644,
    "longitude": -83.89313
  },
  {
    "city": "Ticufres",
    "city_zh": "Ticufres",
    "country": "Costa Rica",
    "country_zh": "哥斯大黎加",
    "country_iso_code": "CR",
    "timezone": "America/Costa_Rica",
    "latitude": 9.88871,
    "longitude": -84.22811
  },
  {
    "city": "Tesalia",
    "city_zh": "Tesalia",
    "country": "Costa Rica",
    "country_zh": "哥斯大黎加",
    "country_iso_code": "CR",
    "timezone": "America/Costa_Rica",
    "latitude": 10.35574,
    "longitude": -84.40372
  },
  {
    "city": "Teruel",
    "city_zh": "Teruel",
    "country": "Costa Rica",
    "country_zh": "哥斯大黎加",
    "country_iso_code": "CR",
    "timezone": "America/Costa_Rica",
    "latitude": 9.74242,
    "longitude": -84.29277
  },
  {
    "city": "Terrero",
    "city_zh": "Terrero",
    "country": "Costa Rica",
    "country_zh": "哥斯大黎加",
    "country_iso_code": "CR",
    "timezone": "America/Costa_Rica",
    "latitude": 10.09195,
    "longitude": -84.92133
  },
  {
    "city": "Térraba",
    "city_zh": "Térraba",
    "country": "Costa Rica",
    "country_zh": "哥斯大黎加",
    "country_iso_code": "CR",
    "timezone": "America/Costa_Rica",
    "latitude": 9.06751,
    "longitude": -83.2866
  },
  {
    "city": "Terciopelo",
    "city_zh": "Terciopelo",
    "country": "Costa Rica",
    "country_zh": "哥斯大黎加",
    "country_iso_code": "CR",
    "timezone": "America/Costa_Rica",
    "latitude": 9.93496,
    "longitude": -85.51699
  },
  {
    "city": "Hacienda Tenorio",
    "city_zh": "Hacienda Tenorio",
    "country": "Costa Rica",
    "country_zh": "哥斯大黎加",
    "country_iso_code": "CR",
    "timezone": "America/Costa_Rica",
    "latitude": 10.6095,
    "longitude": -85.0854
  },
  {
    "city": "Tendal",
    "city_zh": "Tendal",
    "country": "Costa Rica",
    "country_zh": "哥斯大黎加",
    "country_iso_code": "CR",
    "timezone": "America/Costa_Rica",
    "latitude": 10.35,
    "longitude": -85.41667
  },
  {
    "city": "Tempate",
    "city_zh": "Tempate",
    "country": "Costa Rica",
    "country_zh": "哥斯大黎加",
    "country_iso_code": "CR",
    "timezone": "America/Costa_Rica",
    "latitude": 10.41416,
    "longitude": -85.72021
  },
  {
    "city": "Telire",
    "city_zh": "Telire",
    "country": "Costa Rica",
    "country_zh": "哥斯大黎加",
    "country_iso_code": "CR",
    "timezone": "America/Costa_Rica",
    "latitude": 9.58333,
    "longitude": -83.01667
  },
  {
    "city": "Tejona",
    "city_zh": "Tejona",
    "country": "Costa Rica",
    "country_zh": "哥斯大黎加",
    "country_iso_code": "CR",
    "timezone": "America/Costa_Rica",
    "latitude": 10.50043,
    "longitude": -84.96766
  },
  {
    "city": "Tejarcillos",
    "city_zh": "Tejarcillos",
    "country": "Costa Rica",
    "country_zh": "哥斯大黎加",
    "country_iso_code": "CR",
    "timezone": "America/Costa_Rica",
    "latitude": 9.9096,
    "longitude": -84.1265
  },
  {
    "city": "Tejar",
    "city_zh": "Tejar",
    "country": "Costa Rica",
    "country_zh": "哥斯大黎加",
    "country_iso_code": "CR",
    "timezone": "America/Costa_Rica",
    "latitude": 9.89251,
    "longitude": -84.08505
  },
  {
    "city": "El Tejar",
    "city_zh": "El Tejar",
    "country": "Costa Rica",
    "country_zh": "哥斯大黎加",
    "country_iso_code": "CR",
    "timezone": "America/Costa_Rica",
    "latitude": 9.84234,
    "longitude": -83.93911
  },
  {
    "city": "Tejar",
    "city_zh": "Tejar",
    "country": "Costa Rica",
    "country_zh": "哥斯大黎加",
    "country_iso_code": "CR",
    "timezone": "America/Costa_Rica",
    "latitude": 9.74301,
    "longitude": -84.23219
  },
  {
    "city": "Tayutic",
    "city_zh": "Tayutic",
    "country": "Costa Rica",
    "country_zh": "哥斯大黎加",
    "country_iso_code": "CR",
    "timezone": "America/Costa_Rica",
    "latitude": 9.82255,
    "longitude": -83.5561
  },
  {
    "city": "Tausito",
    "city_zh": "Tausito",
    "country": "Costa Rica",
    "country_zh": "哥斯大黎加",
    "country_iso_code": "CR",
    "timezone": "America/Costa_Rica",
    "latitude": 9.77785,
    "longitude": -83.76776
  },
  {
    "city": "Taus",
    "city_zh": "Taus",
    "country": "Costa Rica",
    "country_zh": "哥斯大黎加",
    "country_iso_code": "CR",
    "timezone": "America/Costa_Rica",
    "latitude": 9.78905,
    "longitude": -83.71973
  },
  {
    "city": "Tárcoles",
    "city_zh": "Tárcoles",
    "country": "Costa Rica",
    "country_zh": "哥斯大黎加",
    "country_iso_code": "CR",
    "timezone": "America/Costa_Rica",
    "latitude": 9.76144,
    "longitude": -84.62707
  },
  {
    "city": "Tarbaca",
    "city_zh": "Tarbaca",
    "country": "Costa Rica",
    "country_zh": "哥斯大黎加",
    "country_iso_code": "CR",
    "timezone": "America/Costa_Rica",
    "latitude": 9.82116,
    "longitude": -84.10999
  },
  {
    "city": "Taras",
    "city_zh": "Taras",
    "country": "Costa Rica",
    "country_zh": "哥斯大黎加",
    "country_iso_code": "CR",
    "timezone": "America/Costa_Rica",
    "latitude": 9.87879,
    "longitude": -83.93459
  },
  {
    "city": "Tapesco",
    "city_zh": "Tapesco",
    "country": "Costa Rica",
    "country_zh": "哥斯大黎加",
    "country_iso_code": "CR",
    "timezone": "America/Costa_Rica",
    "latitude": 10.21837,
    "longitude": -84.40181
  },
  {
    "city": "Tapantí",
    "city_zh": "Tapantí",
    "country": "Costa Rica",
    "country_zh": "哥斯大黎加",
    "country_iso_code": "CR",
    "timezone": "America/Costa_Rica",
    "latitude": 9.7688,
    "longitude": -83.8001
  },
  {
    "city": "Tanques",
    "city_zh": "Tanques",
    "country": "Costa Rica",
    "country_zh": "哥斯大黎加",
    "country_iso_code": "CR",
    "timezone": "America/Costa_Rica",
    "latitude": 10.76667,
    "longitude": -85.31667
  },
  {
    "city": "El Tanque",
    "city_zh": "El Tanque",
    "country": "Costa Rica",
    "country_zh": "哥斯大黎加",
    "country_iso_code": "CR",
    "timezone": "America/Costa_Rica",
    "latitude": 10.47751,
    "longitude": -84.58099
  },
  {
    "city": "Tambor",
    "city_zh": "Tambor",
    "country": "Costa Rica",
    "country_zh": "哥斯大黎加",
    "country_iso_code": "CR",
    "timezone": "America/Costa_Rica",
    "latitude": 10.03727,
    "longitude": -84.24016
  },
  {
    "city": "Tambor",
    "city_zh": "Tambor",
    "country": "Costa Rica",
    "country_zh": "哥斯大黎加",
    "country_iso_code": "CR",
    "timezone": "America/Costa_Rica",
    "latitude": 9.71615,
    "longitude": -85.02999
  },
  {
    "city": "Tambor",
    "city_zh": "Tambor",
    "country": "Costa Rica",
    "country_zh": "哥斯大黎加",
    "country_iso_code": "CR",
    "timezone": "America/Costa_Rica",
    "latitude": 9.30625,
    "longitude": -83.54561
  },
  {
    "city": "Hacienda Tamarindo",
    "city_zh": "Hacienda Tamarindo",
    "country": "Costa Rica",
    "country_zh": "哥斯大黎加",
    "country_iso_code": "CR",
    "timezone": "America/Costa_Rica",
    "latitude": 10.43333,
    "longitude": -85.26667
  },
  {
    "city": "Talolinga",
    "city_zh": "Talolinga",
    "country": "Costa Rica",
    "country_zh": "哥斯大黎加",
    "country_iso_code": "CR",
    "timezone": "America/Costa_Rica",
    "latitude": 10.32309,
    "longitude": -85.48161
  },
  {
    "city": "Talamanca",
    "city_zh": "Talamanca",
    "country": "Costa Rica",
    "country_zh": "哥斯大黎加",
    "country_iso_code": "CR",
    "timezone": "America/Costa_Rica",
    "latitude": 9.6,
    "longitude": -82.78333
  },
  {
    "city": "Tajo Alto",
    "city_zh": "Tajo Alto",
    "country": "Costa Rica",
    "country_zh": "哥斯大黎加",
    "country_iso_code": "CR",
    "timezone": "America/Costa_Rica",
    "latitude": 10.13427,
    "longitude": -84.72236
  },
  {
    "city": "Tacares",
    "city_zh": "Tacares",
    "country": "Costa Rica",
    "country_zh": "哥斯大黎加",
    "country_iso_code": "CR",
    "timezone": "America/Costa_Rica",
    "latitude": 10.02998,
    "longitude": -84.2901
  },
  {
    "city": "Tacanis",
    "city_zh": "Tacanis",
    "country": "Costa Rica",
    "country_zh": "哥斯大黎加",
    "country_iso_code": "CR",
    "timezone": "America/Costa_Rica",
    "latitude": 10.03161,
    "longitude": -85.31612
  },
  {
    "city": "Tacacorí",
    "city_zh": "Tacacorí",
    "country": "Costa Rica",
    "country_zh": "哥斯大黎加",
    "country_iso_code": "CR",
    "timezone": "America/Costa_Rica",
    "latitude": 10.05152,
    "longitude": -84.21619
  },
  {
    "city": "Tabores",
    "city_zh": "Tabores",
    "country": "Costa Rica",
    "country_zh": "哥斯大黎加",
    "country_iso_code": "CR",
    "timezone": "America/Costa_Rica",
    "latitude": 10.52915,
    "longitude": -85.6516
  },
  {
    "city": "Hacienda Taboga",
    "city_zh": "Hacienda Taboga",
    "country": "Costa Rica",
    "country_zh": "哥斯大黎加",
    "country_iso_code": "CR",
    "timezone": "America/Costa_Rica",
    "latitude": 10.35042,
    "longitude": -85.17798
  },
  {
    "city": "Tablón",
    "city_zh": "Tablón",
    "country": "Costa Rica",
    "country_zh": "哥斯大黎加",
    "country_iso_code": "CR",
    "timezone": "America/Costa_Rica",
    "latitude": 9.82806,
    "longitude": -84.00725
  },
  {
    "city": "Tabla Grande",
    "city_zh": "Tabla Grande",
    "country": "Costa Rica",
    "country_zh": "哥斯大黎加",
    "country_iso_code": "CR",
    "timezone": "America/Costa_Rica",
    "latitude": 10.58887,
    "longitude": -84.41151
  },
  {
    "city": "Tabla",
    "city_zh": "Tabla",
    "country": "Costa Rica",
    "country_zh": "哥斯大黎加",
    "country_iso_code": "CR",
    "timezone": "America/Costa_Rica",
    "latitude": 10.41538,
    "longitude": -84.24036
  },
  {
    "city": "Táberi",
    "city_zh": "Táberi",
    "country": "Costa Rica",
    "country_zh": "哥斯大黎加",
    "country_iso_code": "CR",
    "timezone": "America/Costa_Rica",
    "latitude": 9.58333,
    "longitude": -83.05
  },
  {
    "city": "Tabarcia",
    "city_zh": "Tabarcia",
    "country": "Costa Rica",
    "country_zh": "哥斯大黎加",
    "country_iso_code": "CR",
    "timezone": "America/Costa_Rica",
    "latitude": 9.84836,
    "longitude": -84.2334
  },
  {
    "city": "Boca del Pantano",
    "city_zh": "Boca del Pantano",
    "country": "Costa Rica",
    "country_zh": "哥斯大黎加",
    "country_iso_code": "CR",
    "timezone": "America/Costa_Rica",
    "latitude": 10.07234,
    "longitude": -83.15839
  },
  {
    "city": "Surubres",
    "city_zh": "Surubres",
    "country": "Costa Rica",
    "country_zh": "哥斯大黎加",
    "country_iso_code": "CR",
    "timezone": "America/Costa_Rica",
    "latitude": 9.60173,
    "longitude": -84.30226
  },
  {
    "city": "Surisi",
    "city_zh": "Surisi",
    "country": "Costa Rica",
    "country_zh": "哥斯大黎加",
    "country_iso_code": "CR",
    "timezone": "America/Costa_Rica",
    "latitude": 9.4,
    "longitude": -83.25
  },
  {
    "city": "Suretka",
    "city_zh": "Suretka",
    "country": "Costa Rica",
    "country_zh": "哥斯大黎加",
    "country_iso_code": "CR",
    "timezone": "America/Costa_Rica",
    "latitude": 9.57341,
    "longitude": -82.93872
  },
  {
    "city": "Suerre",
    "city_zh": "Suerre",
    "country": "Costa Rica",
    "country_zh": "哥斯大黎加",
    "country_iso_code": "CR",
    "timezone": "America/Costa_Rica",
    "latitude": 10.28355,
    "longitude": -83.40099
  },
  {
    "city": "Sucre",
    "city_zh": "Sucre",
    "country": "Costa Rica",
    "country_zh": "哥斯大黎加",
    "country_iso_code": "CR",
    "timezone": "America/Costa_Rica",
    "latitude": 10.2793,
    "longitude": -84.42881
  },
  {
    "city": "Stafford",
    "city_zh": "Stafford",
    "country": "Costa Rica",
    "country_zh": "哥斯大黎加",
    "country_iso_code": "CR",
    "timezone": "America/Costa_Rica",
    "latitude": 10.0251,
    "longitude": -83.27615
  },
  {
    "city": "Sonzapotal",
    "city_zh": "Sonzapotal",
    "country": "Costa Rica",
    "country_zh": "哥斯大黎加",
    "country_iso_code": "CR",
    "timezone": "America/Costa_Rica",
    "latitude": 10.12136,
    "longitude": -85.53515
  },
  {
    "city": "Solanea",
    "city_zh": "Solanea",
    "country": "Costa Rica",
    "country_zh": "哥斯大黎加",
    "country_iso_code": "CR",
    "timezone": "America/Costa_Rica",
    "latitude": 10.37424,
    "longitude": -84.9895
  },
  {
    "city": "Socorro",
    "city_zh": "Socorro",
    "country": "Costa Rica",
    "country_zh": "哥斯大黎加",
    "country_iso_code": "CR",
    "timezone": "America/Costa_Rica",
    "latitude": 10.13512,
    "longitude": -84.59223
  },
  {
    "city": "Socorro",
    "city_zh": "Socorro",
    "country": "Costa Rica",
    "country_zh": "哥斯大黎加",
    "country_iso_code": "CR",
    "timezone": "America/Costa_Rica",
    "latitude": 9.97257,
    "longitude": -84.06527
  },
  {
    "city": "Socorro",
    "city_zh": "Socorro",
    "country": "Costa Rica",
    "country_zh": "哥斯大黎加",
    "country_iso_code": "CR",
    "timezone": "America/Costa_Rica",
    "latitude": 9.20972,
    "longitude": -83.66228
  },
  {
    "city": "Socorro",
    "city_zh": "Socorro",
    "country": "Costa Rica",
    "country_zh": "哥斯大黎加",
    "country_iso_code": "CR",
    "timezone": "America/Costa_Rica",
    "latitude": 9.20227,
    "longitude": -83.39831
  },
  {
    "city": "Sixaola",
    "city_zh": "Sixaola",
    "country": "Costa Rica",
    "country_zh": "哥斯大黎加",
    "country_iso_code": "CR",
    "timezone": "America/Costa_Rica",
    "latitude": 9.50371,
    "longitude": -82.612
  },
  {
    "city": "Sitio",
    "city_zh": "Sitio",
    "country": "Costa Rica",
    "country_zh": "哥斯大黎加",
    "country_iso_code": "CR",
    "timezone": "America/Costa_Rica",
    "latitude": 9.9119,
    "longitude": -83.75419
  },
  {
    "city": "Sitio",
    "city_zh": "Sitio",
    "country": "Costa Rica",
    "country_zh": "哥斯大黎加",
    "country_iso_code": "CR",
    "timezone": "America/Costa_Rica",
    "latitude": 9.78596,
    "longitude": -83.82512
  },
  {
    "city": "Sirena",
    "city_zh": "Sirena",
    "country": "Costa Rica",
    "country_zh": "哥斯大黎加",
    "country_iso_code": "CR",
    "timezone": "America/Costa_Rica",
    "latitude": 8.54228,
    "longitude": -83.52281
  },
  {
    "city": "Sirena",
    "city_zh": "Sirena",
    "country": "Costa Rica",
    "country_zh": "哥斯大黎加",
    "country_iso_code": "CR",
    "timezone": "America/Costa_Rica",
    "latitude": 8.48026,
    "longitude": -83.58934
  },
  {
    "city": "Siquirres",
    "city_zh": "Siquirres",
    "country": "Costa Rica",
    "country_zh": "哥斯大黎加",
    "country_iso_code": "CR",
    "timezone": "America/Costa_Rica",
    "latitude": 10.09748,
    "longitude": -83.50659
  },
  {
    "city": "Siquiares",
    "city_zh": "Siquiares",
    "country": "Costa Rica",
    "country_zh": "哥斯大黎加",
    "country_iso_code": "CR",
    "timezone": "America/Costa_Rica",
    "latitude": 9.96794,
    "longitude": -84.29678
  },
  {
    "city": "Sipurio",
    "city_zh": "Sipurio",
    "country": "Costa Rica",
    "country_zh": "哥斯大黎加",
    "country_iso_code": "CR",
    "timezone": "America/Costa_Rica",
    "latitude": 9.53299,
    "longitude": -82.94804
  },
  {
    "city": "Sinoi",
    "city_zh": "Sinoi",
    "country": "Costa Rica",
    "country_zh": "哥斯大黎加",
    "country_iso_code": "CR",
    "timezone": "America/Costa_Rica",
    "latitude": 9.6,
    "longitude": -83.16667
  },
  {
    "city": "Silencio",
    "city_zh": "Silencio",
    "country": "Costa Rica",
    "country_zh": "哥斯大黎加",
    "country_iso_code": "CR",
    "timezone": "America/Costa_Rica",
    "latitude": 10.47805,
    "longitude": -84.90643
  },
  {
    "city": "Silencio",
    "city_zh": "Silencio",
    "country": "Costa Rica",
    "country_zh": "哥斯大黎加",
    "country_iso_code": "CR",
    "timezone": "America/Costa_Rica",
    "latitude": 10.166,
    "longitude": -84.4724
  },
  {
    "city": "Siete",
    "city_zh": "Siete",
    "country": "Costa Rica",
    "country_zh": "哥斯大黎加",
    "country_iso_code": "CR",
    "timezone": "America/Costa_Rica",
    "latitude": 10.39443,
    "longitude": -83.42651
  },
  {
    "city": "Sierra",
    "city_zh": "Sierra",
    "country": "Costa Rica",
    "country_zh": "哥斯大黎加",
    "country_iso_code": "CR",
    "timezone": "America/Costa_Rica",
    "latitude": 10.28512,
    "longitude": -84.92797
  },
  {
    "city": "La Sierra",
    "city_zh": "La Sierra",
    "country": "Costa Rica",
    "country_zh": "哥斯大黎加",
    "country_iso_code": "CR",
    "timezone": "America/Costa_Rica",
    "latitude": 9.74633,
    "longitude": -83.97955
  },
  {
    "city": "La Sierra",
    "city_zh": "La Sierra",
    "country": "Costa Rica",
    "country_zh": "哥斯大黎加",
    "country_iso_code": "CR",
    "timezone": "America/Costa_Rica",
    "latitude": 9.14885,
    "longitude": -83.62858
  },
  {
    "city": "Sierpe",
    "city_zh": "Sierpe",
    "country": "Costa Rica",
    "country_zh": "哥斯大黎加",
    "country_iso_code": "CR",
    "timezone": "America/Costa_Rica",
    "latitude": 8.85997,
    "longitude": -83.47235
  },
  {
    "city": "Sibubeta",
    "city_zh": "Sibubeta",
    "country": "Costa Rica",
    "country_zh": "哥斯大黎加",
    "country_iso_code": "CR",
    "timezone": "America/Costa_Rica",
    "latitude": 9.63333,
    "longitude": -82.96667
  },
  {
    "city": "Sibubeta",
    "city_zh": "Sibubeta",
    "country": "Costa Rica",
    "country_zh": "哥斯大黎加",
    "country_iso_code": "CR",
    "timezone": "America/Costa_Rica",
    "latitude": 9.4,
    "longitude": -83.28333
  },
  {
    "city": "Siberia",
    "city_zh": "Siberia",
    "country": "Costa Rica",
    "country_zh": "哥斯大黎加",
    "country_iso_code": "CR",
    "timezone": "America/Costa_Rica",
    "latitude": 9.54794,
    "longitude": -83.71335
  },
  {
    "city": "Sevilla",
    "city_zh": "Sevilla",
    "country": "Costa Rica",
    "country_zh": "哥斯大黎加",
    "country_iso_code": "CR",
    "timezone": "America/Costa_Rica",
    "latitude": 9.82289,
    "longitude": -84.19102
  },
  {
    "city": "Selva",
    "city_zh": "Selva",
    "country": "Costa Rica",
    "country_zh": "哥斯大黎加",
    "country_iso_code": "CR",
    "timezone": "America/Costa_Rica",
    "latitude": 9.78807,
    "longitude": -83.74916
  },
  {
    "city": "Savegre Abajo",
    "city_zh": "Savegre Abajo",
    "country": "Costa Rica",
    "country_zh": "哥斯大黎加",
    "country_iso_code": "CR",
    "timezone": "America/Costa_Rica",
    "latitude": 9.43243,
    "longitude": -83.84081
  },
  {
    "city": "Savegre",
    "city_zh": "Savegre",
    "country": "Costa Rica",
    "country_zh": "哥斯大黎加",
    "country_iso_code": "CR",
    "timezone": "America/Costa_Rica",
    "latitude": 9.36667,
    "longitude": -84.03333
  },
  {
    "city": "Sarmiento",
    "city_zh": "Sarmiento",
    "country": "Costa Rica",
    "country_zh": "哥斯大黎加",
    "country_iso_code": "CR",
    "timezone": "America/Costa_Rica",
    "latitude": 10.15856,
    "longitude": -84.88175
  },
  {
    "city": "Sardinal",
    "city_zh": "Sardinal",
    "country": "Costa Rica",
    "country_zh": "哥斯大黎加",
    "country_iso_code": "CR",
    "timezone": "America/Costa_Rica",
    "latitude": 10.51674,
    "longitude": -85.64748
  },
  {
    "city": "Sardinal",
    "city_zh": "Sardinal",
    "country": "Costa Rica",
    "country_zh": "哥斯大黎加",
    "country_iso_code": "CR",
    "timezone": "America/Costa_Rica",
    "latitude": 10.11637,
    "longitude": -84.82564
  },
  {
    "city": "Sardinal Sur",
    "city_zh": "Sardinal Sur",
    "country": "Costa Rica",
    "country_zh": "哥斯大黎加",
    "country_iso_code": "CR",
    "timezone": "America/Costa_Rica",
    "latitude": 9.57121,
    "longitude": -84.32317
  },
  {
    "city": "Sarchí Sur",
    "city_zh": "Sarchí Sur",
    "country": "Costa Rica",
    "country_zh": "哥斯大黎加",
    "country_iso_code": "CR",
    "timezone": "America/Costa_Rica",
    "latitude": 10.08447,
    "longitude": -84.33975
  },
  {
    "city": "Sarchí",
    "city_zh": "Sarchí",
    "country": "Costa Rica",
    "country_zh": "哥斯大黎加",
    "country_iso_code": "CR",
    "timezone": "America/Costa_Rica",
    "latitude": 10.0897,
    "longitude": -84.34752
  },
  {
    "city": "Sarapiquí",
    "city_zh": "Sarapiquí",
    "country": "Costa Rica",
    "country_zh": "哥斯大黎加",
    "country_iso_code": "CR",
    "timezone": "America/Costa_Rica",
    "latitude": 10.48333,
    "longitude": -84.01667
  },
  {
    "city": "Sahara",
    "city_zh": "Sahara",
    "country": "Costa Rica",
    "country_zh": "哥斯大黎加",
    "country_iso_code": "CR",
    "timezone": "America/Costa_Rica",
    "latitude": 10.1364,
    "longitude": -83.35708
  },
  {
    "city": "Sapoá",
    "city_zh": "Sapoá",
    "country": "Costa Rica",
    "country_zh": "哥斯大黎加",
    "country_iso_code": "CR",
    "timezone": "America/Costa_Rica",
    "latitude": 11.05,
    "longitude": -85.61667
  },
  {
    "city": "San Vito",
    "city_zh": "San Vito",
    "country": "Costa Rica",
    "country_zh": "哥斯大黎加",
    "country_iso_code": "CR",
    "timezone": "America/Costa_Rica",
    "latitude": 8.82079,
    "longitude": -82.97092
  },
  {
    "city": "San Vicente",
    "city_zh": "San Vicente",
    "country": "Costa Rica",
    "country_zh": "哥斯大黎加",
    "country_iso_code": "CR",
    "timezone": "America/Costa_Rica",
    "latitude": 10.27998,
    "longitude": -84.39444
  },
  {
    "city": "San Vicente",
    "city_zh": "San Vicente",
    "country": "Costa Rica",
    "country_zh": "哥斯大黎加",
    "country_iso_code": "CR",
    "timezone": "America/Costa_Rica",
    "latitude": 10.25699,
    "longitude": -85.49192
  },
  {
    "city": "San Vicente",
    "city_zh": "San Vicente",
    "country": "Costa Rica",
    "country_zh": "哥斯大黎加",
    "country_iso_code": "CR",
    "timezone": "America/Costa_Rica",
    "latitude": 9.96194,
    "longitude": -84.0494
  },
  {
    "city": "San Vicente",
    "city_zh": "San Vicente",
    "country": "Costa Rica",
    "country_zh": "哥斯大黎加",
    "country_iso_code": "CR",
    "timezone": "America/Costa_Rica",
    "latitude": 9.74807,
    "longitude": -85.0025
  },
  {
    "city": "San Vicente",
    "city_zh": "San Vicente",
    "country": "Costa Rica",
    "country_zh": "哥斯大黎加",
    "country_iso_code": "CR",
    "timezone": "America/Costa_Rica",
    "latitude": 9.67145,
    "longitude": -84.39761
  },
  {
    "city": "Santo Tomás",
    "city_zh": "Santo Tomás",
    "country": "Costa Rica",
    "country_zh": "哥斯大黎加",
    "country_iso_code": "CR",
    "timezone": "America/Costa_Rica",
    "latitude": 9.4781,
    "longitude": -83.77829
  },
  {
    "city": "Santo Domingo",
    "city_zh": "Santo Domingo",
    "country": "Costa Rica",
    "country_zh": "哥斯大黎加",
    "country_iso_code": "CR",
    "timezone": "America/Costa_Rica",
    "latitude": 10.41406,
    "longitude": -85.60362
  },
  {
    "city": "Santo Domingo",
    "city_zh": "Santo Domingo",
    "country": "Costa Rica",
    "country_zh": "哥斯大黎加",
    "country_iso_code": "CR",
    "timezone": "America/Costa_Rica",
    "latitude": 10.19089,
    "longitude": -83.48652
  },
  {
    "city": "Santo Domingo",
    "city_zh": "Santo Domingo",
    "country": "Costa Rica",
    "country_zh": "哥斯大黎加",
    "country_iso_code": "CR",
    "timezone": "America/Costa_Rica",
    "latitude": 10.06389,
    "longitude": -84.15499
  },
  {
    "city": "Santo Domingo",
    "city_zh": "Santo Domingo",
    "country": "Costa Rica",
    "country_zh": "哥斯大黎加",
    "country_iso_code": "CR",
    "timezone": "America/Costa_Rica",
    "latitude": 9.98123,
    "longitude": -84.08984
  },
  {
    "city": "Santo Domingo",
    "city_zh": "Santo Domingo",
    "country": "Costa Rica",
    "country_zh": "哥斯大黎加",
    "country_iso_code": "CR",
    "timezone": "America/Costa_Rica",
    "latitude": 9.90011,
    "longitude": -85.50026
  },
  {
    "city": "Santiago",
    "city_zh": "Santiago",
    "country": "Costa Rica",
    "country_zh": "哥斯大黎加",
    "country_iso_code": "CR",
    "timezone": "America/Costa_Rica",
    "latitude": 10.06499,
    "longitude": -84.48682
  },
  {
    "city": "Santiago",
    "city_zh": "Santiago",
    "country": "Costa Rica",
    "country_zh": "哥斯大黎加",
    "country_iso_code": "CR",
    "timezone": "America/Costa_Rica",
    "latitude": 10.02275,
    "longitude": -84.4442
  },
  {
    "city": "Santiago del Monte",
    "city_zh": "Santiago del Monte",
    "country": "Costa Rica",
    "country_zh": "哥斯大黎加",
    "country_iso_code": "CR",
    "timezone": "America/Costa_Rica",
    "latitude": 9.8944,
    "longitude": -83.99696
  },
  {
    "city": "Santiago",
    "city_zh": "Santiago",
    "country": "Costa Rica",
    "country_zh": "哥斯大黎加",
    "country_iso_code": "CR",
    "timezone": "America/Costa_Rica",
    "latitude": 9.86989,
    "longitude": -83.79897
  },
  {
    "city": "Santiago",
    "city_zh": "Santiago",
    "country": "Costa Rica",
    "country_zh": "哥斯大黎加",
    "country_iso_code": "CR",
    "timezone": "America/Costa_Rica",
    "latitude": 9.84636,
    "longitude": -84.31428
  },
  {
    "city": "Santiago",
    "city_zh": "Santiago",
    "country": "Costa Rica",
    "country_zh": "哥斯大黎加",
    "country_iso_code": "CR",
    "timezone": "America/Costa_Rica",
    "latitude": 9.66452,
    "longitude": -85.17238
  },
  {
    "city": "Santa Teresa",
    "city_zh": "Santa Teresa",
    "country": "Costa Rica",
    "country_zh": "哥斯大黎加",
    "country_iso_code": "CR",
    "timezone": "America/Costa_Rica",
    "latitude": 8.81219,
    "longitude": -82.93352
  },
  {
    "city": "Santa Teresa",
    "city_zh": "Santa Teresa",
    "country": "Costa Rica",
    "country_zh": "哥斯大黎加",
    "country_iso_code": "CR",
    "timezone": "America/Costa_Rica",
    "latitude": 10.54425,
    "longitude": -84.45853
  },
  {
    "city": "Santa Teresa",
    "city_zh": "Santa Teresa",
    "country": "Costa Rica",
    "country_zh": "哥斯大黎加",
    "country_iso_code": "CR",
    "timezone": "America/Costa_Rica",
    "latitude": 9.93132,
    "longitude": -83.77873
  },
  {
    "city": "Santa Teresa",
    "city_zh": "Santa Teresa",
    "country": "Costa Rica",
    "country_zh": "哥斯大黎加",
    "country_iso_code": "CR",
    "timezone": "America/Costa_Rica",
    "latitude": 9.64724,
    "longitude": -85.17104
  },
  {
    "city": "Santa Teresa",
    "city_zh": "Santa Teresa",
    "country": "Costa Rica",
    "country_zh": "哥斯大黎加",
    "country_iso_code": "CR",
    "timezone": "America/Costa_Rica",
    "latitude": 9.33574,
    "longitude": -83.57167
  },
  {
    "city": "Santa Rosa",
    "city_zh": "Santa Rosa",
    "country": "Costa Rica",
    "country_zh": "哥斯大黎加",
    "country_iso_code": "CR",
    "timezone": "America/Costa_Rica",
    "latitude": 11.20669,
    "longitude": -85.55962
  },
  {
    "city": "Santa Rosa",
    "city_zh": "Santa Rosa",
    "country": "Costa Rica",
    "country_zh": "哥斯大黎加",
    "country_iso_code": "CR",
    "timezone": "America/Costa_Rica",
    "latitude": 10.57925,
    "longitude": -85.27012
  },
  {
    "city": "Santa Rosa",
    "city_zh": "Santa Rosa",
    "country": "Costa Rica",
    "country_zh": "哥斯大黎加",
    "country_iso_code": "CR",
    "timezone": "America/Costa_Rica",
    "latitude": 10.45954,
    "longitude": -85.01516
  },
  {
    "city": "Santa Rosa",
    "city_zh": "Santa Rosa",
    "country": "Costa Rica",
    "country_zh": "哥斯大黎加",
    "country_iso_code": "CR",
    "timezone": "America/Costa_Rica",
    "latitude": 10.31214,
    "longitude": -85.78734
  },
  {
    "city": "Santa Rosa",
    "city_zh": "Santa Rosa",
    "country": "Costa Rica",
    "country_zh": "哥斯大黎加",
    "country_iso_code": "CR",
    "timezone": "America/Costa_Rica",
    "latitude": 10.105,
    "longitude": -84.26218
  },
  {
    "city": "Santa Rosa",
    "city_zh": "Santa Rosa",
    "country": "Costa Rica",
    "country_zh": "哥斯大黎加",
    "country_iso_code": "CR",
    "timezone": "America/Costa_Rica",
    "latitude": 10.03897,
    "longitude": -84.73546
  },
  {
    "city": "Zaragoza",
    "city_zh": "Zaragoza",
    "country": "Costa Rica",
    "country_zh": "哥斯大黎加",
    "country_iso_code": "CR",
    "timezone": "America/Costa_Rica",
    "latitude": 9.97267,
    "longitude": -85.5654
  },
  {
    "city": "Santa Rosa",
    "city_zh": "Santa Rosa",
    "country": "Costa Rica",
    "country_zh": "哥斯大黎加",
    "country_iso_code": "CR",
    "timezone": "America/Costa_Rica",
    "latitude": 9.95465,
    "longitude": -83.06609
  },
  {
    "city": "Santa Rosa",
    "city_zh": "Santa Rosa",
    "country": "Costa Rica",
    "country_zh": "哥斯大黎加",
    "country_iso_code": "CR",
    "timezone": "America/Costa_Rica",
    "latitude": 9.92543,
    "longitude": -83.69694
  },
  {
    "city": "Santa Rosa",
    "city_zh": "Santa Rosa",
    "country": "Costa Rica",
    "country_zh": "哥斯大黎加",
    "country_iso_code": "CR",
    "timezone": "America/Costa_Rica",
    "latitude": 9.91836,
    "longitude": -83.8402
  },
  {
    "city": "Santa Rosa",
    "city_zh": "Santa Rosa",
    "country": "Costa Rica",
    "country_zh": "哥斯大黎加",
    "country_iso_code": "CR",
    "timezone": "America/Costa_Rica",
    "latitude": 9.68916,
    "longitude": -84.10008
  },
  {
    "city": "Santa Rosa",
    "city_zh": "Santa Rosa",
    "country": "Costa Rica",
    "country_zh": "哥斯大黎加",
    "country_iso_code": "CR",
    "timezone": "America/Costa_Rica",
    "latitude": 9.39252,
    "longitude": -83.7576
  },
  {
    "city": "Santa Rosa",
    "city_zh": "Santa Rosa",
    "country": "Costa Rica",
    "country_zh": "哥斯大黎加",
    "country_iso_code": "CR",
    "timezone": "America/Costa_Rica",
    "latitude": 8.7911,
    "longitude": -82.91036
  },
  {
    "city": "Santa Rogelia",
    "city_zh": "Santa Rogelia",
    "country": "Costa Rica",
    "country_zh": "哥斯大黎加",
    "country_iso_code": "CR",
    "timezone": "America/Costa_Rica",
    "latitude": 11.14305,
    "longitude": -85.55486
  },
  {
    "city": "Santa Rita",
    "city_zh": "Santa Rita",
    "country": "Costa Rica",
    "country_zh": "哥斯大黎加",
    "country_iso_code": "CR",
    "timezone": "America/Costa_Rica",
    "latitude": 11.0,
    "longitude": -85.08333
  },
  {
    "city": "Santa Rita",
    "city_zh": "Santa Rita",
    "country": "Costa Rica",
    "country_zh": "哥斯大黎加",
    "country_iso_code": "CR",
    "timezone": "America/Costa_Rica",
    "latitude": 10.53988,
    "longitude": -85.63196
  },
  {
    "city": "Santa Rita",
    "city_zh": "Santa Rita",
    "country": "Costa Rica",
    "country_zh": "哥斯大黎加",
    "country_iso_code": "CR",
    "timezone": "America/Costa_Rica",
    "latitude": 10.40556,
    "longitude": -84.21989
  },
  {
    "city": "Santa Rita",
    "city_zh": "Santa Rita",
    "country": "Costa Rica",
    "country_zh": "哥斯大黎加",
    "country_iso_code": "CR",
    "timezone": "America/Costa_Rica",
    "latitude": 10.32315,
    "longitude": -84.51269
  },
  {
    "city": "Santa Rita",
    "city_zh": "Santa Rita",
    "country": "Costa Rica",
    "country_zh": "哥斯大黎加",
    "country_iso_code": "CR",
    "timezone": "America/Costa_Rica",
    "latitude": 10.13333,
    "longitude": -84.45
  },
  {
    "city": "Santa Rita",
    "city_zh": "Santa Rita",
    "country": "Costa Rica",
    "country_zh": "哥斯大黎加",
    "country_iso_code": "CR",
    "timezone": "America/Costa_Rica",
    "latitude": 10.02543,
    "longitude": -85.26199
  },
  {
    "city": "Santa Rita",
    "city_zh": "Santa Rita",
    "country": "Costa Rica",
    "country_zh": "哥斯大黎加",
    "country_iso_code": "CR",
    "timezone": "America/Costa_Rica",
    "latitude": 9.96511,
    "longitude": -84.305
  },
  {
    "city": "Santa Rita",
    "city_zh": "Santa Rita",
    "country": "Costa Rica",
    "country_zh": "哥斯大黎加",
    "country_iso_code": "CR",
    "timezone": "America/Costa_Rica",
    "latitude": 9.87136,
    "longitude": -84.59037
  },
  {
    "city": "Santa Marta",
    "city_zh": "Santa Marta",
    "country": "Costa Rica",
    "country_zh": "哥斯大黎加",
    "country_iso_code": "CR",
    "timezone": "America/Costa_Rica",
    "latitude": 10.12134,
    "longitude": -83.31578
  },
  {
    "city": "Santa Marta",
    "city_zh": "Santa Marta",
    "country": "Costa Rica",
    "country_zh": "哥斯大黎加",
    "country_iso_code": "CR",
    "timezone": "America/Costa_Rica",
    "latitude": 9.97522,
    "longitude": -85.66652
  },
  {
    "city": "Santa Marta",
    "city_zh": "Santa Marta",
    "country": "Costa Rica",
    "country_zh": "哥斯大黎加",
    "country_iso_code": "CR",
    "timezone": "America/Costa_Rica",
    "latitude": 9.81321,
    "longitude": -84.38541
  },
  {
    "city": "Santa María",
    "city_zh": "Santa María",
    "country": "Costa Rica",
    "country_zh": "哥斯大黎加",
    "country_iso_code": "CR",
    "timezone": "America/Costa_Rica",
    "latitude": 9.91798,
    "longitude": -85.42126
  },
  {
    "city": "Santa María",
    "city_zh": "Santa María",
    "country": "Costa Rica",
    "country_zh": "哥斯大黎加",
    "country_iso_code": "CR",
    "timezone": "America/Costa_Rica",
    "latitude": 9.69515,
    "longitude": -83.92419
  },
  {
    "city": "Santa María",
    "city_zh": "Santa María",
    "country": "Costa Rica",
    "country_zh": "哥斯大黎加",
    "country_iso_code": "CR",
    "timezone": "America/Costa_Rica",
    "latitude": 9.6523,
    "longitude": -83.96937
  },
  {
    "city": "Santa María",
    "city_zh": "Santa María",
    "country": "Costa Rica",
    "country_zh": "哥斯大黎加",
    "country_iso_code": "CR",
    "timezone": "America/Costa_Rica",
    "latitude": 9.3221,
    "longitude": -83.58273
  },
  {
    "city": "Santa Luisa",
    "city_zh": "Santa Luisa",
    "country": "Costa Rica",
    "country_zh": "哥斯大黎加",
    "country_iso_code": "CR",
    "timezone": "America/Costa_Rica",
    "latitude": 9.21932,
    "longitude": -83.56999
  },
  {
    "city": "Santa Lucía",
    "city_zh": "Santa Lucía",
    "country": "Costa Rica",
    "country_zh": "哥斯大黎加",
    "country_iso_code": "CR",
    "timezone": "America/Costa_Rica",
    "latitude": 10.5,
    "longitude": -85.14
  },
  {
    "city": "Santa Lucía",
    "city_zh": "Santa Lucía",
    "country": "Costa Rica",
    "country_zh": "哥斯大黎加",
    "country_iso_code": "CR",
    "timezone": "America/Costa_Rica",
    "latitude": 10.3,
    "longitude": -84.98
  },
  {
    "city": "Santa Lucía",
    "city_zh": "Santa Lucía",
    "country": "Costa Rica",
    "country_zh": "哥斯大黎加",
    "country_iso_code": "CR",
    "timezone": "America/Costa_Rica",
    "latitude": 10.17,
    "longitude": -83.48
  },
  {
    "city": "Santa Lucía",
    "city_zh": "Santa Lucía",
    "country": "Costa Rica",
    "country_zh": "哥斯大黎加",
    "country_iso_code": "CR",
    "timezone": "America/Costa_Rica",
    "latitude": 10.02,
    "longitude": -84.12
  },
  {
    "city": "Santa Lucía",
    "city_zh": "Santa Lucía",
    "country": "Costa Rica",
    "country_zh": "哥斯大黎加",
    "country_iso_code": "CR",
    "timezone": "America/Costa_Rica",
    "latitude": 9.75,
    "longitude": -84.98
  },
  {
    "city": "Santa Juana",
    "city_zh": "Santa Juana",
    "country": "Costa Rica",
    "country_zh": "哥斯大黎加",
    "country_iso_code": "CR",
    "timezone": "America/Costa_Rica",
    "latitude": 10.05903,
    "longitude": -84.91849
  },
  {
    "city": "Santa Juana",
    "city_zh": "Santa Juana",
    "country": "Costa Rica",
    "country_zh": "哥斯大黎加",
    "country_iso_code": "CR",
    "timezone": "America/Costa_Rica",
    "latitude": 9.51667,
    "longitude": -84.11667
  },
  {
    "city": "Santa Isabel",
    "city_zh": "Santa Isabel",
    "country": "Costa Rica",
    "country_zh": "哥斯大黎加",
    "country_iso_code": "CR",
    "timezone": "America/Costa_Rica",
    "latitude": 10.45276,
    "longitude": -84.20131
  },
  {
    "city": "Santa Inés",
    "city_zh": "Santa Inés",
    "country": "Costa Rica",
    "country_zh": "哥斯大黎加",
    "country_iso_code": "CR",
    "timezone": "America/Costa_Rica",
    "latitude": 10.66667,
    "longitude": -85.46667
  },
  {
    "city": "Santa Gertrudis Sur",
    "city_zh": "Santa Gertrudis Sur",
    "country": "Costa Rica",
    "country_zh": "哥斯大黎加",
    "country_iso_code": "CR",
    "timezone": "America/Costa_Rica",
    "latitude": 10.073,
    "longitude": -84.27489
  },
  {
    "city": "Santa Gertrudis Norte",
    "city_zh": "Santa Gertrudis Norte",
    "country": "Costa Rica",
    "country_zh": "哥斯大黎加",
    "country_iso_code": "CR",
    "timezone": "America/Costa_Rica",
    "latitude": 10.0876,
    "longitude": -84.2839
  },
  {
    "city": "Santa Eulalia",
    "city_zh": "Santa Eulalia",
    "country": "Costa Rica",
    "country_zh": "哥斯大黎加",
    "country_iso_code": "CR",
    "timezone": "America/Costa_Rica",
    "latitude": 10.54131,
    "longitude": -84.71785
  },
  {
    "city": "Santa Eulalia",
    "city_zh": "Santa Eulalia",
    "country": "Costa Rica",
    "country_zh": "哥斯大黎加",
    "country_iso_code": "CR",
    "timezone": "America/Costa_Rica",
    "latitude": 10.01044,
    "longitude": -84.37439
  },
  {
    "city": "Santa Elena Arriba",
    "city_zh": "Santa Elena Arriba",
    "country": "Costa Rica",
    "country_zh": "哥斯大黎加",
    "country_iso_code": "CR",
    "timezone": "America/Costa_Rica",
    "latitude": 9.77193,
    "longitude": -84.05309
  },
  {
    "city": "Santa Elena",
    "city_zh": "Santa Elena",
    "country": "Costa Rica",
    "country_zh": "哥斯大黎加",
    "country_iso_code": "CR",
    "timezone": "America/Costa_Rica",
    "latitude": 11.0,
    "longitude": -84.61667
  },
  {
    "city": "Santa Elena",
    "city_zh": "Santa Elena",
    "country": "Costa Rica",
    "country_zh": "哥斯大黎加",
    "country_iso_code": "CR",
    "timezone": "America/Costa_Rica",
    "latitude": 10.55,
    "longitude": -84.93333
  },
  {
    "city": "Santa Elena",
    "city_zh": "Santa Elena",
    "country": "Costa Rica",
    "country_zh": "哥斯大黎加",
    "country_iso_code": "CR",
    "timezone": "America/Costa_Rica",
    "latitude": 10.32185,
    "longitude": -84.82398
  },
  {
    "city": "Santa Elena",
    "city_zh": "Santa Elena",
    "country": "Costa Rica",
    "country_zh": "哥斯大黎加",
    "country_iso_code": "CR",
    "timezone": "America/Costa_Rica",
    "latitude": 10.24359,
    "longitude": -84.47344
  },
  {
    "city": "Santa Elena",
    "city_zh": "Santa Elena",
    "country": "Costa Rica",
    "country_zh": "哥斯大黎加",
    "country_iso_code": "CR",
    "timezone": "America/Costa_Rica",
    "latitude": 10.00796,
    "longitude": -85.47085
  },
  {
    "city": "Santa Elena",
    "city_zh": "Santa Elena",
    "country": "Costa Rica",
    "country_zh": "哥斯大黎加",
    "country_iso_code": "CR",
    "timezone": "America/Costa_Rica",
    "latitude": 9.76611,
    "longitude": -84.0553
  },
  {
    "city": "Santa Elena",
    "city_zh": "Santa Elena",
    "country": "Costa Rica",
    "country_zh": "哥斯大黎加",
    "country_iso_code": "CR",
    "timezone": "America/Costa_Rica",
    "latitude": 9.35093,
    "longitude": -83.62789
  },
  {
    "city": "Santa Eduviges",
    "city_zh": "Santa Eduviges",
    "country": "Costa Rica",
    "country_zh": "哥斯大黎加",
    "country_iso_code": "CR",
    "timezone": "America/Costa_Rica",
    "latitude": 9.48786,
    "longitude": -83.75832
  },
  {
    "city": "Santa Cruz",
    "city_zh": "Santa Cruz",
    "country": "Costa Rica",
    "country_zh": "哥斯大黎加",
    "country_iso_code": "CR",
    "timezone": "America/Costa_Rica",
    "latitude": 10.26053,
    "longitude": -85.5851
  },
  {
    "city": "Santa Cruz",
    "city_zh": "Santa Cruz",
    "country": "Costa Rica",
    "country_zh": "哥斯大黎加",
    "country_iso_code": "CR",
    "timezone": "America/Costa_Rica",
    "latitude": 10.01342,
    "longitude": -84.04952
  },
  {
    "city": "Santa Cruz",
    "city_zh": "Santa Cruz",
    "country": "Costa Rica",
    "country_zh": "哥斯大黎加",
    "country_iso_code": "CR",
    "timezone": "America/Costa_Rica",
    "latitude": 9.96628,
    "longitude": -83.73233
  },
  {
    "city": "Santa Cruz",
    "city_zh": "Santa Cruz",
    "country": "Costa Rica",
    "country_zh": "哥斯大黎加",
    "country_iso_code": "CR",
    "timezone": "America/Costa_Rica",
    "latitude": 9.73181,
    "longitude": -84.0243
  },
  {
    "city": "Santa Cruz",
    "city_zh": "Santa Cruz",
    "country": "Costa Rica",
    "country_zh": "哥斯大黎加",
    "country_iso_code": "CR",
    "timezone": "America/Costa_Rica",
    "latitude": 9.41351,
    "longitude": -83.64124
  },
  {
    "city": "Santa Clara",
    "city_zh": "Santa Clara",
    "country": "Costa Rica",
    "country_zh": "哥斯大黎加",
    "country_iso_code": "CR",
    "timezone": "America/Costa_Rica",
    "latitude": 10.92329,
    "longitude": -85.09434
  },
  {
    "city": "Santa Clara",
    "city_zh": "Santa Clara",
    "country": "Costa Rica",
    "country_zh": "哥斯大黎加",
    "country_iso_code": "CR",
    "timezone": "America/Costa_Rica",
    "latitude": 10.35703,
    "longitude": -84.51418
  },
  {
    "city": "Santa Cecilia",
    "city_zh": "Santa Cecilia",
    "country": "Costa Rica",
    "country_zh": "哥斯大黎加",
    "country_iso_code": "CR",
    "timezone": "America/Costa_Rica",
    "latitude": 11.06287,
    "longitude": -85.41386
  },
  {
    "city": "Santa Cecilia",
    "city_zh": "Santa Cecilia",
    "country": "Costa Rica",
    "country_zh": "哥斯大黎加",
    "country_iso_code": "CR",
    "timezone": "America/Costa_Rica",
    "latitude": 9.62519,
    "longitude": -84.04244
  },
  {
    "city": "Santa Bárbara",
    "city_zh": "Santa Bárbara",
    "country": "Costa Rica",
    "country_zh": "哥斯大黎加",
    "country_iso_code": "CR",
    "timezone": "America/Costa_Rica",
    "latitude": 10.2818,
    "longitude": -85.52581
  },
  {
    "city": "Santa Anita",
    "city_zh": "Santa Anita",
    "country": "Costa Rica",
    "country_zh": "哥斯大黎加",
    "country_iso_code": "CR",
    "timezone": "America/Costa_Rica",
    "latitude": 10.83333,
    "longitude": -85.43333
  },
  {
    "city": "Santa Ana",
    "city_zh": "Santa Ana",
    "country": "Costa Rica",
    "country_zh": "哥斯大黎加",
    "country_iso_code": "CR",
    "timezone": "America/Costa_Rica",
    "latitude": 10.61557,
    "longitude": -85.47711
  },
  {
    "city": "Santa Ana",
    "city_zh": "Santa Ana",
    "country": "Costa Rica",
    "country_zh": "哥斯大黎加",
    "country_iso_code": "CR",
    "timezone": "America/Costa_Rica",
    "latitude": 10.38921,
    "longitude": -85.61983
  },
  {
    "city": "Santa Ana",
    "city_zh": "Santa Ana",
    "country": "Costa Rica",
    "country_zh": "哥斯大黎加",
    "country_iso_code": "CR",
    "timezone": "America/Costa_Rica",
    "latitude": 10.1607,
    "longitude": -85.38809
  },
  {
    "city": "Santa Ana",
    "city_zh": "聖安娜區",
    "country": "Costa Rica",
    "country_zh": "哥斯大黎加",
    "country_iso_code": "CR",
    "timezone": "America/Costa_Rica",
    "latitude": 9.9326,
    "longitude": -84.18255
  },
  {
    "city": "San Sebastián",
    "city_zh": "San Sebastián",
    "country": "Costa Rica",
    "country_zh": "哥斯大黎加",
    "country_iso_code": "CR",
    "timezone": "America/Costa_Rica",
    "latitude": 9.90933,
    "longitude": -84.08435
  },
  {
    "city": "San Salvador",
    "city_zh": "San Salvador",
    "country": "Costa Rica",
    "country_zh": "哥斯大黎加",
    "country_iso_code": "CR",
    "timezone": "America/Costa_Rica",
    "latitude": 11.16667,
    "longitude": -85.53333
  },
  {
    "city": "San Roque",
    "city_zh": "San Roque",
    "country": "Costa Rica",
    "country_zh": "哥斯大黎加",
    "country_iso_code": "CR",
    "timezone": "America/Costa_Rica",
    "latitude": 10.10295,
    "longitude": -84.43206
  },
  {
    "city": "San Roque",
    "city_zh": "San Roque",
    "country": "Costa Rica",
    "country_zh": "哥斯大黎加",
    "country_iso_code": "CR",
    "timezone": "America/Costa_Rica",
    "latitude": 10.09935,
    "longitude": -84.29824
  },
  {
    "city": "San Roque",
    "city_zh": "San Roque",
    "country": "Costa Rica",
    "country_zh": "哥斯大黎加",
    "country_iso_code": "CR",
    "timezone": "America/Costa_Rica",
    "latitude": 10.01181,
    "longitude": -84.12727
  },
  {
    "city": "San Roque",
    "city_zh": "San Roque",
    "country": "Costa Rica",
    "country_zh": "哥斯大黎加",
    "country_iso_code": "CR",
    "timezone": "America/Costa_Rica",
    "latitude": 10.00553,
    "longitude": -84.6284
  },
  {
    "city": "Río Zapotal",
    "city_zh": "Río Zapotal",
    "country": "Costa Rica",
    "country_zh": "哥斯大黎加",
    "country_iso_code": "CR",
    "timezone": "America/Costa_Rica",
    "latitude": 9.9277,
    "longitude": -85.37464
  },
  {
    "city": "San Ramón Sur",
    "city_zh": "San Ramón Sur",
    "country": "Costa Rica",
    "country_zh": "哥斯大黎加",
    "country_iso_code": "CR",
    "timezone": "America/Costa_Rica",
    "latitude": 9.41489,
    "longitude": -83.7334
  },
  {
    "city": "San Ramón Norte",
    "city_zh": "San Ramón Norte",
    "country": "Costa Rica",
    "country_zh": "哥斯大黎加",
    "country_iso_code": "CR",
    "timezone": "America/Costa_Rica",
    "latitude": 9.43511,
    "longitude": -83.72985
  },
  {
    "city": "San Ramón",
    "city_zh": "San Ramón",
    "country": "Costa Rica",
    "country_zh": "哥斯大黎加",
    "country_iso_code": "CR",
    "timezone": "America/Costa_Rica",
    "latitude": 10.99482,
    "longitude": -85.09265
  },
  {
    "city": "San Ramón",
    "city_zh": "San Ramón",
    "country": "Costa Rica",
    "country_zh": "哥斯大黎加",
    "country_iso_code": "CR",
    "timezone": "America/Costa_Rica",
    "latitude": 10.08802,
    "longitude": -84.47022
  },
  {
    "city": "Río Ora",
    "city_zh": "Río Ora",
    "country": "Costa Rica",
    "country_zh": "哥斯大黎加",
    "country_iso_code": "CR",
    "timezone": "America/Costa_Rica",
    "latitude": 9.94551,
    "longitude": -85.33451
  },
  {
    "city": "San Ramón",
    "city_zh": "San Ramón",
    "country": "Costa Rica",
    "country_zh": "哥斯大黎加",
    "country_iso_code": "CR",
    "timezone": "America/Costa_Rica",
    "latitude": 9.93984,
    "longitude": -83.9904
  },
  {
    "city": "San Ramón de Río Blanco",
    "city_zh": "San Ramón de Río Blanco",
    "country": "Costa Rica",
    "country_zh": "哥斯大黎加",
    "country_iso_code": "CR",
    "timezone": "America/Costa_Rica",
    "latitude": 9.87401,
    "longitude": -85.08772
  },
  {
    "city": "San Ramón",
    "city_zh": "San Ramón",
    "country": "Costa Rica",
    "country_zh": "哥斯大黎加",
    "country_iso_code": "CR",
    "timezone": "America/Costa_Rica",
    "latitude": 9.78333,
    "longitude": -85.1
  },
  {
    "city": "San Ramón",
    "city_zh": "San Ramón",
    "country": "Costa Rica",
    "country_zh": "哥斯大黎加",
    "country_iso_code": "CR",
    "timezone": "America/Costa_Rica",
    "latitude": 9.7435,
    "longitude": -85.11039
  },
  {
    "city": "San Ramón",
    "city_zh": "San Ramón",
    "country": "Costa Rica",
    "country_zh": "哥斯大黎加",
    "country_iso_code": "CR",
    "timezone": "America/Costa_Rica",
    "latitude": 8.84588,
    "longitude": -82.91952
  },
  {
    "city": "San Rafael Sur",
    "city_zh": "San Rafael Sur",
    "country": "Costa Rica",
    "country_zh": "哥斯大黎加",
    "country_iso_code": "CR",
    "timezone": "America/Costa_Rica",
    "latitude": 9.55799,
    "longitude": -84.23931
  },
  {
    "city": "San Rafael Norte",
    "city_zh": "San Rafael Norte",
    "country": "Costa Rica",
    "country_zh": "哥斯大黎加",
    "country_iso_code": "CR",
    "timezone": "America/Costa_Rica",
    "latitude": 9.56021,
    "longitude": -84.22261
  },
  {
    "city": "San Rafael Norte",
    "city_zh": "San Rafael Norte",
    "country": "Costa Rica",
    "country_zh": "哥斯大黎加",
    "country_iso_code": "CR",
    "timezone": "America/Costa_Rica",
    "latitude": 9.4064,
    "longitude": -83.71182
  },
  {
    "city": "San Rafael Arriba",
    "city_zh": "San Rafael Arriba",
    "country": "Costa Rica",
    "country_zh": "哥斯大黎加",
    "country_iso_code": "CR",
    "timezone": "America/Costa_Rica",
    "latitude": 9.87648,
    "longitude": -84.07479
  },
  {
    "city": "San Rafael",
    "city_zh": "San Rafael",
    "country": "Costa Rica",
    "country_zh": "哥斯大黎加",
    "country_iso_code": "CR",
    "timezone": "America/Costa_Rica",
    "latitude": 9.83951,
    "longitude": -84.29042
  },
  {
    "city": "San Rafael Arriba de Leon Cortes",
    "city_zh": "San Rafael Arriba de Leon Cortes",
    "country": "Costa Rica",
    "country_zh": "哥斯大黎加",
    "country_iso_code": "CR",
    "timezone": "America/Costa_Rica",
    "latitude": 9.67041,
    "longitude": -84.11547
  },
  {
    "city": "San Rafael Abajo",
    "city_zh": "San Rafael Abajo",
    "country": "Costa Rica",
    "country_zh": "哥斯大黎加",
    "country_iso_code": "CR",
    "timezone": "America/Costa_Rica",
    "latitude": 9.89261,
    "longitude": -84.08189
  },
  {
    "city": "San Rafael Abajo",
    "city_zh": "San Rafael Abajo",
    "country": "Costa Rica",
    "country_zh": "哥斯大黎加",
    "country_iso_code": "CR",
    "timezone": "America/Costa_Rica",
    "latitude": 9.831,
    "longitude": -84.29008
  },
  {
    "city": "San Rafael Abajo de Leon Cortes",
    "city_zh": "San Rafael Abajo de Leon Cortes",
    "country": "Costa Rica",
    "country_zh": "哥斯大黎加",
    "country_iso_code": "CR",
    "timezone": "America/Costa_Rica",
    "latitude": 9.65331,
    "longitude": -84.10358
  },
  {
    "city": "San Rafael de Guatuso",
    "city_zh": "San Rafael de Guatuso",
    "country": "Costa Rica",
    "country_zh": "哥斯大黎加",
    "country_iso_code": "CR",
    "timezone": "America/Costa_Rica",
    "latitude": 10.67153,
    "longitude": -84.82141
  },
  {
    "city": "San Rafael",
    "city_zh": "San Rafael",
    "country": "Costa Rica",
    "country_zh": "哥斯大黎加",
    "country_iso_code": "CR",
    "timezone": "America/Costa_Rica",
    "latitude": 10.51712,
    "longitude": -84.18459
  },
  {
    "city": "San Rafael",
    "city_zh": "San Rafael",
    "country": "Costa Rica",
    "country_zh": "哥斯大黎加",
    "country_iso_code": "CR",
    "timezone": "America/Costa_Rica",
    "latitude": 10.50463,
    "longitude": -85.57336
  },
  {
    "city": "San Rafael",
    "city_zh": "San Rafael",
    "country": "Costa Rica",
    "country_zh": "哥斯大黎加",
    "country_iso_code": "CR",
    "timezone": "America/Costa_Rica",
    "latitude": 10.42763,
    "longitude": -84.42515
  },
  {
    "city": "San Rafael",
    "city_zh": "San Rafael",
    "country": "Costa Rica",
    "country_zh": "哥斯大黎加",
    "country_iso_code": "CR",
    "timezone": "America/Costa_Rica",
    "latitude": 10.34752,
    "longitude": -84.60188
  },
  {
    "city": "Freeman",
    "city_zh": "Freeman",
    "country": "Costa Rica",
    "country_zh": "哥斯大黎加",
    "country_iso_code": "CR",
    "timezone": "America/Costa_Rica",
    "latitude": 10.20294,
    "longitude": -83.32968
  },
  {
    "city": "San Rafael",
    "city_zh": "San Rafael",
    "country": "Costa Rica",
    "country_zh": "哥斯大黎加",
    "country_iso_code": "CR",
    "timezone": "America/Costa_Rica",
    "latitude": 10.16035,
    "longitude": -84.79943
  },
  {
    "city": "San Rafael",
    "city_zh": "San Rafael",
    "country": "Costa Rica",
    "country_zh": "哥斯大黎加",
    "country_iso_code": "CR",
    "timezone": "America/Costa_Rica",
    "latitude": 10.11681,
    "longitude": -84.38906
  },
  {
    "city": "San Rafael",
    "city_zh": "San Rafael",
    "country": "Costa Rica",
    "country_zh": "哥斯大黎加",
    "country_iso_code": "CR",
    "timezone": "America/Costa_Rica",
    "latitude": 10.09107,
    "longitude": -84.25552
  },
  {
    "city": "San Rafael",
    "city_zh": "San Rafael",
    "country": "Costa Rica",
    "country_zh": "哥斯大黎加",
    "country_iso_code": "CR",
    "timezone": "America/Costa_Rica",
    "latitude": 10.06441,
    "longitude": -84.47361
  },
  {
    "city": "San Rafael",
    "city_zh": "San Rafael",
    "country": "Costa Rica",
    "country_zh": "哥斯大黎加",
    "country_iso_code": "CR",
    "timezone": "America/Costa_Rica",
    "latitude": 10.07234,
    "longitude": -84.20504
  },
  {
    "city": "San Rafael",
    "city_zh": "San Rafael",
    "country": "Costa Rica",
    "country_zh": "哥斯大黎加",
    "country_iso_code": "CR",
    "timezone": "America/Costa_Rica",
    "latitude": 10.05054,
    "longitude": -84.25029
  },
  {
    "city": "San Rafael",
    "city_zh": "San Rafael",
    "country": "Costa Rica",
    "country_zh": "哥斯大黎加",
    "country_iso_code": "CR",
    "timezone": "America/Costa_Rica",
    "latitude": 10.00969,
    "longitude": -85.4372
  },
  {
    "city": "San Rafael",
    "city_zh": "San Rafael",
    "country": "Costa Rica",
    "country_zh": "哥斯大黎加",
    "country_iso_code": "CR",
    "timezone": "America/Costa_Rica",
    "latitude": 10.01817,
    "longitude": -84.09465
  },
  {
    "city": "San Rafael",
    "city_zh": "San Rafael",
    "country": "Costa Rica",
    "country_zh": "哥斯大黎加",
    "country_iso_code": "CR",
    "timezone": "America/Costa_Rica",
    "latitude": 9.97269,
    "longitude": -85.26415
  },
  {
    "city": "San Rafael",
    "city_zh": "San Rafael",
    "country": "Costa Rica",
    "country_zh": "哥斯大黎加",
    "country_iso_code": "CR",
    "timezone": "America/Costa_Rica",
    "latitude": 9.98191,
    "longitude": -84.60829
  },
  {
    "city": "San Rafael",
    "city_zh": "San Rafael",
    "country": "Costa Rica",
    "country_zh": "哥斯大黎加",
    "country_iso_code": "CR",
    "timezone": "America/Costa_Rica",
    "latitude": 9.98151,
    "longitude": -83.98507
  },
  {
    "city": "San Rafael",
    "city_zh": "San Rafael",
    "country": "Costa Rica",
    "country_zh": "哥斯大黎加",
    "country_iso_code": "CR",
    "timezone": "America/Costa_Rica",
    "latitude": 9.92604,
    "longitude": -84.17714
  },
  {
    "city": "San Rafael",
    "city_zh": "San Rafael",
    "country": "Costa Rica",
    "country_zh": "哥斯大黎加",
    "country_iso_code": "CR",
    "timezone": "America/Costa_Rica",
    "latitude": 9.92826,
    "longitude": -84.13537
  },
  {
    "city": "San Rafael",
    "city_zh": "San Rafael",
    "country": "Costa Rica",
    "country_zh": "哥斯大黎加",
    "country_iso_code": "CR",
    "timezone": "America/Costa_Rica",
    "latitude": 9.90823,
    "longitude": -83.97652
  },
  {
    "city": "San Rafael",
    "city_zh": "San Rafael",
    "country": "Costa Rica",
    "country_zh": "哥斯大黎加",
    "country_iso_code": "CR",
    "timezone": "America/Costa_Rica",
    "latitude": 9.88984,
    "longitude": -85.16784
  },
  {
    "city": "San Rafael",
    "city_zh": "San Rafael",
    "country": "Costa Rica",
    "country_zh": "哥斯大黎加",
    "country_iso_code": "CR",
    "timezone": "America/Costa_Rica",
    "latitude": 9.86895,
    "longitude": -83.9041
  },
  {
    "city": "San Rafael",
    "city_zh": "San Rafael",
    "country": "Costa Rica",
    "country_zh": "哥斯大黎加",
    "country_iso_code": "CR",
    "timezone": "America/Costa_Rica",
    "latitude": 9.81184,
    "longitude": -84.46678
  },
  {
    "city": "San Rafael",
    "city_zh": "San Rafael",
    "country": "Costa Rica",
    "country_zh": "哥斯大黎加",
    "country_iso_code": "CR",
    "timezone": "America/Costa_Rica",
    "latitude": 9.80364,
    "longitude": -84.98324
  },
  {
    "city": "San Rafael",
    "city_zh": "San Rafael",
    "country": "Costa Rica",
    "country_zh": "哥斯大黎加",
    "country_iso_code": "CR",
    "timezone": "America/Costa_Rica",
    "latitude": 9.80421,
    "longitude": -83.52396
  },
  {
    "city": "San Rafael",
    "city_zh": "San Rafael",
    "country": "Costa Rica",
    "country_zh": "哥斯大黎加",
    "country_iso_code": "CR",
    "timezone": "America/Costa_Rica",
    "latitude": 9.76496,
    "longitude": -83.8273
  },
  {
    "city": "San Rafael",
    "city_zh": "San Rafael",
    "country": "Costa Rica",
    "country_zh": "哥斯大黎加",
    "country_iso_code": "CR",
    "timezone": "America/Costa_Rica",
    "latitude": 9.66226,
    "longitude": -83.97124
  },
  {
    "city": "San Rafael",
    "city_zh": "San Rafael",
    "country": "Costa Rica",
    "country_zh": "哥斯大黎加",
    "country_iso_code": "CR",
    "timezone": "America/Costa_Rica",
    "latitude": 9.50873,
    "longitude": -84.17963
  },
  {
    "city": "San Rafael",
    "city_zh": "San Rafael",
    "country": "Costa Rica",
    "country_zh": "哥斯大黎加",
    "country_iso_code": "CR",
    "timezone": "America/Costa_Rica",
    "latitude": 9.31541,
    "longitude": -83.52217
  },
  {
    "city": "San Rafael",
    "city_zh": "San Rafael",
    "country": "Costa Rica",
    "country_zh": "哥斯大黎加",
    "country_iso_code": "CR",
    "timezone": "America/Costa_Rica",
    "latitude": 9.22663,
    "longitude": -83.3829
  },
  {
    "city": "San Rafael",
    "city_zh": "San Rafael",
    "country": "Costa Rica",
    "country_zh": "哥斯大黎加",
    "country_iso_code": "CR",
    "timezone": "America/Costa_Rica",
    "latitude": 9.20698,
    "longitude": -83.64298
  },
  {
    "city": "San Pedro",
    "city_zh": "San Pedro",
    "country": "Costa Rica",
    "country_zh": "哥斯大黎加",
    "country_iso_code": "CR",
    "timezone": "America/Costa_Rica",
    "latitude": 10.66575,
    "longitude": -85.23582
  },
  {
    "city": "San Pedro",
    "city_zh": "San Pedro",
    "country": "Costa Rica",
    "country_zh": "哥斯大黎加",
    "country_iso_code": "CR",
    "timezone": "America/Costa_Rica",
    "latitude": 10.3728,
    "longitude": -84.58155
  },
  {
    "city": "San Pedro",
    "city_zh": "San Pedro",
    "country": "Costa Rica",
    "country_zh": "哥斯大黎加",
    "country_iso_code": "CR",
    "timezone": "America/Costa_Rica",
    "latitude": 10.27275,
    "longitude": -85.67445
  },
  {
    "city": "San Pedro",
    "city_zh": "San Pedro",
    "country": "Costa Rica",
    "country_zh": "哥斯大黎加",
    "country_iso_code": "CR",
    "timezone": "America/Costa_Rica",
    "latitude": 10.112,
    "longitude": -84.3284
  },
  {
    "city": "San Pedro",
    "city_zh": "San Pedro",
    "country": "Costa Rica",
    "country_zh": "哥斯大黎加",
    "country_iso_code": "CR",
    "timezone": "America/Costa_Rica",
    "latitude": 10.0771,
    "longitude": -84.50901
  },
  {
    "city": "San Pedro",
    "city_zh": "San Pedro",
    "country": "Costa Rica",
    "country_zh": "哥斯大黎加",
    "country_iso_code": "CR",
    "timezone": "America/Costa_Rica",
    "latitude": 10.07911,
    "longitude": -84.24788
  },
  {
    "city": "San Pedro",
    "city_zh": "San Pedro",
    "country": "Costa Rica",
    "country_zh": "哥斯大黎加",
    "country_iso_code": "CR",
    "timezone": "America/Costa_Rica",
    "latitude": 9.98858,
    "longitude": -83.98687
  },
  {
    "city": "San Pedro",
    "city_zh": "San Pedro",
    "country": "Costa Rica",
    "country_zh": "哥斯大黎加",
    "country_iso_code": "CR",
    "timezone": "America/Costa_Rica",
    "latitude": 9.95531,
    "longitude": -85.14344
  },
  {
    "city": "San Pedro",
    "city_zh": "San Pedro",
    "country": "Costa Rica",
    "country_zh": "哥斯大黎加",
    "country_iso_code": "CR",
    "timezone": "America/Costa_Rica",
    "latitude": 9.9545,
    "longitude": -84.1522
  },
  {
    "city": "San Pedro",
    "city_zh": "San Pedro",
    "country": "Costa Rica",
    "country_zh": "哥斯大黎加",
    "country_iso_code": "CR",
    "timezone": "America/Costa_Rica",
    "latitude": 9.92829,
    "longitude": -84.05074
  },
  {
    "city": "San Pedro",
    "city_zh": "San Pedro",
    "country": "Costa Rica",
    "country_zh": "哥斯大黎加",
    "country_iso_code": "CR",
    "timezone": "America/Costa_Rica",
    "latitude": 9.90949,
    "longitude": -85.37909
  },
  {
    "city": "San Pedro",
    "city_zh": "San Pedro",
    "country": "Costa Rica",
    "country_zh": "哥斯大黎加",
    "country_iso_code": "CR",
    "timezone": "America/Costa_Rica",
    "latitude": 9.87762,
    "longitude": -84.4451
  },
  {
    "city": "San Pedro",
    "city_zh": "San Pedro",
    "country": "Costa Rica",
    "country_zh": "哥斯大黎加",
    "country_iso_code": "CR",
    "timezone": "America/Costa_Rica",
    "latitude": 9.66832,
    "longitude": -83.99583
  },
  {
    "city": "San Pedro",
    "city_zh": "San Pedro",
    "country": "Costa Rica",
    "country_zh": "哥斯大黎加",
    "country_iso_code": "CR",
    "timezone": "America/Costa_Rica",
    "latitude": 9.2801,
    "longitude": -83.55059
  },
  {
    "city": "San Pedrito",
    "city_zh": "San Pedrito",
    "country": "Costa Rica",
    "country_zh": "哥斯大黎加",
    "country_iso_code": "CR",
    "timezone": "America/Costa_Rica",
    "latitude": 9.3117,
    "longitude": -83.566
  },
  {
    "city": "San Pedrillo",
    "city_zh": "San Pedrillo",
    "country": "Costa Rica",
    "country_zh": "哥斯大黎加",
    "country_iso_code": "CR",
    "timezone": "America/Costa_Rica",
    "latitude": 8.62087,
    "longitude": -83.73466
  },
  {
    "city": "San Pablo",
    "city_zh": "San Pablo",
    "country": "Costa Rica",
    "country_zh": "哥斯大黎加",
    "country_iso_code": "CR",
    "timezone": "America/Costa_Rica",
    "latitude": 10.02953,
    "longitude": -85.23293
  },
  {
    "city": "San Pablo",
    "city_zh": "San Pablo",
    "country": "Costa Rica",
    "country_zh": "哥斯大黎加",
    "country_iso_code": "CR",
    "timezone": "America/Costa_Rica",
    "latitude": 9.99559,
    "longitude": -84.09656
  },
  {
    "city": "San Pablo",
    "city_zh": "San Pablo",
    "country": "Costa Rica",
    "country_zh": "哥斯大黎加",
    "country_iso_code": "CR",
    "timezone": "America/Costa_Rica",
    "latitude": 9.96667,
    "longitude": -83.83333
  },
  {
    "city": "San Pablo",
    "city_zh": "San Pablo",
    "country": "Costa Rica",
    "country_zh": "哥斯大黎加",
    "country_iso_code": "CR",
    "timezone": "America/Costa_Rica",
    "latitude": 9.90866,
    "longitude": -84.44024
  },
  {
    "city": "San Pablo",
    "city_zh": "San Pablo",
    "country": "Costa Rica",
    "country_zh": "哥斯大黎加",
    "country_iso_code": "CR",
    "timezone": "America/Costa_Rica",
    "latitude": 9.68323,
    "longitude": -84.0405
  },
  {
    "city": "San Pablo",
    "city_zh": "San Pablo",
    "country": "Costa Rica",
    "country_zh": "哥斯大黎加",
    "country_iso_code": "CR",
    "timezone": "America/Costa_Rica",
    "latitude": 9.2186,
    "longitude": -83.61647
  },
  {
    "city": "San Pablito",
    "city_zh": "San Pablito",
    "country": "Costa Rica",
    "country_zh": "哥斯大黎加",
    "country_iso_code": "CR",
    "timezone": "America/Costa_Rica",
    "latitude": 9.20293,
    "longitude": -83.6153
  },
  {
    "city": "San Miguel Norte",
    "city_zh": "San Miguel Norte",
    "country": "Costa Rica",
    "country_zh": "哥斯大黎加",
    "country_iso_code": "CR",
    "timezone": "America/Costa_Rica",
    "latitude": 9.988,
    "longitude": -84.05849
  },
  {
    "city": "San Miguel",
    "city_zh": "San Miguel",
    "country": "Costa Rica",
    "country_zh": "哥斯大黎加",
    "country_iso_code": "CR",
    "timezone": "America/Costa_Rica",
    "latitude": 10.41071,
    "longitude": -84.92795
  },
  {
    "city": "San Miguel",
    "city_zh": "San Miguel",
    "country": "Costa Rica",
    "country_zh": "哥斯大黎加",
    "country_iso_code": "CR",
    "timezone": "America/Costa_Rica",
    "latitude": 10.35362,
    "longitude": -85.07911
  },
  {
    "city": "San Miguel",
    "city_zh": "San Miguel",
    "country": "Costa Rica",
    "country_zh": "哥斯大黎加",
    "country_iso_code": "CR",
    "timezone": "America/Costa_Rica",
    "latitude": 10.31833,
    "longitude": -84.17973
  },
  {
    "city": "San Miguel",
    "city_zh": "San Miguel",
    "country": "Costa Rica",
    "country_zh": "哥斯大黎加",
    "country_iso_code": "CR",
    "timezone": "America/Costa_Rica",
    "latitude": 10.11439,
    "longitude": -84.51625
  },