[
  {
    "city": "Zenón Videla Dorna",
    "city_zh": "Zenón Videla Dorna",
    "country": "Argentina",
    "country_zh": "阿根廷",
    "country_iso_code": "AR",
    "timezone": "America/Argentina/Buenos_Aires",
    "latitude": -35.54208,
    "longitude": -58.88645
  },
  {
    "city": "Zenón Roca",
    "city_zh": "Zenón Roca",
    "country": "Argentina",
    "country_zh": "阿根廷",
    "country_iso_code": "AR",
    "timezone": "America/Argentina/Cordoba",
    "latitude": -31.54708,
    "longitude": -58.77304
  },
  {
    "city": "Zelaya",
    "city_zh": "Zelaya",
    "country": "Argentina",
    "country_zh": "阿根廷",
    "country_iso_code": "AR",
    "timezone": "America/Argentina/Buenos_Aires",
    "latitude": -34.37052,
    "longitude": -58.86938
  },
  {
    "city": "Zárate",
    "city_zh": "萨拉特",
    "country": "Argentina",
    "country_zh": "阿根廷",
    "country_iso_code": "AR",
    "timezone": "America/Argentina/Buenos_Aires",
    "latitude": -34.09584,
    "longitude": -59.02423
  },
  {
    "city": "Zapiola",
    "city_zh": "Zapiola",
    "country": "Argentina",
    "country_zh": "阿根廷",
    "country_iso_code": "AR",
    "timezone": "America/Argentina/Buenos_Aires",
    "latitude": -35.05976,
    "longitude": -59.04057
  },
  {
    "city": "Yuru Cuá",
    "city_zh": "Yuru Cuá",
    "country": "Argentina",
    "country_zh": "阿根廷",
    "country_iso_code": "AR",
    "timezone": "America/Argentina/Cordoba",
    "latitude": -28.71977,
    "longitude": -56.83918
  },
  {
    "city": "Santa Clara",
    "city_zh": "Santa Clara",
    "country": "Argentina",
    "country_zh": "阿根廷",
    "country_iso_code": "AR",
    "timezone": "America/Argentina/Cordoba",
    "latitude": -29.06378,
    "longitude": -57.7569
  },
  {
    "city": "Estación Yuquerí",
    "city_zh": "Estación Yuquerí",
    "country": "Argentina",
    "country_zh": "阿根廷",
    "country_iso_code": "AR",
    "timezone": "America/Argentina/Cordoba",
    "latitude": -31.39738,
    "longitude": -58.1618
  },
  {
    "city": "Yuquerí",
    "city_zh": "Yuquerí",
    "country": "Argentina",
    "country_zh": "阿根廷",
    "country_iso_code": "AR",
    "timezone": "America/Argentina/Cordoba",
    "latitude": -28.87783,
    "longitude": -58.03865
  },
  {
    "city": "Yraizoz",
    "city_zh": "Yraizoz",
    "country": "Argentina",
    "country_zh": "阿根廷",
    "country_iso_code": "AR",
    "timezone": "America/Argentina/Buenos_Aires",
    "latitude": -38.13906,
    "longitude": -57.98618
  },
  {
    "city": "Yeso Oeste",
    "city_zh": "Yeso Oeste",
    "country": "Argentina",
    "country_zh": "阿根廷",
    "country_iso_code": "AR",
    "timezone": "America/Argentina/Cordoba",
    "latitude": -30.93699,
    "longitude": -59.46712
  },
  {
    "city": "Estación Yeruá",
    "city_zh": "Estación Yeruá",
    "country": "Argentina",
    "country_zh": "阿根廷",
    "country_iso_code": "AR",
    "timezone": "America/Argentina/Cordoba",
    "latitude": -31.47089,
    "longitude": -58.26423
  },
  {
    "city": "Yerbal Viejo",
    "city_zh": "Yerbal Viejo",
    "country": "Argentina",
    "country_zh": "阿根廷",
    "country_iso_code": "AR",
    "timezone": "America/Argentina/Cordoba",
    "latitude": -27.49279,
    "longitude": -55.1703
  },
  {
    "city": "San Juan",
    "city_zh": "San Juan",
    "country": "Argentina",
    "country_zh": "阿根廷",
    "country_iso_code": "AR",
    "timezone": "America/Argentina/Cordoba",
    "latitude": -28.03992,
    "longitude": -55.85553
  },
  {
    "city": "Yatay Corá",
    "city_zh": "Yatay Corá",
    "country": "Argentina",
    "country_zh": "阿根廷",
    "country_iso_code": "AR",
    "timezone": "America/Argentina/Cordoba",
    "latitude": -28.65886,
    "longitude": -58.22035
  },
  {
    "city": "Yatayti Calle",
    "city_zh": "Yatayti Calle",
    "country": "Argentina",
    "country_zh": "阿根廷",
    "country_iso_code": "AR",
    "timezone": "America/Argentina/Cordoba",
    "latitude": -29.02831,
    "longitude": -58.9123
  },
  {
    "city": "Yaros",
    "city_zh": "Yaros",
    "country": "Argentina",
    "country_zh": "阿根廷",
    "country_iso_code": "AR",
    "timezone": "America/Argentina/Cordoba",
    "latitude": -31.08333,
    "longitude": -58.38333
  },
  {
    "city": "Yapeyú",
    "city_zh": "Yapeyú",
    "country": "Argentina",
    "country_zh": "阿根廷",
    "country_iso_code": "AR",
    "timezone": "America/Argentina/Cordoba",
    "latitude": -29.46907,
    "longitude": -56.81837
  },
  {
    "city": "Paraje Yamahuida",
    "city_zh": "Paraje Yamahuida",
    "country": "Argentina",
    "country_zh": "阿根廷",
    "country_iso_code": "AR",
    "timezone": "America/Argentina/Buenos_Aires",
    "latitude": -36.85378,
    "longitude": -57.67443
  },
  {
    "city": "Yahapé",
    "city_zh": "Yahapé",
    "country": "Argentina",
    "country_zh": "阿根廷",
    "country_iso_code": "AR",
    "timezone": "America/Argentina/Cordoba",
    "latitude": -27.37274,
    "longitude": -57.65524
  },
  {
    "city": "Wilde",
    "city_zh": "懷爾德",
    "country": "Argentina",
    "country_zh": "阿根廷",
    "country_iso_code": "AR",
    "timezone": "America/Argentina/Buenos_Aires",
    "latitude": -34.70411,
    "longitude": -58.31727
  },
  {
    "city": "Colonia Wanda",
    "city_zh": "Colonia Wanda",
    "country": "Argentina",
    "country_zh": "阿根廷",
    "country_iso_code": "AR",
    "timezone": "America/Argentina/Cordoba",
    "latitude": -25.97337,
    "longitude": -54.56304
  },
  {
    "city": "Walter Moss",
    "city_zh": "Walter Moss",
    "country": "Argentina",
    "country_zh": "阿根廷",
    "country_iso_code": "AR",
    "timezone": "America/Argentina/Cordoba",
    "latitude": -31.40414,
    "longitude": -58.53565
  },
  {
    "city": "Vuelta de Obligado",
    "city_zh": "Vuelta de Obligado",
    "country": "Argentina",
    "country_zh": "阿根廷",
    "country_iso_code": "AR",
    "timezone": "America/Argentina/Buenos_Aires",
    "latitude": -33.59511,
    "longitude": -59.81596
  },
  {
    "city": "Vivoratá",
    "city_zh": "Vivoratá",
    "country": "Argentina",
    "country_zh": "阿根廷",
    "country_iso_code": "AR",
    "timezone": "America/Argentina/Buenos_Aires",
    "latitude": -37.66316,
    "longitude": -57.66812
  },
  {
    "city": "Vista Alegre",
    "city_zh": "Vista Alegre",
    "country": "Argentina",
    "country_zh": "阿根廷",
    "country_iso_code": "AR",
    "timezone": "America/Argentina/Cordoba",
    "latitude": -25.0182,
    "longitude": -58.57116
  },
  {
    "city": "Virreyes",
    "city_zh": "Virreyes",
    "country": "Argentina",
    "country_zh": "阿根廷",
    "country_iso_code": "AR",
    "timezone": "America/Argentina/Buenos_Aires",
    "latitude": -34.46326,
    "longitude": -58.57464
  },
  {
    "city": "Colonia Viraró",
    "city_zh": "Colonia Viraró",
    "country": "Argentina",
    "country_zh": "阿根廷",
    "country_iso_code": "AR",
    "timezone": "America/Argentina/Cordoba",
    "latitude": -31.29097,
    "longitude": -59.42773
  },
  {
    "city": "Villa Zorraquín",
    "city_zh": "Villa Zorraquín",
    "country": "Argentina",
    "country_zh": "阿根廷",
    "country_iso_code": "AR",
    "timezone": "America/Argentina/Cordoba",
    "latitude": -31.32185,
    "longitude": -58.01448
  },
  {
    "city": "Villa Zagala",
    "city_zh": "Villa Zagala",
    "country": "Argentina",
    "country_zh": "阿根廷",
    "country_iso_code": "AR",
    "timezone": "America/Argentina/Buenos_Aires",
    "latitude": -34.55125,
    "longitude": -58.53768
  },
  {
    "city": "Villa Vilma",
    "city_zh": "Villa Vilma",
    "country": "Argentina",
    "country_zh": "阿根廷",
    "country_iso_code": "AR",
    "timezone": "America/Argentina/Cordoba",
    "latitude": -27.31748,
    "longitude": -54.60887
  },
  {
    "city": "Villa Svea",
    "city_zh": "Villa Svea",
    "country": "Argentina",
    "country_zh": "阿根廷",
    "country_iso_code": "AR",
    "timezone": "America/Argentina/Cordoba",
    "latitude": -27.48617,
    "longitude": -55.14633
  },
  {
    "city": "Villa Soldati",
    "city_zh": "Villa Soldati",
    "country": "Argentina",
    "country_zh": "阿根廷",
    "country_iso_code": "AR",
    "timezone": "America/Argentina/Buenos_Aires",
    "latitude": -34.66072,
    "longitude": -58.44387
  },
  {
    "city": "Villa Sarmiento",
    "city_zh": "Villa Sarmiento",
    "country": "Argentina",
    "country_zh": "阿根廷",
    "country_iso_code": "AR",
    "timezone": "America/Argentina/Buenos_Aires",
    "latitude": -34.70125,
    "longitude": -58.38319
  },
  {
    "city": "Villa San Pedro",
    "city_zh": "Villa San Pedro",
    "country": "Argentina",
    "country_zh": "阿根廷",
    "country_iso_code": "AR",
    "timezone": "America/Argentina/Buenos_Aires",
    "latitude": -36.79467,
    "longitude": -59.0497
  },
  {
    "city": "Villa San Marcial",
    "city_zh": "Villa San Marcial",
    "country": "Argentina",
    "country_zh": "阿根廷",
    "country_iso_code": "AR",
    "timezone": "America/Argentina/Cordoba",
    "latitude": -32.18017,
    "longitude": -58.93032
  },
  {
    "city": "San José",
    "city_zh": "San José",
    "country": "Argentina",
    "country_zh": "阿根廷",
    "country_iso_code": "AR",
    "timezone": "America/Argentina/Cordoba",
    "latitude": -32.21237,
    "longitude": -58.21912
  },
  {
    "city": "Villa Sanguinetti",
    "city_zh": "Villa Sanguinetti",
    "country": "Argentina",
    "country_zh": "阿根廷",
    "country_iso_code": "AR",
    "timezone": "America/Argentina/Buenos_Aires",
    "latitude": -34.64964,
    "longitude": -58.75587
  },
  {
    "city": "Villa San Gregorio",
    "city_zh": "Villa San Gregorio",
    "country": "Argentina",
    "country_zh": "阿根廷",
    "country_iso_code": "AR",
    "timezone": "America/Argentina/Cordoba",
    "latitude": -28.1,
    "longitude": -55.88333
  },
  {
    "city": "Villa San Francisco",
    "city_zh": "Villa San Francisco",
    "country": "Argentina",
    "country_zh": "阿根廷",
    "country_iso_code": "AR",
    "timezone": "America/Argentina/Buenos_Aires",
    "latitude": -34.77233,
    "longitude": -58.20366
  },
  {
    "city": "Villa Rural",
    "city_zh": "Villa Rural",
    "country": "Argentina",
    "country_zh": "阿根廷",
    "country_iso_code": "AR",
    "timezone": "America/Argentina/Cordoba",
    "latitude": -27.78333,
    "longitude": -55.23333
  },
  {
    "city": "Villars",
    "city_zh": "Villars",
    "country": "Argentina",
    "country_zh": "阿根廷",
    "country_iso_code": "AR",
    "timezone": "America/Argentina/Buenos_Aires",
    "latitude": -34.82664,
    "longitude": -58.93955
  },
  {
    "city": "Villa Rosa",
    "city_zh": "Villa Rosa",
    "country": "Argentina",
    "country_zh": "阿根廷",
    "country_iso_code": "AR",
    "timezone": "America/Argentina/Buenos_Aires",
    "latitude": -34.41703,
    "longitude": -58.87031
  },
  {
    "city": "Villa Riachuelo",
    "city_zh": "Villa Riachuelo",
    "country": "Argentina",
    "country_zh": "阿根廷",
    "country_iso_code": "AR",
    "timezone": "America/Argentina/Buenos_Aires",
    "latitude": -34.68967,
    "longitude": -58.47132
  },
  {
    "city": "Villa Laguna La Brava",
    "city_zh": "Villa Laguna La Brava",
    "country": "Argentina",
    "country_zh": "阿根廷",
    "country_iso_code": "AR",
    "timezone": "America/Argentina/Buenos_Aires",
    "latitude": -37.86122,
    "longitude": -57.98101
  },
  {
    "city": "Villa Reichembach",
    "city_zh": "Villa Reichembach",
    "country": "Argentina",
    "country_zh": "阿根廷",
    "country_iso_code": "AR",
    "timezone": "America/Argentina/Buenos_Aires",
    "latitude": -34.6558,
    "longitude": -58.69997
  },
  {
    "city": "Villa Recondo",
    "city_zh": "Villa Recondo",
    "country": "Argentina",
    "country_zh": "阿根廷",
    "country_iso_code": "AR",
    "timezone": "America/Argentina/Buenos_Aires",
    "latitude": -34.70576,
    "longitude": -58.4761
  },
  {
    "city": "Villa Real",
    "city_zh": "Villa Real",
    "country": "Argentina",
    "country_zh": "阿根廷",
    "country_iso_code": "AR",
    "timezone": "America/Argentina/Buenos_Aires",
    "latitude": -34.62077,
    "longitude": -58.5224
  },
  {
    "city": "Villa Real",
    "city_zh": "Villa Real",
    "country": "Argentina",
    "country_zh": "阿根廷",
    "country_iso_code": "AR",
    "timezone": "America/Argentina/Cordoba",
    "latitude": -25.04863,
    "longitude": -58.55477
  },
  {
    "city": "Villa Progreso",
    "city_zh": "Villa Progreso",
    "country": "Argentina",
    "country_zh": "阿根廷",
    "country_iso_code": "AR",
    "timezone": "America/Argentina/Buenos_Aires",
    "latitude": -34.59097,
    "longitude": -58.52773
  },
  {
    "city": "Villa Paranacito",
    "city_zh": "Villa Paranacito",
    "country": "Argentina",
    "country_zh": "阿根廷",
    "country_iso_code": "AR",
    "timezone": "America/Argentina/Cordoba",
    "latitude": -33.71381,
    "longitude": -58.65844
  },
  {
    "city": "Villa Ortúzar",
    "city_zh": "Villa Ortúzar",
    "country": "Argentina",
    "country_zh": "阿根廷",
    "country_iso_code": "AR",
    "timezone": "America/Argentina/Buenos_Aires",
    "latitude": -34.57973,
    "longitude": -58.46829
  },
  {
    "city": "Villa Ocampo",
    "city_zh": "Villa Ocampo",
    "country": "Argentina",
    "country_zh": "阿根廷",
    "country_iso_code": "AR",
    "timezone": "America/Argentina/Cordoba",
    "latitude": -28.48689,
    "longitude": -59.35423
  },
  {
    "city": "Villa Numancia",
    "city_zh": "Villa Numancia",
    "country": "Argentina",
    "country_zh": "阿根廷",
    "country_iso_code": "AR",
    "timezone": "America/Argentina/Buenos_Aires",
    "latitude": -34.91902,
    "longitude": -58.40982
  },
  {
    "city": "Villa Nueva Montevideo",
    "city_zh": "Villa Nueva Montevideo",
    "country": "Argentina",
    "country_zh": "阿根廷",
    "country_iso_code": "AR",
    "timezone": "America/Argentina/Cordoba",
    "latitude": -32.5258,
    "longitude": -58.93459
  },
  {
    "city": "Villanueva",
    "city_zh": "Villanueva",
    "country": "Argentina",
    "country_zh": "阿根廷",
    "country_iso_code": "AR",
    "timezone": "America/Argentina/Buenos_Aires",
    "latitude": -35.67531,
    "longitude": -58.43388
  },
  {
    "city": "Villa Mitre",
    "city_zh": "Villa Mitre",
    "country": "Argentina",
    "country_zh": "阿根廷",
    "country_iso_code": "AR",
    "timezone": "America/Argentina/Buenos_Aires",
    "latitude": -35.05752,
    "longitude": -58.14983
  },
  {
    "city": "Villa Martínez de Hoz",
    "city_zh": "Villa Martínez de Hoz",
    "country": "Argentina",
    "country_zh": "阿根廷",
    "country_iso_code": "AR",
    "timezone": "America/Argentina/Buenos_Aires",
    "latitude": -34.62364,
    "longitude": -58.58135
  },
  {
    "city": "Villa Martín Arín",
    "city_zh": "Villa Martín Arín",
    "country": "Argentina",
    "country_zh": "阿根廷",
    "country_iso_code": "AR",
    "timezone": "America/Argentina/Buenos_Aires",
    "latitude": -34.78015,
    "longitude": -58.35755
  },
  {
    "city": "María Grande",
    "city_zh": "María Grande",
    "country": "Argentina",
    "country_zh": "阿根廷",
    "country_iso_code": "AR",
    "timezone": "America/Argentina/Cordoba",
    "latitude": -31.66503,
    "longitude": -59.89969
  },
  {
    "city": "Villa Mantero",
    "city_zh": "Villa Mantero",
    "country": "Argentina",
    "country_zh": "阿根廷",
    "country_iso_code": "AR",
    "timezone": "America/Argentina/Cordoba",
    "latitude": -32.39837,
    "longitude": -58.74607
  },
  {
    "city": "Villa Eduardo Madero",
    "city_zh": "Villa Eduardo Madero",
    "country": "Argentina",
    "country_zh": "阿根廷",
    "country_iso_code": "AR",
    "timezone": "America/Argentina/Buenos_Aires",
    "latitude": -34.68801,
    "longitude": -58.49329
  },
  {
    "city": "Villa Luzuriaga",
    "city_zh": "Villa Luzuriaga",
    "country": "Argentina",
    "country_zh": "阿根廷",
    "country_iso_code": "AR",
    "timezone": "America/Argentina/Buenos_Aires",
    "latitude": -34.66354,
    "longitude": -58.58241
  },
  {
    "city": "Villa Luro",
    "city_zh": "Villa Luro",
    "country": "Argentina",
    "country_zh": "阿根廷",
    "country_iso_code": "AR",
    "timezone": "America/Argentina/Buenos_Aires",
    "latitude": -34.63814,
    "longitude": -58.50273
  },
  {
    "city": "Villa Lugano",
    "city_zh": "Villa Lugano",
    "country": "Argentina",
    "country_zh": "阿根廷",
    "country_iso_code": "AR",
    "timezone": "America/Argentina/Buenos_Aires",
    "latitude": -34.67907,
    "longitude": -58.47263
  },
  {
    "city": "Villa Lonca",
    "city_zh": "Villa Lonca",
    "country": "Argentina",
    "country_zh": "阿根廷",
    "country_iso_code": "AR",
    "timezone": "America/Argentina/Cordoba",
    "latitude": -27.45668,
    "longitude": -55.85944
  },
  {
    "city": "Villa Lila",
    "city_zh": "Villa Lila",
    "country": "Argentina",
    "country_zh": "阿根廷",
    "country_iso_code": "AR",
    "timezone": "America/Argentina/Cordoba",
    "latitude": -33.13089,
    "longitude": -58.76521
  },
  {
    "city": "Villa Libertad",
    "city_zh": "Villa Libertad",
    "country": "Argentina",
    "country_zh": "阿根廷",
    "country_iso_code": "AR",
    "timezone": "America/Argentina/Buenos_Aires",
    "latitude": -34.58429,
    "longitude": -58.5626
  },
  {
    "city": "Villa Lía",
    "city_zh": "Villa Lía",
    "country": "Argentina",
    "country_zh": "阿根廷",
    "country_iso_code": "AR",
    "timezone": "America/Argentina/Buenos_Aires",
    "latitude": -34.12316,
    "longitude": -59.43051
  },
  {
    "city": "Villa León",
    "city_zh": "Villa León",
    "country": "Argentina",
    "country_zh": "阿根廷",
    "country_iso_code": "AR",
    "timezone": "America/Argentina/Buenos_Aires",
    "latitude": -34.6359,
    "longitude": -58.70186
  },
  {
    "city": "Villa Leloir",
    "city_zh": "Villa Leloir",
    "country": "Argentina",
    "country_zh": "阿根廷",
    "country_iso_code": "AR",
    "timezone": "America/Argentina/Buenos_Aires",
    "latitude": -34.61358,
    "longitude": -58.6803
  },
  {
    "city": "Villa Lamadrid",
    "city_zh": "Villa Lamadrid",
    "country": "Argentina",
    "country_zh": "阿根廷",
    "country_iso_code": "AR",
    "timezone": "America/Argentina/Buenos_Aires",
    "latitude": -34.66667,
    "longitude": -58.51667
  },
  {
    "city": "Villa Insuperable",
    "city_zh": "Villa Insuperable",
    "country": "Argentina",
    "country_zh": "阿根廷",
    "country_iso_code": "AR",
    "timezone": "America/Argentina/Buenos_Aires",
    "latitude": -34.67083,
    "longitude": -58.51105
  },
  {
    "city": "Villa Iglesias",
    "city_zh": "Villa Iglesias",
    "country": "Argentina",
    "country_zh": "阿根廷",
    "country_iso_code": "AR",
    "timezone": "America/Argentina/Buenos_Aires",
    "latitude": -34.51623,
    "longitude": -58.74919
  },
  {
    "city": "Villa Hogar Alemán",
    "city_zh": "Villa Hogar Alemán",
    "country": "Argentina",
    "country_zh": "阿根廷",
    "country_iso_code": "AR",
    "timezone": "America/Argentina/Buenos_Aires",
    "latitude": -34.83333,
    "longitude": -58.43333
  },
  {
    "city": "Villa Hernandarias",
    "city_zh": "Villa Hernandarias",
    "country": "Argentina",
    "country_zh": "阿根廷",
    "country_iso_code": "AR",
    "timezone": "America/Argentina/Cordoba",
    "latitude": -31.23097,
    "longitude": -59.98464
  },
  {
    "city": "Villa Guntz",
    "city_zh": "Villa Guntz",
    "country": "Argentina",
    "country_zh": "阿根廷",
    "country_iso_code": "AR",
    "timezone": "America/Argentina/Cordoba",
    "latitude": -27.48713,
    "longitude": -55.09515
  },
  {
    "city": "Villa Guillermina",
    "city_zh": "Villa Guillermina",
    "country": "Argentina",
    "country_zh": "阿根廷",
    "country_iso_code": "AR",
    "timezone": "America/Argentina/Cordoba",
    "latitude": -28.24258,
    "longitude": -59.45446
  },
  {
    "city": "Villaguay",
    "city_zh": "Villaguay",
    "country": "Argentina",
    "country_zh": "阿根廷",
    "country_iso_code": "AR",
    "timezone": "America/Argentina/Cordoba",
    "latitude": -31.86767,
    "longitude": -59.02701
  },
  {
    "city": "Villa Giambruno",
    "city_zh": "Villa Giambruno",
    "country": "Argentina",
    "country_zh": "阿根廷",
    "country_iso_code": "AR",
    "timezone": "America/Argentina/Buenos_Aires",
    "latitude": -34.80336,
    "longitude": -58.2095
  },
  {
    "city": "Villa Gesell",
    "city_zh": "Villa Gesell",
    "country": "Argentina",
    "country_zh": "阿根廷",
    "country_iso_code": "AR",
    "timezone": "America/Argentina/Buenos_Aires",
    "latitude": -37.26394,
    "longitude": -56.97304
  },
  {
    "city": "Villa General Mitre",
    "city_zh": "Villa General Mitre",
    "country": "Argentina",
    "country_zh": "阿根廷",
    "country_iso_code": "AR",
    "timezone": "America/Argentina/Buenos_Aires",
    "latitude": -34.61039,
    "longitude": -58.47173
  },
  {
    "city": "Villa Garibaldi",
    "city_zh": "Villa Garibaldi",
    "country": "Argentina",
    "country_zh": "阿根廷",
    "country_iso_code": "AR",
    "timezone": "America/Argentina/Buenos_Aires",
    "latitude": -34.99994,
    "longitude": -57.85877
  },
  {
    "city": "Villa Galicia",
    "city_zh": "Villa Galicia",
    "country": "Argentina",
    "country_zh": "阿根廷",
    "country_iso_code": "AR",
    "timezone": "America/Argentina/Buenos_Aires",
    "latitude": -34.76225,
    "longitude": -58.37983
  },
  {
    "city": "Villa España",
    "city_zh": "Villa España",
    "country": "Argentina",
    "country_zh": "阿根廷",
    "country_iso_code": "AR",
    "timezone": "America/Argentina/Buenos_Aires",
    "latitude": -34.77537,
    "longitude": -58.19959
  },
  {
    "city": "Villa Escolar",
    "city_zh": "Villa Escolar",
    "country": "Argentina",
    "country_zh": "阿根廷",
    "country_iso_code": "AR",
    "timezone": "America/Argentina/Cordoba",
    "latitude": -26.62272,
    "longitude": -58.66983
  },
  {
    "city": "Villa Escobar",
    "city_zh": "Villa Escobar",
    "country": "Argentina",
    "country_zh": "阿根廷",
    "country_iso_code": "AR",
    "timezone": "America/Argentina/Cordoba",
    "latitude": -29.36425,
    "longitude": -56.8294
  },
  {
    "city": "Villa El Rincón",
    "city_zh": "Villa El Rincón",
    "country": "Argentina",
    "country_zh": "阿根廷",
    "country_iso_code": "AR",
    "timezone": "America/Argentina/Buenos_Aires",
    "latitude": -34.78397,
    "longitude": -58.46941
  },
  {
    "city": "Villa Elisa",
    "city_zh": "Villa Elisa",
    "country": "Argentina",
    "country_zh": "阿根廷",
    "country_iso_code": "AR",
    "timezone": "America/Argentina/Buenos_Aires",
    "latitude": -34.85125,
    "longitude": -58.08553
  },
  {
    "city": "Villa Elisa",
    "city_zh": "Villa Elisa",
    "country": "Argentina",
    "country_zh": "阿根廷",
    "country_iso_code": "AR",
    "timezone": "America/Argentina/Cordoba",
    "latitude": -32.1632,
    "longitude": -58.40082
  },
  {
    "city": "Villa Cacique",
    "city_zh": "Villa Cacique",
    "country": "Argentina",
    "country_zh": "阿根廷",
    "country_iso_code": "AR",
    "timezone": "America/Argentina/Buenos_Aires",
    "latitude": -37.67623,
    "longitude": -59.39619
  },
  {
    "city": "Villa D. Sobral",
    "city_zh": "Villa D. Sobral",
    "country": "Argentina",
    "country_zh": "阿根廷",
    "country_iso_code": "AR",
    "timezone": "America/Argentina/Buenos_Aires",
    "latitude": -34.7585,
    "longitude": -58.24544
  },
  {
    "city": "Villa Domínico",
    "city_zh": "Villa Domínico",
    "country": "Argentina",
    "country_zh": "阿根廷",
    "country_iso_code": "AR",
    "timezone": "America/Argentina/Buenos_Aires",
    "latitude": -34.69421,
    "longitude": -58.33035
  },
  {
    "city": "Villa Dolores",
    "city_zh": "Villa Dolores",
    "country": "Argentina",
    "country_zh": "阿根廷",
    "country_iso_code": "AR",
    "timezone": "America/Argentina/Cordoba",
    "latitude": -27.39974,
    "longitude": -55.90204
  },
  {
    "city": "Villa Diamante",
    "city_zh": "Villa Diamante",
    "country": "Argentina",
    "country_zh": "阿根廷",
    "country_iso_code": "AR",
    "timezone": "America/Argentina/Buenos_Aires",
    "latitude": -34.68189,
    "longitude": -58.43297
  },
  {
    "city": "Villa Devoto",
    "city_zh": "Villa Devoto",
    "country": "Argentina",
    "country_zh": "阿根廷",
    "country_iso_code": "AR",
    "timezone": "America/Argentina/Buenos_Aires",
    "latitude": -34.60064,
    "longitude": -58.51231
  },
  {
    "city": "Villa Depietri",
    "city_zh": "Villa Depietri",
    "country": "Argentina",
    "country_zh": "阿根廷",
    "country_iso_code": "AR",
    "timezone": "America/Argentina/Buenos_Aires",
    "latitude": -33.69363,
    "longitude": -59.64242
  },
  {
    "city": "Villa de Mayo",
    "city_zh": "Villa de Mayo",
    "country": "Argentina",
    "country_zh": "阿根廷",
    "country_iso_code": "AR",
    "timezone": "America/Argentina/Buenos_Aires",
    "latitude": -34.5108,
    "longitude": -58.68059
  },
  {
    "city": "Villa del Rosario",
    "city_zh": "Villa del Rosario",
    "country": "Argentina",
    "country_zh": "阿根廷",
    "country_iso_code": "AR",
    "timezone": "America/Argentina/Cordoba",
    "latitude": -30.7957,
    "longitude": -57.91234
  },
  {
    "city": "Villa del Parque",
    "city_zh": "Villa del Parque",
    "country": "Argentina",
    "country_zh": "阿根廷",
    "country_iso_code": "AR",
    "timezone": "America/Argentina/Buenos_Aires",
    "latitude": -34.60057,
    "longitude": -58.48871
  },
  {
    "city": "Villa de los Patricios",
    "city_zh": "Villa de los Patricios",
    "country": "Argentina",
    "country_zh": "阿根廷",
    "country_iso_code": "AR",
    "timezone": "America/Argentina/Buenos_Aires",
    "latitude": -34.61969,
    "longitude": -58.53733
  },
  {
    "city": "Villa Cristóbal Colón",
    "city_zh": "Villa Cristóbal Colón",
    "country": "Argentina",
    "country_zh": "阿根廷",
    "country_iso_code": "AR",
    "timezone": "America/Argentina/Buenos_Aires",
    "latitude": -34.69289,
    "longitude": -58.3408
  },
  {
    "city": "Villa Crespo",
    "city_zh": "Villa Crespo",
    "country": "Argentina",
    "country_zh": "阿根廷",
    "country_iso_code": "AR",
    "timezone": "America/Argentina/Buenos_Aires",
    "latitude": -34.60001,
    "longitude": -58.44735
  },
  {
    "city": "Villa Córdoba",
    "city_zh": "Villa Córdoba",
    "country": "Argentina",
    "country_zh": "阿根廷",
    "country_iso_code": "AR",
    "timezone": "America/Argentina/Cordoba",
    "latitude": -28.99233,
    "longitude": -59.07727
  },
  {
    "city": "Villa Colón",
    "city_zh": "Villa Colón",
    "country": "Argentina",
    "country_zh": "阿根廷",
    "country_iso_code": "AR",
    "timezone": "America/Argentina/Buenos_Aires",
    "latitude": -35.0,
    "longitude": -59.01667
  },
  {
    "city": "Villa Clelia",
    "city_zh": "Villa Clelia",
    "country": "Argentina",
    "country_zh": "阿根廷",
    "country_iso_code": "AR",
    "timezone": "America/Argentina/Buenos_Aires",
    "latitude": -36.72582,
    "longitude": -56.69768
  },
  {
    "city": "Villa Bosch",
    "city_zh": "Villa Bosch",
    "country": "Argentina",
    "country_zh": "阿根廷",
    "country_iso_code": "AR",
    "timezone": "America/Argentina/Buenos_Aires",
    "latitude": -34.58681,
    "longitude": -58.57387
  },
  {
    "city": "Villa Basso",
    "city_zh": "Villa Basso",
    "country": "Argentina",
    "country_zh": "阿根廷",
    "country_iso_code": "AR",
    "timezone": "America/Argentina/Buenos_Aires",
    "latitude": -34.63377,
    "longitude": -58.59176
  },
  {
    "city": "Villa Barilari",
    "city_zh": "Villa Barilari",
    "country": "Argentina",
    "country_zh": "阿根廷",
    "country_iso_code": "AR",
    "timezone": "America/Argentina/Buenos_Aires",
    "latitude": -34.70276,
    "longitude": -58.3315
  },
  {
    "city": "Villa Barcelo",
    "city_zh": "Villa Barcelo",
    "country": "Argentina",
    "country_zh": "阿根廷",
    "country_iso_code": "AR",
    "timezone": "America/Argentina/Buenos_Aires",
    "latitude": -34.73853,
    "longitude": -58.37292
  },
  {
    "city": "Villa Ballester",
    "city_zh": "巴列斯特爾鎮",
    "country": "Argentina",
    "country_zh": "阿根廷",
    "country_iso_code": "AR",
    "timezone": "America/Argentina/Buenos_Aires",
    "latitude": -34.54531,
    "longitude": -58.55919
  },
  {
    "city": "Villa Augusta",
    "city_zh": "Villa Augusta",
    "country": "Argentina",
    "country_zh": "阿根廷",
    "country_iso_code": "AR",
    "timezone": "America/Argentina/Buenos_Aires",
    "latitude": -34.75172,
    "longitude": -58.24495
  },
  {
    "city": "Villa Aquino",
    "city_zh": "Villa Aquino",
    "country": "Argentina",
    "country_zh": "阿根廷",
    "country_iso_code": "AR",
    "timezone": "America/Argentina/Cordoba",
    "latitude": -29.01667,
    "longitude": -59.08333
  },
  {
    "city": "Villa Ansaldi",
    "city_zh": "Villa Ansaldi",
    "country": "Argentina",
    "country_zh": "阿根廷",
    "country_iso_code": "AR",
    "timezone": "America/Argentina/Buenos_Aires",
    "latitude": -34.6796,
    "longitude": -58.51445
  },
  {
    "city": "Villa Ana",
    "city_zh": "Villa Ana",
    "country": "Argentina",
    "country_zh": "阿根廷",
    "country_iso_code": "AR",
    "timezone": "America/Argentina/Cordoba",
    "latitude": -28.49285,
    "longitude": -59.61279
  },
  {
    "city": "Villa Altube",
    "city_zh": "Villa Altube",
    "country": "Argentina",
    "country_zh": "阿根廷",
    "country_iso_code": "AR",
    "timezone": "America/Argentina/Buenos_Aires",
    "latitude": -34.52647,
    "longitude": -58.74656
  },
  {
    "city": "Valentín Alsina",
    "city_zh": "巴倫廷阿爾西納",
    "country": "Argentina",
    "country_zh": "阿根廷",
    "country_iso_code": "AR",
    "timezone": "America/Argentina/Buenos_Aires",
    "latitude": -34.67137,
    "longitude": -58.40904
  },
  {
    "city": "Villa Alianza",
    "city_zh": "Villa Alianza",
    "country": "Argentina",
    "country_zh": "阿根廷",
    "country_iso_code": "AR",
    "timezone": "America/Argentina/Buenos_Aires",
    "latitude": -34.61261,
    "longitude": -58.55047
  },
  {
    "city": "Villa Adelina",
    "city_zh": "Villa Adelina",
    "country": "Argentina",
    "country_zh": "阿根廷",
    "country_iso_code": "AR",
    "timezone": "America/Argentina/Buenos_Aires",
    "latitude": -34.52975,
    "longitude": -58.5476
  },
  {
    "city": "Vilela",
    "city_zh": "Vilela",
    "country": "Argentina",
    "country_zh": "阿根廷",
    "country_iso_code": "AR",
    "timezone": "America/Argentina/Buenos_Aires",
    "latitude": -35.84688,
    "longitude": -59.0351
  },
  {
    "city": "Vieytes",
    "city_zh": "Vieytes",
    "country": "Argentina",
    "country_zh": "阿根廷",
    "country_iso_code": "AR",
    "timezone": "America/Argentina/Buenos_Aires",
    "latitude": -35.26796,
    "longitude": -57.57426
  },
  {
    "city": "Victoria",
    "city_zh": "Victoria",
    "country": "Argentina",
    "country_zh": "阿根廷",
    "country_iso_code": "AR",
    "timezone": "America/Argentina/Buenos_Aires",
    "latitude": -34.45505,
    "longitude": -58.54614
  },
  {
    "city": "Vicentini",
    "city_zh": "Vicentini",
    "country": "Argentina",
    "country_zh": "阿根廷",
    "country_iso_code": "AR",
    "timezone": "America/Argentina/Cordoba",
    "latitude": -27.40862,
    "longitude": -59.04288
  },
  {
    "city": "Vicente Pereda",
    "city_zh": "Vicente Pereda",
    "country": "Argentina",
    "country_zh": "阿根廷",
    "country_iso_code": "AR",
    "timezone": "America/Argentina/Buenos_Aires",
    "latitude": -36.69861,
    "longitude": -59.78228
  },
  {
    "city": "Vicente López",
    "city_zh": "維森特洛佩斯",
    "country": "Argentina",
    "country_zh": "阿根廷",
    "country_iso_code": "AR",
    "timezone": "America/Argentina/Buenos_Aires",
    "latitude": -34.52947,
    "longitude": -58.4737
  },
  {
    "city": "Vicente Casares",
    "city_zh": "Vicente Casares",
    "country": "Argentina",
    "country_zh": "阿根廷",
    "country_iso_code": "AR",
    "timezone": "America/Argentina/Buenos_Aires",
    "latitude": -34.96562,
    "longitude": -58.65186
  },
  {
    "city": "Versailles",
    "city_zh": "Versailles",
    "country": "Argentina",
    "country_zh": "阿根廷",
    "country_iso_code": "AR",
    "timezone": "America/Argentina/Buenos_Aires",
    "latitude": -34.62749,
    "longitude": -58.51504
  },
  {
    "city": "Verónica",
    "city_zh": "Verónica",
    "country": "Argentina",
    "country_zh": "阿根廷",
    "country_iso_code": "AR",
    "timezone": "America/Argentina/Buenos_Aires",
    "latitude": -35.38732,
    "longitude": -57.33839
  },
  {
    "city": "Verna",
    "city_zh": "Verna",
    "country": "Argentina",
    "country_zh": "阿根廷",
    "country_iso_code": "AR",
    "timezone": "America/Argentina/Cordoba",
    "latitude": -32.15,
    "longitude": -58.18333
  },
  {
    "city": "Vergara",
    "city_zh": "Vergara",
    "country": "Argentina",
    "country_zh": "阿根廷",
    "country_iso_code": "AR",
    "timezone": "America/Argentina/Buenos_Aires",
    "latitude": -35.38387,
    "longitude": -57.80461
  },
  {
    "city": "Velloso",
    "city_zh": "Velloso",
    "country": "Argentina",
    "country_zh": "阿根廷",
    "country_iso_code": "AR",
    "timezone": "America/Argentina/Buenos_Aires",
    "latitude": -36.12057,
    "longitude": -59.65187
  },
  {
    "city": "Vélez Sarsfield",
    "city_zh": "Vélez Sarsfield",
    "country": "Argentina",
    "country_zh": "阿根廷",
    "country_iso_code": "AR",
    "timezone": "America/Argentina/Buenos_Aires",
    "latitude": -34.63144,
    "longitude": -58.49261
  },
  {
    "city": "Colonia Vélaz",
    "city_zh": "Colonia Vélaz",
    "country": "Argentina",
    "country_zh": "阿根廷",
    "country_iso_code": "AR",
    "timezone": "America/Argentina/Cordoba",
    "latitude": -26.6931,
    "longitude": -58.6595
  },
  {
    "city": "Colonia Veinticinco de Mayo",
    "city_zh": "Colonia Veinticinco de Mayo",
    "country": "Argentina",
    "country_zh": "阿根廷",
    "country_iso_code": "AR",
    "timezone": "America/Argentina/Cordoba",
    "latitude": -31.40685,
    "longitude": -59.59389
  },
  {
    "city": "Veinticinco de Mayo",
    "city_zh": "Veinticinco de Mayo",
    "country": "Argentina",
    "country_zh": "阿根廷",
    "country_iso_code": "AR",
    "timezone": "America/Argentina/Cordoba",
    "latitude": -27.37796,
    "longitude": -54.74505
  },
  {
    "city": "XX de Setiembre",
    "city_zh": "XX de Setiembre",
    "country": "Argentina",
    "country_zh": "阿根廷",
    "country_iso_code": "AR",
    "timezone": "America/Argentina/Cordoba",
    "latitude": -32.38607,
    "longitude": -59.66245
  },
  {
    "city": "Colonia Vásquez",
    "city_zh": "Colonia Vásquez",
    "country": "Argentina",
    "country_zh": "阿根廷",
    "country_iso_code": "AR",
    "timezone": "America/Argentina/Cordoba",
    "latitude": -32.10688,
    "longitude": -58.42567
  },
  {
    "city": "Valeria del Mar",
    "city_zh": "Valeria del Mar",
    "country": "Argentina",
    "country_zh": "阿根廷",
    "country_iso_code": "AR",
    "timezone": "America/Argentina/Buenos_Aires",
    "latitude": -37.14614,
    "longitude": -56.88676
  },
  {
    "city": "Vagues",
    "city_zh": "Vagues",
    "country": "Argentina",
    "country_zh": "阿根廷",
    "country_iso_code": "AR",
    "timezone": "America/Argentina/Buenos_Aires",
    "latitude": -34.29955,
    "longitude": -59.44418
  },
  {
    "city": "Vaca Cuá",
    "city_zh": "Vaca Cuá",
    "country": "Argentina",
    "country_zh": "阿根廷",
    "country_iso_code": "AR",
    "timezone": "America/Argentina/Cordoba",
    "latitude": -29.66555,
    "longitude": -57.96737
  },
  {
    "city": "Uribelarrea",
    "city_zh": "Uribelarrea",
    "country": "Argentina",
    "country_zh": "阿根廷",
    "country_iso_code": "AR",
    "timezone": "America/Argentina/Buenos_Aires",
    "latitude": -35.12389,
    "longitude": -58.8921
  },
  {
    "city": "Urdinarrain",
    "city_zh": "Urdinarrain",
    "country": "Argentina",
    "country_zh": "阿根廷",
    "country_iso_code": "AR",
    "timezone": "America/Argentina/Cordoba",
    "latitude": -32.69104,
    "longitude": -58.88842
  },
  {
    "city": "Colonia Unión",
    "city_zh": "Colonia Unión",
    "country": "Argentina",
    "country_zh": "阿根廷",
    "country_iso_code": "AR",
    "timezone": "America/Argentina/Cordoba",
    "latitude": -28.05737,
    "longitude": -55.8334
  },
  {
    "city": "Uguay",
    "city_zh": "Uguay",
    "country": "Argentina",
    "country_zh": "阿根廷",
    "country_iso_code": "AR",
    "timezone": "America/Argentina/Cordoba",
    "latitude": -28.64884,
    "longitude": -57.48161
  },
  {
    "city": "Udaquiola",
    "city_zh": "Udaquiola",
    "country": "Argentina",
    "country_zh": "阿根廷",
    "country_iso_code": "AR",
    "timezone": "America/Argentina/Buenos_Aires",
    "latitude": -36.56193,
    "longitude": -58.53642
  },
  {
    "city": "Ubajay",
    "city_zh": "Ubajay",
    "country": "Argentina",
    "country_zh": "阿根廷",
    "country_iso_code": "AR",
    "timezone": "America/Argentina/Cordoba",
    "latitude": -31.79514,
    "longitude": -58.31509
  },
  {
    "city": "Loma Tuyutu",
    "city_zh": "Loma Tuyutu",
    "country": "Argentina",
    "country_zh": "阿根廷",
    "country_iso_code": "AR",
    "timezone": "America/Argentina/Cordoba",
    "latitude": -25.08648,
    "longitude": -58.33754
  },
  {
    "city": "Tuyutí",
    "city_zh": "Tuyutí",
    "country": "Argentina",
    "country_zh": "阿根廷",
    "country_iso_code": "AR",
    "timezone": "America/Argentina/Cordoba",
    "latitude": -27.38405,
    "longitude": -57.76126
  },
  {
    "city": "Tuyutí",
    "city_zh": "Tuyutí",
    "country": "Argentina",
    "country_zh": "阿根廷",
    "country_iso_code": "AR",
    "timezone": "America/Argentina/Buenos_Aires",
    "latitude": -34.52019,
    "longitude": -59.67326
  },
  {
    "city": "Turdera",
    "city_zh": "Turdera",
    "country": "Argentina",
    "country_zh": "阿根廷",
    "country_iso_code": "AR",
    "timezone": "America/Argentina/Buenos_Aires",
    "latitude": -34.79087,
    "longitude": -58.4052
  },
  {
    "city": "Tristán Suárez",
    "city_zh": "Tristán Suárez",
    "country": "Argentina",
    "country_zh": "阿根廷",
    "country_iso_code": "AR",
    "timezone": "America/Argentina/Buenos_Aires",
    "latitude": -34.88982,
    "longitude": -58.56761
  },
  {
    "city": "Los Tres Reyes",
    "city_zh": "Los Tres Reyes",
    "country": "Argentina",
    "country_zh": "阿根廷",
    "country_iso_code": "AR",
    "timezone": "America/Argentina/Cordoba",
    "latitude": -24.80378,
    "longitude": -59.532
  },
  {
    "city": "Tres Pitos",
    "city_zh": "Tres Pitos",
    "country": "Argentina",
    "country_zh": "阿根廷",
    "country_iso_code": "AR",
    "timezone": "America/Argentina/Cordoba",
    "latitude": -26.3549,
    "longitude": -58.42388
  },
  {
    "city": "Colonia Tres Palmas",
    "city_zh": "Colonia Tres Palmas",
    "country": "Argentina",
    "country_zh": "阿根廷",
    "country_iso_code": "AR",
    "timezone": "America/Argentina/Cordoba",
    "latitude": -26.73804,
    "longitude": -59.96645
  },
  {
    "city": "Tres Mojones",
    "city_zh": "Tres Mojones",
    "country": "Argentina",
    "country_zh": "阿根廷",
    "country_iso_code": "AR",
    "timezone": "America/Argentina/Cordoba",
    "latitude": -26.46605,
    "longitude": -58.51382
  },
  {
    "city": "Tres Marías",
    "city_zh": "Tres Marías",
    "country": "Argentina",
    "country_zh": "阿根廷",
    "country_iso_code": "AR",
    "timezone": "America/Argentina/Cordoba",
    "latitude": -26.32863,
    "longitude": -58.20575
  },
  {
    "city": "Tres Lomas",
    "city_zh": "Tres Lomas",
    "country": "Argentina",
    "country_zh": "阿根廷",
    "country_iso_code": "AR",
    "timezone": "America/Argentina/Buenos_Aires",
    "latitude": -37.41744,
    "longitude": -58.15149
  },
  {
    "city": "Tres Lagunas",
    "city_zh": "Tres Lagunas",
    "country": "Argentina",
    "country_zh": "阿根廷",
    "country_iso_code": "AR",
    "timezone": "America/Argentina/Cordoba",
    "latitude": -25.21449,
    "longitude": -58.51154
  },
  {
    "city": "Tres Horquetas",
    "city_zh": "Tres Horquetas",
    "country": "Argentina",
    "country_zh": "阿根廷",
    "country_iso_code": "AR",
    "timezone": "America/Argentina/Cordoba",
    "latitude": -26.18435,
    "longitude": -58.35903
  },
  {
    "city": "Tres Esquinas",
    "city_zh": "Tres Esquinas",
    "country": "Argentina",
    "country_zh": "阿根廷",
    "country_iso_code": "AR",
    "timezone": "America/Argentina/Cordoba",
    "latitude": -32.24854,
    "longitude": -59.94706
  },
  {
    "city": "Colonia Tres de Febrero",
    "city_zh": "Colonia Tres de Febrero",
    "country": "Argentina",
    "country_zh": "阿根廷",
    "country_iso_code": "AR",
    "timezone": "America/Argentina/Cordoba",
    "latitude": -31.3734,
    "longitude": -59.69623
  },
  {
    "city": "Colonia Tres de Febrero",
    "city_zh": "Colonia Tres de Febrero",
    "country": "Argentina",
    "country_zh": "阿根廷",
    "country_iso_code": "AR",
    "timezone": "America/Argentina/Cordoba",
    "latitude": -32.21677,
    "longitude": -58.49509
  },
  {
    "city": "Tres Capones",
    "city_zh": "Tres Capones",
    "country": "Argentina",
    "country_zh": "阿根廷",
    "country_iso_code": "AR",
    "timezone": "America/Argentina/Cordoba",
    "latitude": -28.00431,
    "longitude": -55.60935
  },
  {
    "city": "Tres Bocas",
    "city_zh": "Tres Bocas",
    "country": "Argentina",
    "country_zh": "阿根廷",
    "country_iso_code": "AR",
    "timezone": "America/Argentina/Cordoba",
    "latitude": -32.73989,
    "longitude": -59.76644
  },
  {
    "city": "Tres Bocas",
    "city_zh": "Tres Bocas",
    "country": "Argentina",
    "country_zh": "阿根廷",
    "country_iso_code": "AR",
    "timezone": "America/Argentina/Cordoba",
    "latitude": -27.49667,
    "longitude": -54.68121
  },
  {
    "city": "Tortuguitas",
    "city_zh": "托爾圖吉塔斯",
    "country": "Argentina",
    "country_zh": "阿根廷",
    "country_iso_code": "AR",
    "timezone": "America/Argentina/Buenos_Aires",
    "latitude": -34.47513,
    "longitude": -58.75367
  },
  {
    "city": "Torres",
    "city_zh": "Torres",
    "country": "Argentina",
    "country_zh": "阿根廷",
    "country_iso_code": "AR",
    "timezone": "America/Argentina/Buenos_Aires",
    "latitude": -34.42969,
    "longitude": -59.12879
  },
  {
    "city": "Estación Torrent",
    "city_zh": "Estación Torrent",
    "country": "Argentina",
    "country_zh": "阿根廷",
    "country_iso_code": "AR",
    "timezone": "America/Argentina/Cordoba",
    "latitude": -28.82599,
    "longitude": -56.47024
  },
  {
    "city": "Toro Ratay",
    "city_zh": "Toro Ratay",
    "country": "Argentina",
    "country_zh": "阿根廷",
    "country_iso_code": "AR",
    "timezone": "America/Argentina/Cordoba",
    "latitude": -28.8474,
    "longitude": -58.09747
  },
  {
    "city": "Colonia Tornquist",
    "city_zh": "Colonia Tornquist",
    "country": "Argentina",
    "country_zh": "阿根廷",
    "country_iso_code": "AR",
    "timezone": "America/Argentina/Buenos_Aires",
    "latitude": -35.33949,
    "longitude": -57.27101
  },
  {
    "city": "Jorge Born",
    "city_zh": "Jorge Born",
    "country": "Argentina",
    "country_zh": "阿根廷",
    "country_iso_code": "AR",
    "timezone": "America/Argentina/Buenos_Aires",
    "latitude": -34.69971,
    "longitude": -59.31817
  },
  {
    "city": "Tolosa",
    "city_zh": "Tolosa",
    "country": "Argentina",
    "country_zh": "阿根廷",
    "country_iso_code": "AR",
    "timezone": "America/Argentina/Buenos_Aires",
    "latitude": -34.8918,
    "longitude": -57.97377
  },
  {
    "city": "Tobuna",
    "city_zh": "Tobuna",
    "country": "Argentina",
    "country_zh": "阿根廷",
    "country_iso_code": "AR",
    "timezone": "America/Argentina/Cordoba",
    "latitude": -26.47085,
    "longitude": -53.89136
  },
  {
    "city": "Tío Domingo",
    "city_zh": "Tío Domingo",
    "country": "Argentina",
    "country_zh": "阿根廷",
    "country_iso_code": "AR",
    "timezone": "America/Argentina/Buenos_Aires",
    "latitude": -37.02464,
    "longitude": -56.95148
  },
  {
    "city": "Timbó Corá",
    "city_zh": "Timbó Corá",
    "country": "Argentina",
    "country_zh": "阿根廷",
    "country_iso_code": "AR",
    "timezone": "America/Argentina/Cordoba",
    "latitude": -27.54415,
    "longitude": -57.74226
  },
  {
    "city": "Timbocito",
    "city_zh": "Timbocito",
    "country": "Argentina",
    "country_zh": "阿根廷",
    "country_iso_code": "AR",
    "timezone": "America/Argentina/Cordoba",
    "latitude": -28.89661,
    "longitude": -58.22512
  },
  {
    "city": "Tigre",
    "city_zh": "Tigre",
    "country": "Argentina",
    "country_zh": "阿根廷",
    "country_iso_code": "AR",
    "timezone": "America/Argentina/Buenos_Aires",
    "latitude": -34.42603,
    "longitude": -58.57962
  },
  {
    "city": "Teniente General Juan Carlos Sánchez",
    "city_zh": "Teniente General Juan Carlos Sánchez",
    "country": "Argentina",
    "country_zh": "阿根廷",
    "country_iso_code": "AR",
    "timezone": "America/Argentina/Cordoba",
    "latitude": -25.35,
    "longitude": -58.3
  },
  {
    "city": "Temperley",
    "city_zh": "Temperley",
    "country": "Argentina",
    "country_zh": "阿根廷",
    "country_iso_code": "AR",
    "timezone": "America/Argentina/Buenos_Aires",
    "latitude": -34.77435,
    "longitude": -58.39347
  },
  {
    "city": "Tellier",
    "city_zh": "Tellier",
    "country": "Argentina",
    "country_zh": "阿根廷",
    "country_iso_code": "AR",
    "timezone": "America/Argentina/Buenos_Aires",
    "latitude": -34.68333,
    "longitude": -58.46667
  },
  {
    "city": "Tedín Uriburu",
    "city_zh": "Tedín Uriburu",
    "country": "Argentina",
    "country_zh": "阿根廷",
    "country_iso_code": "AR",
    "timezone": "America/Argentina/Buenos_Aires",
    "latitude": -37.36644,
    "longitude": -59.76266
  },
  {
    "city": "Tatay",
    "city_zh": "Tatay",
    "country": "Argentina",
    "country_zh": "阿根廷",
    "country_iso_code": "AR",
    "timezone": "America/Argentina/Buenos_Aires",
    "latitude": -34.3692,
    "longitude": -59.94099
  },
  {
    "city": "Paso Tirante",
    "city_zh": "Paso Tirante",
    "country": "Argentina",
    "country_zh": "阿根廷",
    "country_iso_code": "AR",
    "timezone": "America/Argentina/Cordoba",
    "latitude": -27.59837,
    "longitude": -56.24822
  },
  {
    "city": "Tartagal",
    "city_zh": "Tartagal",
    "country": "Argentina",
    "country_zh": "阿根廷",
    "country_iso_code": "AR",
    "timezone": "America/Argentina/Cordoba",
    "latitude": -28.67173,
    "longitude": -59.84611
  },
  {
    "city": "Tareirí",
    "city_zh": "Tareirí",
    "country": "Argentina",
    "country_zh": "阿根廷",
    "country_iso_code": "AR",
    "timezone": "America/Argentina/Cordoba",
    "latitude": -28.25,
    "longitude": -56.11667
  },
  {
    "city": "Tapiales",
    "city_zh": "Tapiales",
    "country": "Argentina",
    "country_zh": "阿根廷",
    "country_iso_code": "AR",
    "timezone": "America/Argentina/Buenos_Aires",
    "latitude": -34.69892,
    "longitude": -58.50781
  },
  {
    "city": "Tapebicuá",
    "city_zh": "Tapebicuá",
    "country": "Argentina",
    "country_zh": "阿根廷",
    "country_iso_code": "AR",
    "timezone": "America/Argentina/Cordoba",
    "latitude": -29.5061,
    "longitude": -56.97495
  },
  {
    "city": "Tandil",
    "city_zh": "坦迪爾",
    "country": "Argentina",
    "country_zh": "阿根廷",
    "country_iso_code": "AR",
    "timezone": "America/Argentina/Buenos_Aires",
    "latitude": -37.3287,
    "longitude": -59.1369
  },
  {
    "city": "Tamangueyú",
    "city_zh": "Tamangueyú",
    "country": "Argentina",
    "country_zh": "阿根廷",
    "country_iso_code": "AR",
    "timezone": "America/Argentina/Buenos_Aires",
    "latitude": -38.20199,
    "longitude": -58.73915
  },
  {
    "city": "Talita",
    "city_zh": "Talita",
    "country": "Argentina",
    "country_zh": "阿根廷",
    "country_iso_code": "AR",
    "timezone": "America/Argentina/Cordoba",
    "latitude": -32.52932,
    "longitude": -58.30322
  },
  {
    "city": "Talaty",
    "city_zh": "Talaty",
    "country": "Argentina",
    "country_zh": "阿根廷",
    "country_iso_code": "AR",
    "timezone": "America/Argentina/Cordoba",
    "latitude": -27.84271,
    "longitude": -57.75896
  },
  {
    "city": "Paso Tala",
    "city_zh": "Paso Tala",
    "country": "Argentina",
    "country_zh": "阿根廷",
    "country_iso_code": "AR",
    "timezone": "America/Argentina/Cordoba",
    "latitude": -29.17974,
    "longitude": -58.70278
  },
  {
    "city": "Tacuaruzú",
    "city_zh": "Tacuaruzú",
    "country": "Argentina",
    "country_zh": "阿根廷",
    "country_iso_code": "AR",
    "timezone": "America/Argentina/Cordoba",
    "latitude": -27.60726,
    "longitude": -55.6413
  },
  {
    "city": "Tacuaritas",
    "city_zh": "Tacuaritas",
    "country": "Argentina",
    "country_zh": "阿根廷",
    "country_iso_code": "AR",
    "timezone": "America/Argentina/Cordoba",
    "latitude": -28.79889,
    "longitude": -58.37546
  },
  {
    "city": "Tacuarendí",
    "city_zh": "Tacuarendí",
    "country": "Argentina",
    "country_zh": "阿根廷",
    "country_iso_code": "AR",
    "timezone": "America/Argentina/Cordoba",
    "latitude": -28.41265,
    "longitude": -59.26
  },
  {
    "city": "El Tacuaral",
    "city_zh": "El Tacuaral",
    "country": "Argentina",
    "country_zh": "阿根廷",
    "country_iso_code": "AR",
    "timezone": "America/Argentina/Cordoba",
    "latitude": -27.88193,
    "longitude": -57.81517
  },
  {
    "city": "Misión Tacaaglé",
    "city_zh": "Misión Tacaaglé",
    "country": "Argentina",
    "country_zh": "阿根廷",
    "country_iso_code": "AR",
    "timezone": "America/Argentina/Cordoba",
    "latitude": -24.97925,
    "longitude": -58.82089
  },
  {
    "city": "Tabossi",
    "city_zh": "Tabossi",
    "country": "Argentina",
    "country_zh": "阿根廷",
    "country_iso_code": "AR",
    "timezone": "America/Argentina/Cordoba",
    "latitude": -31.80231,
    "longitude": -59.93557
  },
  {
    "city": "La Tablada",
    "city_zh": "La Tablada",
    "country": "Argentina",
    "country_zh": "阿根廷",
    "country_iso_code": "AR",
    "timezone": "America/Argentina/Buenos_Aires",
    "latitude": -34.68643,
    "longitude": -58.52568
  },
  {
    "city": "Tabay",
    "city_zh": "Tabay",
    "country": "Argentina",
    "country_zh": "阿根廷",
    "country_iso_code": "AR",
    "timezone": "America/Argentina/Cordoba",
    "latitude": -28.31067,
    "longitude": -58.28653
  },
  {
    "city": "Suipacha",
    "city_zh": "Suipacha",
    "country": "Argentina",
    "country_zh": "阿根廷",
    "country_iso_code": "AR",
    "timezone": "America/Argentina/Buenos_Aires",
    "latitude": -34.76881,
    "longitude": -59.68683
  },
  {
    "city": "Sucre",
    "city_zh": "Sucre",
    "country": "Argentina",
    "country_zh": "阿根廷",
    "country_iso_code": "AR",
    "timezone": "America/Argentina/Buenos_Aires",
    "latitude": -34.50868,
    "longitude": -59.11412
  },
  {
    "city": "Colonia Pando",
    "city_zh": "Colonia Pando",
    "country": "Argentina",
    "country_zh": "阿根廷",
    "country_iso_code": "AR",
    "timezone": "America/Argentina/Cordoba",
    "latitude": -28.52373,
    "longitude": -58.48764
  },
  {
    "city": "Sosa",
    "city_zh": "Sosa",
    "country": "Argentina",
    "country_zh": "阿根廷",
    "country_iso_code": "AR",
    "timezone": "America/Argentina/Cordoba",
    "latitude": -31.73556,
    "longitude": -59.9115
  },
  {
    "city": "Solís",
    "city_zh": "Solís",
    "country": "Argentina",
    "country_zh": "阿根廷",
    "country_iso_code": "AR",
    "timezone": "America/Argentina/Buenos_Aires",
    "latitude": -34.29807,
    "longitude": -59.32368
  },
  {
    "city": "Sol de Mayo",
    "city_zh": "Sol de Mayo",
    "country": "Argentina",
    "country_zh": "阿根廷",
    "country_iso_code": "AR",
    "timezone": "America/Argentina/Buenos_Aires",
    "latitude": -35.21015,
    "longitude": -59.49461
  },
  {
    "city": "Sol de Mayo",
    "city_zh": "Sol de Mayo",
    "country": "Argentina",
    "country_zh": "阿根廷",
    "country_iso_code": "AR",
    "timezone": "America/Argentina/Cordoba",
    "latitude": -25.16464,
    "longitude": -58.35208
  },
  {
    "city": "Solanet",
    "city_zh": "Solanet",
    "country": "Argentina",
    "country_zh": "阿根廷",
    "country_iso_code": "AR",
    "timezone": "America/Argentina/Buenos_Aires",
    "latitude": -36.84305,
    "longitude": -58.50826
  },
  {
    "city": "Siete Palmas",
    "city_zh": "Siete Palmas",
    "country": "Argentina",
    "country_zh": "阿根廷",
    "country_iso_code": "AR",
    "timezone": "America/Argentina/Cordoba",
    "latitude": -25.2024,
    "longitude": -58.33142
  },
  {
    "city": "Siete Árboles",
    "city_zh": "Siete Árboles",
    "country": "Argentina",
    "country_zh": "阿根廷",
    "country_iso_code": "AR",
    "timezone": "America/Argentina/Cordoba",
    "latitude": -26.42041,
    "longitude": -59.42359
  },
  {
    "city": "Sierra de los Padres",
    "city_zh": "Sierra de los Padres",
    "country": "Argentina",
    "country_zh": "阿根廷",
    "country_iso_code": "AR",
    "timezone": "America/Argentina/Buenos_Aires",
    "latitude": -37.94763,
    "longitude": -57.77787
  },
  {
    "city": "Shaw",
    "city_zh": "Shaw",
    "country": "Argentina",
    "country_zh": "阿根廷",
    "country_iso_code": "AR",
    "timezone": "America/Argentina/Buenos_Aires",
    "latitude": -36.62328,
    "longitude": -59.72674
  },
  {
    "city": "Sevigne",
    "city_zh": "Sevigne",
    "country": "Argentina",
    "country_zh": "阿根廷",
    "country_iso_code": "AR",
    "timezone": "America/Argentina/Buenos_Aires",
    "latitude": -36.20689,
    "longitude": -57.74284
  },
  {
    "city": "Selvas del Río de Oro",
    "city_zh": "Selvas del Río de Oro",
    "country": "Argentina",
    "country_zh": "阿根廷",
    "country_iso_code": "AR",
    "timezone": "America/Argentina/Cordoba",
    "latitude": -26.8032,
    "longitude": -58.95928
  },
  {
    "city": "Segurola",
    "city_zh": "Segurola",
    "country": "Argentina",
    "country_zh": "阿根廷",
    "country_iso_code": "AR",
    "timezone": "America/Argentina/Buenos_Aires",
    "latitude": -36.83177,
    "longitude": -57.46151
  },
  {
    "city": "Segunda Punta",
    "city_zh": "Segunda Punta",
    "country": "Argentina",
    "country_zh": "阿根廷",
    "country_iso_code": "AR",
    "timezone": "America/Argentina/Cordoba",
    "latitude": -25.06868,
    "longitude": -58.34983
  },
  {
    "city": "Sección San Nicolás",
    "city_zh": "Sección San Nicolás",
    "country": "Argentina",
    "country_zh": "阿根廷",
    "country_iso_code": "AR",
    "timezone": "America/Argentina/Cordoba",
    "latitude": -25.66091,
    "longitude": -58.16562
  },
  {
    "city": "Sauce de Luna",
    "city_zh": "Sauce de Luna",
    "country": "Argentina",
    "country_zh": "阿根廷",
    "country_iso_code": "AR",
    "timezone": "America/Argentina/Cordoba",
    "latitude": -31.23955,
    "longitude": -59.21753
  },
  {
    "city": "Saucesito",
    "city_zh": "Saucesito",
    "country": "Argentina",
    "country_zh": "阿根廷",
    "country_iso_code": "AR",
    "timezone": "America/Argentina/Cordoba",
    "latitude": -30.69465,
    "longitude": -59.15582
  },
  {
    "city": "Colonia Sauce",
    "city_zh": "Colonia Sauce",
    "country": "Argentina",
    "country_zh": "阿根廷",
    "country_iso_code": "AR",
    "timezone": "America/Argentina/Cordoba",
    "latitude": -29.35572,
    "longitude": -59.23542
  },
  {
    "city": "Sauce",
    "city_zh": "Sauce",
    "country": "Argentina",
    "country_zh": "阿根廷",
    "country_iso_code": "AR",
    "timezone": "America/Argentina/Cordoba",
    "latitude": -30.08552,
    "longitude": -58.78733
  },
  {
    "city": "Sarandí",
    "city_zh": "Sarandí",
    "country": "Argentina",
    "country_zh": "阿根廷",
    "country_iso_code": "AR",
    "timezone": "America/Argentina/Cordoba",
    "latitude": -29.74341,
    "longitude": -58.05953
  },
  {
    "city": "Sarandí",
    "city_zh": "Sarandí",
    "country": "Argentina",
    "country_zh": "阿根廷",
    "country_iso_code": "AR",
    "timezone": "America/Argentina/Buenos_Aires",
    "latitude": -34.68161,
    "longitude": -58.34639
  },
  {
    "city": "San Víctor",
    "city_zh": "San Víctor",
    "country": "Argentina",
    "country_zh": "阿根廷",
    "country_iso_code": "AR",
    "timezone": "America/Argentina/Cordoba",
    "latitude": -30.48554,
    "longitude": -59.02851
  },
  {
    "city": "San Vicente",
    "city_zh": "San Vicente",
    "country": "Argentina",
    "country_zh": "阿根廷",
    "country_iso_code": "AR",
    "timezone": "America/Argentina/Buenos_Aires",
    "latitude": -35.0249,
    "longitude": -58.42409
  },
  {
    "city": "San Vicente",
    "city_zh": "San Vicente",
    "country": "Argentina",
    "country_zh": "阿根廷",
    "country_iso_code": "AR",
    "timezone": "America/Argentina/Cordoba",
    "latitude": -26.61667,
    "longitude": -54.13333
  },
  {
    "city": "Santo Tomé",
    "city_zh": "Santo Tomé",
    "country": "Argentina",
    "country_zh": "阿根廷",
    "country_iso_code": "AR",
    "timezone": "America/Argentina/Cordoba",
    "latitude": -28.55104,
    "longitude": -56.04125
  },
  {
    "city": "Santos Lugares",
    "city_zh": "聖盧加雷斯",
    "country": "Argentina",
    "country_zh": "阿根廷",
    "country_iso_code": "AR",
    "timezone": "America/Argentina/Buenos_Aires",
    "latitude": -34.60306,
    "longitude": -58.54074
  },
  {
    "city": "Santo Pipó",
    "city_zh": "Santo Pipó",
    "country": "Argentina",
    "country_zh": "阿根廷",
    "country_iso_code": "AR",
    "timezone": "America/Argentina/Cordoba",
    "latitude": -27.14147,
    "longitude": -55.40945
  },
  {
    "city": "Santo Domingo",
    "city_zh": "Santo Domingo",
    "country": "Argentina",
    "country_zh": "阿根廷",
    "country_iso_code": "AR",
    "timezone": "America/Argentina/Buenos_Aires",
    "latitude": -36.71156,
    "longitude": -57.58617
  },
  {
    "city": "Santo Domingo",
    "city_zh": "Santo Domingo",
    "country": "Argentina",
    "country_zh": "阿根廷",
    "country_iso_code": "AR",
    "timezone": "America/Argentina/Cordoba",
    "latitude": -25.63333,
    "longitude": -54.25
  },
  {
    "city": "Santo Domingo",
    "city_zh": "Santo Domingo",
    "country": "Argentina",
    "country_zh": "阿根廷",
    "country_iso_code": "AR",
    "timezone": "America/Argentina/Cordoba",
    "latitude": -28.68114,
    "longitude": -58.82005
  },
  {
    "city": "Santillán",
    "city_zh": "Santillán",
    "country": "Argentina",
    "country_zh": "阿根廷",
    "country_iso_code": "AR",
    "timezone": "America/Argentina/Cordoba",
    "latitude": -29.46546,
    "longitude": -58.97963
  },
  {
    "city": "Santiago Larré",
    "city_zh": "Santiago Larré",
    "country": "Argentina",
    "country_zh": "阿根廷",
    "country_iso_code": "AR",
    "timezone": "America/Argentina/Buenos_Aires",
    "latitude": -35.58189,
    "longitude": -59.16401
  },
  {
    "city": "Santiago Alcorta",
    "city_zh": "Santiago Alcorta",
    "country": "Argentina",
    "country_zh": "阿根廷",
    "country_iso_code": "AR",
    "timezone": "America/Argentina/Cordoba",
    "latitude": -28.78633,
    "longitude": -58.71345
  },
  {
    "city": "San Telmo",
    "city_zh": "San Telmo",
    "country": "Argentina",
    "country_zh": "阿根廷",
    "country_iso_code": "AR",
    "timezone": "America/Argentina/Buenos_Aires",
    "latitude": -34.62,
    "longitude": -58.37122
  },
  {
    "city": "Santa Teresita",
    "city_zh": "Santa Teresita",
    "country": "Argentina",
    "country_zh": "阿根廷",
    "country_iso_code": "AR",
    "timezone": "America/Argentina/Buenos_Aires",
    "latitude": -36.54059,
    "longitude": -56.69294
  },
  {
    "city": "Santa Rosa",
    "city_zh": "Santa Rosa",
    "country": "Argentina",
    "country_zh": "阿根廷",
    "country_iso_code": "AR",
    "timezone": "America/Argentina/Buenos_Aires",
    "latitude": -36.30931,
    "longitude": -59.63976
  },
  {
    "city": "Paraje Santa Rosa",
    "city_zh": "Paraje Santa Rosa",
    "country": "Argentina",
    "country_zh": "阿根廷",
    "country_iso_code": "AR",
    "timezone": "America/Argentina/Cordoba",
    "latitude": -31.9408,
    "longitude": -58.66482
  },
  {
    "city": "Santa Rosa",
    "city_zh": "Santa Rosa",
    "country": "Argentina",
    "country_zh": "阿根廷",
    "country_iso_code": "AR",
    "timezone": "America/Argentina/Cordoba",
    "latitude": -28.26572,
    "longitude": -58.12053
  },
  {
    "city": "Santa Rita",
    "city_zh": "Santa Rita",
    "country": "Argentina",
    "country_zh": "阿根廷",
    "country_iso_code": "AR",
    "timezone": "America/Argentina/Cordoba",
    "latitude": -29.72062,
    "longitude": -59.43228
  },
  {
    "city": "Santa Rita",
    "city_zh": "Santa Rita",
    "country": "Argentina",
    "country_zh": "阿根廷",
    "country_iso_code": "AR",
    "timezone": "America/Argentina/Cordoba",
    "latitude": -27.51871,
    "longitude": -54.72859
  },
  {
    "city": "Santa María",
    "city_zh": "Santa María",
    "country": "Argentina",
    "country_zh": "阿根廷",
    "country_iso_code": "AR",
    "timezone": "America/Argentina/Buenos_Aires",
    "latitude": -35.51782,
    "longitude": -58.70229
  },
  {
    "city": "Santa María",
    "city_zh": "Santa María",
    "country": "Argentina",
    "country_zh": "阿根廷",
    "country_iso_code": "AR",
    "timezone": "America/Argentina/Cordoba",
    "latitude": -27.9349,
    "longitude": -55.40742
  },
  {
    "city": "Santa Luisa",
    "city_zh": "Santa Luisa",
    "country": "Argentina",
    "country_zh": "阿根廷",
    "country_iso_code": "AR",
    "timezone": "America/Argentina/Cordoba",
    "latitude": -31.76826,
    "longitude": -59.72797
  },
  {
    "city": "Colonia Santa Lucía",
    "city_zh": "Colonia Santa Lucía",
    "country": "Argentina",
    "country_zh": "阿根廷",
    "country_iso_code": "AR",
    "timezone": "America/Argentina/Cordoba",
    "latitude": -30.90327,
    "longitude": -58.5188
  },
  {
    "city": "Santa Lucía",
    "city_zh": "Santa Lucía",
    "country": "Argentina",
    "country_zh": "阿根廷",
    "country_iso_code": "AR",
    "timezone": "America/Argentina/Buenos_Aires",
    "latitude": -33.88015,
    "longitude": -59.87449
  },
  {
    "city": "Santa Lucía",
    "city_zh": "Santa Lucía",
    "country": "Argentina",
    "country_zh": "阿根廷",
    "country_iso_code": "AR",
    "timezone": "America/Argentina/Cordoba",
    "latitude": -28.98984,
    "longitude": -59.10076
  },
  {
    "city": "Santa Isabel",
    "city_zh": "Santa Isabel",
    "country": "Argentina",
    "country_zh": "阿根廷",
    "country_iso_code": "AR",
    "timezone": "America/Argentina/Buenos_Aires",
    "latitude": -38.14181,
    "longitude": -57.72695
  },
  {
    "city": "Santa Inés",
    "city_zh": "Santa Inés",
    "country": "Argentina",
    "country_zh": "阿根廷",
    "country_iso_code": "AR",
    "timezone": "America/Argentina/Cordoba",
    "latitude": -30.7363,
    "longitude": -59.34961
  },
  {
    "city": "Colonia Santa Eloísa",
    "city_zh": "Colonia Santa Eloísa",
    "country": "Argentina",
    "country_zh": "阿根廷",
    "country_iso_code": "AR",
    "timezone": "America/Argentina/Cordoba",
    "latitude": -30.77534,
    "longitude": -57.84236
  },
  {
    "city": "La Elina",
    "city_zh": "La Elina",
    "country": "Argentina",
    "country_zh": "阿根廷",
    "country_iso_code": "AR",
    "timezone": "America/Argentina/Buenos_Aires",
    "latitude": -35.39624,
    "longitude": -58.99692
  },
  {
    "city": "Santa Elena",
    "city_zh": "Santa Elena",
    "country": "Argentina",
    "country_zh": "阿根廷",
    "country_iso_code": "AR",
    "timezone": "America/Argentina/Cordoba",
    "latitude": -30.94432,
    "longitude": -59.78832
  },
  {
    "city": "Santa Elena",
    "city_zh": "Santa Elena",
    "country": "Argentina",
    "country_zh": "阿根廷",
    "country_iso_code": "AR",
    "timezone": "America/Argentina/Buenos_Aires",
    "latitude": -37.86362,
    "longitude": -57.51715
  },
  {
    "city": "Tomás Santa Coloma",
    "city_zh": "Tomás Santa Coloma",
    "country": "Argentina",
    "country_zh": "阿根廷",
    "country_iso_code": "AR",
    "timezone": "America/Argentina/Buenos_Aires",
    "latitude": -34.43157,
    "longitude": -59.02747
  },
  {
    "city": "Santa Coloma",
    "city_zh": "Santa Coloma",
    "country": "Argentina",
    "country_zh": "阿根廷",
    "country_iso_code": "AR",
    "timezone": "America/Argentina/Buenos_Aires",
    "latitude": -34.06135,
    "longitude": -59.55921
  },
  {
    "city": "Santa Clara del Mar",
    "city_zh": "Santa Clara del Mar",
    "country": "Argentina",
    "country_zh": "阿根廷",
    "country_iso_code": "AR",
    "timezone": "America/Argentina/Buenos_Aires",
    "latitude": -37.83438,
    "longitude": -57.50749
  },
  {
    "city": "Colonia Santa Catalina",
    "city_zh": "Colonia Santa Catalina",
    "country": "Argentina",
    "country_zh": "阿根廷",
    "country_iso_code": "AR",
    "timezone": "America/Argentina/Cordoba",
    "latitude": -29.4239,
    "longitude": -59.98128
  },
  {
    "city": "Santa Catalina",
    "city_zh": "Santa Catalina",
    "country": "Argentina",
    "country_zh": "阿根廷",
    "country_iso_code": "AR",
    "timezone": "America/Argentina/Buenos_Aires",
    "latitude": -34.77694,
    "longitude": -58.43114
  },
  {
    "city": "Santa Anita",
    "city_zh": "Santa Anita",
    "country": "Argentina",
    "country_zh": "阿根廷",
    "country_iso_code": "AR",
    "timezone": "America/Argentina/Cordoba",
    "latitude": -32.17387,
    "longitude": -58.78526
  },
  {
    "city": "Santa Ana",
    "city_zh": "Santa Ana",
    "country": "Argentina",
    "country_zh": "阿根廷",
    "country_iso_code": "AR",
    "timezone": "America/Argentina/Cordoba",
    "latitude": -30.90069,
    "longitude": -57.93194
  },
  {
    "city": "Santa Ana",
    "city_zh": "Santa Ana",
    "country": "Argentina",
    "country_zh": "阿根廷",
    "country_iso_code": "AR",
    "timezone": "America/Argentina/Cordoba",
    "latitude": -27.45532,
    "longitude": -58.65483
  },
  {
    "city": "Santa Ana",
    "city_zh": "Santa Ana",
    "country": "Argentina",
    "country_zh": "阿根廷",
    "country_iso_code": "AR",
    "timezone": "America/Argentina/Cordoba",
    "latitude": -27.36924,
    "longitude": -55.58167
  },
  {
    "city": "San Silverio",
    "city_zh": "San Silverio",
    "country": "Argentina",
    "country_zh": "阿根廷",
    "country_iso_code": "AR",
    "timezone": "America/Argentina/Buenos_Aires",
    "latitude": -38.04181,
    "longitude": -58.18152
  },
  {
    "city": "San Sebastián",
    "city_zh": "San Sebastián",
    "country": "Argentina",
    "country_zh": "阿根廷",
    "country_iso_code": "AR",
    "timezone": "America/Argentina/Buenos_Aires",
    "latitude": -34.94253,
    "longitude": -59.70225
  },
  {
    "city": "San Salvador",
    "city_zh": "聖薩爾瓦多",
    "country": "Argentina",
    "country_zh": "阿根廷",
    "country_iso_code": "AR",
    "timezone": "America/Argentina/Cordoba",
    "latitude": -31.62494,
    "longitude": -58.50517
  },
  {
    "city": "San Salvador",
    "city_zh": "San Salvador",
    "country": "Argentina",
    "country_zh": "阿根廷",
    "country_iso_code": "AR",
    "timezone": "America/Argentina/Cordoba",
    "latitude": -29.2953,
    "longitude": -57.50506
  },
  {
    "city": "Paso San Roquito",
    "city_zh": "Paso San Roquito",
    "country": "Argentina",
    "country_zh": "阿根廷",
    "country_iso_code": "AR",
    "timezone": "America/Argentina/Cordoba",
    "latitude": -29.2972,
    "longitude": -57.55859
  },
  {
    "city": "San Roque",
    "city_zh": "San Roque",
    "country": "Argentina",
    "country_zh": "阿根廷",
    "country_iso_code": "AR",
    "timezone": "America/Argentina/Cordoba",
    "latitude": -28.57385,
    "longitude": -58.7095
  },
  {
    "city": "San Ramón",
    "city_zh": "San Ramón",
    "country": "Argentina",
    "country_zh": "阿根廷",
    "country_iso_code": "AR",
    "timezone": "America/Argentina/Buenos_Aires",
    "latitude": -35.49355,
    "longitude": -57.41632
  },
  {
    "city": "San Ramón",
    "city_zh": "San Ramón",
    "country": "Argentina",
    "country_zh": "阿根廷",
    "country_iso_code": "AR",
    "timezone": "America/Argentina/Cordoba",
    "latitude": -24.78239,
    "longitude": -58.79341
  },
  {
    "city": "San Ramón",
    "city_zh": "San Ramón",
    "country": "Argentina",
    "country_zh": "阿根廷",
    "country_iso_code": "AR",
    "timezone": "America/Argentina/Cordoba",
    "latitude": -30.82666,
    "longitude": -58.24124
  },
  {
    "city": "San Pedro",
    "city_zh": "San Pedro",
    "country": "Argentina",
    "country_zh": "阿根廷",
    "country_iso_code": "AR",
    "timezone": "America/Argentina/Buenos_Aires",
    "latitude": -36.3901,
    "longitude": -59.63079
  },
  {
    "city": "San Pedro del Iberá",
    "city_zh": "San Pedro del Iberá",
    "country": "Argentina",
    "country_zh": "阿根廷",
    "country_iso_code": "AR",
    "timezone": "America/Argentina/Cordoba",
    "latitude": -28.1592,
    "longitude": -56.70233
  },
  {
    "city": "San Pedro",
    "city_zh": "San Pedro",
    "country": "Argentina",
    "country_zh": "阿根廷",
    "country_iso_code": "AR",
    "timezone": "America/Argentina/Buenos_Aires",
    "latitude": -33.67918,
    "longitude": -59.66633
  },
  {
    "city": "San Pedro",
    "city_zh": "San Pedro",
    "country": "Argentina",
    "country_zh": "阿根廷",
    "country_iso_code": "AR",
    "timezone": "America/Argentina/Cordoba",
    "latitude": -26.6218,
    "longitude": -54.10902
  },
  {
    "city": "Colonia San Pedro",
    "city_zh": "Colonia San Pedro",
    "country": "Argentina",
    "country_zh": "阿根廷",
    "country_iso_code": "AR",
    "timezone": "America/Argentina/Cordoba",
    "latitude": -25.68457,
    "longitude": -59.95603
  },
  {
    "city": "San Miguel del Monte",
    "city_zh": "San Miguel del Monte",
    "country": "Argentina",
    "country_zh": "阿根廷",
    "country_iso_code": "AR",
    "timezone": "America/Argentina/Buenos_Aires",
    "latitude": -35.43922,
    "longitude": -58.80741
  },
  {
    "city": "San Miguel",
    "city_zh": "San Miguel",
    "country": "Argentina",
    "country_zh": "阿根廷",
    "country_iso_code": "AR",
    "timezone": "America/Argentina/Cordoba",
    "latitude": -27.99833,
    "longitude": -57.58735
  },
  {
    "city": "San Martín I",
    "city_zh": "San Martín I",
    "country": "Argentina",
    "country_zh": "阿根廷",
    "country_iso_code": "AR",
    "timezone": "America/Argentina/Cordoba",
    "latitude": -24.53247,
    "longitude": -59.90212
  },
  {
    "city": "Paraje San Martín",
    "city_zh": "Paraje San Martín",
    "country": "Argentina",
    "country_zh": "阿根廷",
    "country_iso_code": "AR",
    "timezone": "America/Argentina/Buenos_Aires",
    "latitude": -35.81011,
    "longitude": -58.73808
  },
  {
    "city": "Colonia San Martín",
    "city_zh": "Colonia San Martín",
    "country": "Argentina",
    "country_zh": "阿根廷",
    "country_iso_code": "AR",
    "timezone": "America/Argentina/Cordoba",
    "latitude": -32.34306,
    "longitude": -58.64855
  },
  {
    "city": "San Manuel",
    "city_zh": "San Manuel",
    "country": "Argentina",
    "country_zh": "阿根廷",
    "country_iso_code": "AR",
    "timezone": "America/Argentina/Buenos_Aires",
    "latitude": -37.78649,
    "longitude": -58.84849
  },
  {
    "city": "San Luis del Palmar",
    "city_zh": "San Luis del Palmar",
    "country": "Argentina",
    "country_zh": "阿根廷",
    "country_iso_code": "AR",
    "timezone": "America/Argentina/Cordoba",
    "latitude": -27.50766,
    "longitude": -58.55625
  },
  {
    "city": "Colonia San Luis",
    "city_zh": "Colonia San Luis",
    "country": "Argentina",
    "country_zh": "阿根廷",
    "country_iso_code": "AR",
    "timezone": "America/Argentina/Cordoba",
    "latitude": -31.21415,
    "longitude": -59.80978
  },
  {
    "city": "San Lucas",
    "city_zh": "San Lucas",
    "country": "Argentina",
    "country_zh": "阿根廷",
    "country_iso_code": "AR",
    "timezone": "America/Argentina/Cordoba",
    "latitude": -28.03329,
    "longitude": -55.49146
  },
  {
    "city": "San Lorenzo",
    "city_zh": "San Lorenzo",
    "country": "Argentina",
    "country_zh": "阿根廷",
    "country_iso_code": "AR",
    "timezone": "America/Argentina/Cordoba",
    "latitude": -28.13442,
    "longitude": -58.76685
  },
  {
    "city": "San Lorencito",
    "city_zh": "San Lorencito",
    "country": "Argentina",
    "country_zh": "阿根廷",
    "country_iso_code": "AR",
    "timezone": "America/Argentina/Cordoba",
    "latitude": -27.92387,
    "longitude": -58.36155
  },
  {
    "city": "San Leoncio",
    "city_zh": "San Leoncio",
    "country": "Argentina",
    "country_zh": "阿根廷",
    "country_iso_code": "AR",
    "timezone": "America/Argentina/Buenos_Aires",
    "latitude": -37.35882,
    "longitude": -57.44715
  },
  {
    "city": "San Justo",
    "city_zh": "San Justo",
    "country": "Argentina",
    "country_zh": "阿根廷",
    "country_iso_code": "AR",
    "timezone": "America/Argentina/Buenos_Aires",
    "latitude": -34.68107,
    "longitude": -58.56379
  },
  {
    "city": "Villa San Justo",
    "city_zh": "Villa San Justo",
    "country": "Argentina",
    "country_zh": "阿根廷",
    "country_iso_code": "AR",
    "timezone": "America/Argentina/Cordoba",
    "latitude": -32.44569,
    "longitude": -58.43541
  },
  {
    "city": "San Juan de la Sierra",
    "city_zh": "San Juan de la Sierra",
    "country": "Argentina",
    "country_zh": "阿根廷",
    "country_iso_code": "AR",
    "timezone": "America/Argentina/Cordoba",
    "latitude": -27.77068,
    "longitude": -55.50283
  },
  {
    "city": "Colonia San Juan",
    "city_zh": "Colonia San Juan",
    "country": "Argentina",
    "country_zh": "阿根廷",
    "country_iso_code": "AR",
    "timezone": "America/Argentina/Cordoba",
    "latitude": -25.175,
    "longitude": -57.94433
  },
  {
    "city": "San José de Feliciano",
    "city_zh": "San José de Feliciano",
    "country": "Argentina",
    "country_zh": "阿根廷",
    "country_iso_code": "AR",
    "timezone": "America/Argentina/Cordoba",
    "latitude": -30.38546,
    "longitude": -58.75025
  },
  {
    "city": "San José",
    "city_zh": "San José",
    "country": "Argentina",
    "country_zh": "阿根廷",
    "country_iso_code": "AR",
    "timezone": "America/Argentina/Buenos_Aires",
    "latitude": -35.34492,
    "longitude": -57.72235
  },
  {
    "city": "San José",
    "city_zh": "San José",
    "country": "Argentina",
    "country_zh": "阿根廷",
    "country_iso_code": "AR",
    "timezone": "America/Argentina/Buenos_Aires",
    "latitude": -38.17633,
    "longitude": -59.00728
  },
  {
    "city": "San José",
    "city_zh": "San José",
    "country": "Argentina",
    "country_zh": "阿根廷",
    "country_iso_code": "AR",
    "timezone": "America/Argentina/Cordoba",
    "latitude": -27.76916,
    "longitude": -55.78033
  },
  {
    "city": "San Jorge",
    "city_zh": "San Jorge",
    "country": "Argentina",
    "country_zh": "阿根廷",
    "country_iso_code": "AR",
    "timezone": "America/Argentina/Cordoba",
    "latitude": -31.8532,
    "longitude": -58.75193
  },
  {
    "city": "Colonia San Joaquín",
    "city_zh": "Colonia San Joaquín",
    "country": "Argentina",
    "country_zh": "阿根廷",
    "country_iso_code": "AR",
    "timezone": "America/Argentina/Cordoba",
    "latitude": -27.62404,
    "longitude": -56.22849
  },
  {
    "city": "San Javier",
    "city_zh": "San Javier",
    "country": "Argentina",
    "country_zh": "阿根廷",
    "country_iso_code": "AR",
    "timezone": "America/Argentina/Cordoba",
    "latitude": -30.57781,
    "longitude": -59.9317
  },
  {
    "city": "San Javier",
    "city_zh": "San Javier",
    "country": "Argentina",
    "country_zh": "阿根廷",
    "country_iso_code": "AR",
    "timezone": "America/Argentina/Cordoba",
    "latitude": -27.87398,
    "longitude": -55.13485
  },
  {
    "city": "San Jaime de la Frontera",
    "city_zh": "San Jaime de la Frontera",
    "country": "Argentina",
    "country_zh": "阿根廷",
    "country_iso_code": "AR",
    "timezone": "America/Argentina/Cordoba",
    "latitude": -30.34034,
    "longitude": -58.30693
  },
  {
    "city": "San Jacinto",
    "city_zh": "San Jacinto",
    "country": "Argentina",
    "country_zh": "阿根廷",
    "country_iso_code": "AR",
    "timezone": "America/Argentina/Buenos_Aires",
    "latitude": -34.64455,
    "longitude": -59.52411
  },
  {
    "city": "San Isidro",
    "city_zh": "圣伊西德罗",
    "country": "Argentina",
    "country_zh": "阿根廷",
    "country_iso_code": "AR",
    "timezone": "America/Argentina/Buenos_Aires",
    "latitude": -34.46971,
    "longitude": -58.52111
  },
  {
    "city": "San Isidro",
    "city_zh": "San Isidro",
    "country": "Argentina",
    "country_zh": "阿根廷",
    "country_iso_code": "AR",
    "timezone": "America/Argentina/Cordoba",
    "latitude": -29.68992,
    "longitude": -57.55666
  },
  {
    "city": "San Ignacio",
    "city_zh": "San Ignacio",
    "country": "Argentina",
    "country_zh": "阿根廷",
    "country_iso_code": "AR",
    "timezone": "America/Argentina/Buenos_Aires",
    "latitude": -37.34113,
    "longitude": -58.42368
  },
  {
    "city": "San Ignacio",
    "city_zh": "San Ignacio",
    "country": "Argentina",
    "country_zh": "阿根廷",
    "country_iso_code": "AR",
    "timezone": "America/Argentina/Cordoba",
    "latitude": -27.25865,
    "longitude": -55.53897
  },
  {
    "city": "San Horacio",
    "city_zh": "San Horacio",
    "country": "Argentina",
    "country_zh": "阿根廷",
    "country_iso_code": "AR",
    "timezone": "America/Argentina/Cordoba",
    "latitude": -27.988,
    "longitude": -55.8004
  },
  {
    "city": "San Hilario",
    "city_zh": "San Hilario",
    "country": "Argentina",
    "country_zh": "阿根廷",
    "country_iso_code": "AR",
    "timezone": "America/Argentina/Cordoba",
    "latitude": -26.02739,
    "longitude": -58.6509
  },
  {
    "city": "San Gustavo",
    "city_zh": "San Gustavo",
    "country": "Argentina",
    "country_zh": "阿根廷",
    "country_iso_code": "AR",
    "timezone": "America/Argentina/Cordoba",
    "latitude": -30.68979,
    "longitude": -59.39881
  },
  {
    "city": "Colonia San Gregorio Sur",
    "city_zh": "Colonia San Gregorio Sur",
    "country": "Argentina",
    "country_zh": "阿根廷",
    "country_iso_code": "AR",
    "timezone": "America/Argentina/Cordoba",
    "latitude": -30.62242,
    "longitude": -57.89216
  },
  {
    "city": "San Gregorio",
    "city_zh": "San Gregorio",
    "country": "Argentina",
    "country_zh": "阿根廷",
    "country_iso_code": "AR",
    "timezone": "America/Argentina/Cordoba",
    "latitude": -29.50742,
    "longitude": -59.39102
  },
  {
    "city": "San Gabriel",
    "city_zh": "San Gabriel",
    "country": "Argentina",
    "country_zh": "阿根廷",
    "country_iso_code": "AR",
    "timezone": "America/Argentina/Cordoba",
    "latitude": -28.96845,
    "longitude": -57.19657
  },
  {
    "city": "San Francisco Solano",
    "city_zh": "San Francisco Solano",
    "country": "Argentina",
    "country_zh": "阿根廷",
    "country_iso_code": "AR",
    "timezone": "America/Argentina/Buenos_Aires",
    "latitude": -34.78359,
    "longitude": -58.31377
  },
  {
    "city": "San Francisco de Laishi",
    "city_zh": "San Francisco de Laishi",
    "country": "Argentina",
    "country_zh": "阿根廷",
    "country_iso_code": "AR",
    "timezone": "America/Argentina/Cordoba",
    "latitude": -26.24399,
    "longitude": -58.62962
  },
  {
    "city": "San Francisco de Asís",
    "city_zh": "San Francisco de Asís",
    "country": "Argentina",
    "country_zh": "阿根廷",
    "country_iso_code": "AR",
    "timezone": "America/Argentina/Cordoba",
    "latitude": -27.46375,
    "longitude": -54.74536
  },
  {
    "city": "San Francisco",
    "city_zh": "San Francisco",
    "country": "Argentina",
    "country_zh": "阿根廷",
    "country_iso_code": "AR",
    "timezone": "America/Argentina/Cordoba",
    "latitude": -29.42423,
    "longitude": -59.38525
  },
  {
    "city": "San Fernando",
    "city_zh": "San Fernando",
    "country": "Argentina",
    "country_zh": "阿根廷",
    "country_iso_code": "AR",
    "timezone": "America/Argentina/Buenos_Aires",
    "latitude": -34.44104,
    "longitude": -58.56279
  },
  {
    "city": "San Eladio",
    "city_zh": "San Eladio",
    "country": "Argentina",
    "country_zh": "阿根廷",
    "country_iso_code": "AR",
    "timezone": "America/Argentina/Buenos_Aires",
    "latitude": -34.75118,
    "longitude": -59.18638
  },
  {
    "city": "San Cristóbal",
    "city_zh": "San Cristóbal",
    "country": "Argentina",
    "country_zh": "阿根廷",
    "country_iso_code": "AR",
    "timezone": "America/Argentina/Buenos_Aires",
    "latitude": -34.62212,
    "longitude": -58.39766
  },
  {
    "city": "San Cosme",
    "city_zh": "San Cosme",
    "country": "Argentina",
    "country_zh": "阿根廷",
    "country_iso_code": "AR",
    "timezone": "America/Argentina/Cordoba",
    "latitude": -27.37137,
    "longitude": -58.51112
  },
  {
    "city": "San Clemente del Tuyú",
    "city_zh": "San Clemente del Tuyú",
    "country": "Argentina",
    "country_zh": "阿根廷",
    "country_iso_code": "AR",
    "timezone": "America/Argentina/Buenos_Aires",
    "latitude": -36.35419,
    "longitude": -56.72568
  },
  {
    "city": "San Cayetano",
    "city_zh": "San Cayetano",
    "country": "Argentina",
    "country_zh": "阿根廷",
    "country_iso_code": "AR",
    "timezone": "America/Argentina/Buenos_Aires",
    "latitude": -38.34677,
    "longitude": -59.60938
  },
  {
    "city": "San Carlos",
    "city_zh": "San Carlos",
    "country": "Argentina",
    "country_zh": "阿根廷",
    "country_iso_code": "AR",
    "timezone": "America/Argentina/Buenos_Aires",
    "latitude": -33.70315,
    "longitude": -59.98029
  },
  {
    "city": "Colonia San Carlos",
    "city_zh": "Colonia San Carlos",
    "country": "Argentina",
    "country_zh": "阿根廷",
    "country_iso_code": "AR",
    "timezone": "America/Argentina/Cordoba",
    "latitude": -31.19564,
    "longitude": -59.66677
  },
  {
    "city": "San Carlos",
    "city_zh": "San Carlos",
    "country": "Argentina",
    "country_zh": "阿根廷",
    "country_iso_code": "AR",
    "timezone": "America/Argentina/Cordoba",
    "latitude": -27.74706,
    "longitude": -55.89639
  },
  {
    "city": "San Carlos",
    "city_zh": "San Carlos",
    "country": "Argentina",
    "country_zh": "阿根廷",
    "country_iso_code": "AR",
    "timezone": "America/Argentina/Cordoba",
    "latitude": -27.23123,
    "longitude": -54.45809
  },
  {
    "city": "San Carlos",
    "city_zh": "San Carlos",
    "country": "Argentina",
    "country_zh": "阿根廷",
    "country_iso_code": "AR",
    "timezone": "America/Argentina/Cordoba",
    "latitude": -25.60369,
    "longitude": -59.88977
  },
  {
    "city": "San Cala",
    "city_zh": "San Cala",
    "country": "Argentina",
    "country_zh": "阿根廷",
    "country_iso_code": "AR",
    "timezone": "America/Argentina/Buenos_Aires",
    "latitude": -38.03367,
    "longitude": -59.54115
  },
  {
    "city": "San Borgita",
    "city_zh": "San Borgita",
    "country": "Argentina",
    "country_zh": "阿根廷",
    "country_iso_code": "AR",
    "timezone": "America/Argentina/Cordoba",
    "latitude": -27.49242,
    "longitude": -56.09435
  },
  {
    "city": "San Bernardo del Tuyú",
    "city_zh": "San Bernardo del Tuyú",
    "country": "Argentina",
    "country_zh": "阿根廷",
    "country_iso_code": "AR",
    "timezone": "America/Argentina/Buenos_Aires",
    "latitude": -36.69733,
    "longitude": -56.68293
  },
  {
    "city": "San Benito",
    "city_zh": "San Benito",
    "country": "Argentina",
    "country_zh": "阿根廷",
    "country_iso_code": "AR",
    "timezone": "America/Argentina/Cordoba",
    "latitude": -27.3837,
    "longitude": -58.22547
  },
  {
    "city": "San Benito",
    "city_zh": "San Benito",
    "country": "Argentina",
    "country_zh": "阿根廷",
    "country_iso_code": "AR",
    "timezone": "America/Argentina/Buenos_Aires",
    "latitude": -35.66909,
    "longitude": -59.88429
  },
  {
    "city": "San Antonio de Padua",
    "city_zh": "聖安東尼奧德帕杜瓦",
    "country": "Argentina",
    "country_zh": "阿根廷",
    "country_iso_code": "AR",
    "timezone": "America/Argentina/Buenos_Aires",
    "latitude": -34.66267,
    "longitude": -58.69819
  },
  {
    "city": "San Antonio de Obligado",
    "city_zh": "San Antonio de Obligado",
    "country": "Argentina",
    "country_zh": "阿根廷",
    "country_iso_code": "AR",
    "timezone": "America/Argentina/Cordoba",
    "latitude": -28.38395,
    "longitude": -59.2644
  },
  {
    "city": "San Antonio de Areco",
    "city_zh": "San Antonio de Areco",
    "country": "Argentina",
    "country_zh": "阿根廷",
    "country_iso_code": "AR",
    "timezone": "America/Argentina/Buenos_Aires",
    "latitude": -34.25083,
    "longitude": -59.46944
  },
  {
    "city": "San Antonio",
    "city_zh": "San Antonio",
    "country": "Argentina",
    "country_zh": "阿根廷",
    "country_iso_code": "AR",
    "timezone": "America/Argentina/Buenos_Aires",
    "latitude": -37.09287,
    "longitude": -59.32768
  },
  {
    "city": "San Antonio",
    "city_zh": "San Antonio",
    "country": "Argentina",
    "country_zh": "阿根廷",
    "country_iso_code": "AR",
    "timezone": "America/Argentina/Cordoba",
    "latitude": -29.61005,
    "longitude": -59.45968
  },
  {
    "city": "San Antonio",
    "city_zh": "San Antonio",
    "country": "Argentina",
    "country_zh": "阿根廷",
    "country_iso_code": "AR",
    "timezone": "America/Argentina/Cordoba",
    "latitude": -29.74807,
    "longitude": -57.55272
  },
  {
    "city": "San Antonio",
    "city_zh": "San Antonio",
    "country": "Argentina",
    "country_zh": "阿根廷",
    "country_iso_code": "AR",
    "timezone": "America/Argentina/Cordoba",
    "latitude": -27.65,
    "longitude": -55.93333
  },
  {
    "city": "San Antonio",
    "city_zh": "San Antonio",
    "country": "Argentina",
    "country_zh": "阿根廷",
    "country_iso_code": "AR",
    "timezone": "America/Argentina/Cordoba",
    "latitude": -26.05993,
    "longitude": -53.73578
  },
  {
    "city": "San Antonio",
    "city_zh": "San Antonio",
    "country": "Argentina",
    "country_zh": "阿根廷",
    "country_iso_code": "AR",
    "timezone": "America/Argentina/Cordoba",
    "latitude": -26.72157,
    "longitude": -58.90937
  },
  {
    "city": "San Andrés de Giles",
    "city_zh": "San Andrés de Giles",
    "country": "Argentina",
    "country_zh": "阿根廷",
    "country_iso_code": "AR",
    "timezone": "America/Argentina/Buenos_Aires",
    "latitude": -34.44738,
    "longitude": -59.44442
  },
  {
    "city": "Villa San Andrés",
    "city_zh": "Villa San Andrés",
    "country": "Argentina",
    "country_zh": "阿根廷",
    "country_iso_code": "AR",
    "timezone": "America/Argentina/Buenos_Aires",
    "latitude": -34.56507,
    "longitude": -58.54187
  },
  {
    "city": "San Alberto",
    "city_zh": "San Alberto",
    "country": "Argentina",
    "country_zh": "阿根廷",
    "country_iso_code": "AR",
    "timezone": "America/Argentina/Cordoba",
    "latitude": -25.75518,
    "longitude": -57.8539
  },
  {
    "city": "San Alberto",
    "city_zh": "San Alberto",
    "country": "Argentina",
    "country_zh": "阿根廷",
    "country_iso_code": "AR",
    "timezone": "America/Argentina/Cordoba",
    "latitude": -26.81146,
    "longitude": -54.99072
  },
  {
    "city": "San Agustín",
    "city_zh": "San Agustín",
    "country": "Argentina",
    "country_zh": "阿根廷",
    "country_iso_code": "AR",
    "timezone": "America/Argentina/Buenos_Aires",
    "latitude": -38.01411,
    "longitude": -58.35593
  },
  {
    "city": "Samborombón",
    "city_zh": "Samborombón",
    "country": "Argentina",
    "country_zh": "阿根廷",
    "country_iso_code": "AR",
    "timezone": "America/Argentina/Buenos_Aires",
    "latitude": -35.21997,
    "longitude": -58.281
  },
  {
    "city": "Salvador María",
    "city_zh": "Salvador María",
    "country": "Argentina",
    "country_zh": "阿根廷",
    "country_iso_code": "AR",
    "timezone": "America/Argentina/Buenos_Aires",
    "latitude": -35.30067,
    "longitude": -59.17014
  },
  {
    "city": "Salto de la Vieja",
    "city_zh": "Salto de la Vieja",
    "country": "Argentina",
    "country_zh": "阿根廷",
    "country_iso_code": "AR",
    "timezone": "America/Argentina/Cordoba",
    "latitude": -26.92749,
    "longitude": -59.59327
  },
  {
    "city": "El Salto",
    "city_zh": "El Salto",
    "country": "Argentina",
    "country_zh": "阿根廷",
    "country_iso_code": "AR",
    "timezone": "America/Argentina/Cordoba",
    "latitude": -27.49541,
    "longitude": -55.19856
  },
  {
    "city": "Saldaña",
    "city_zh": "Saldaña",
    "country": "Argentina",
    "country_zh": "阿根廷",
    "country_iso_code": "AR",
    "timezone": "America/Argentina/Cordoba",
    "latitude": -27.80343,
    "longitude": -57.9338
  },
  {
    "city": "Saladillo",
    "city_zh": "Saladillo",
    "country": "Argentina",
    "country_zh": "阿根廷",
    "country_iso_code": "AR",
    "timezone": "America/Argentina/Buenos_Aires",
    "latitude": -35.63884,
    "longitude": -59.77938
  },
  {
    "city": "Saladas",
    "city_zh": "Saladas",
    "country": "Argentina",
    "country_zh": "阿根廷",
    "country_iso_code": "AR",
    "timezone": "America/Argentina/Cordoba",
    "latitude": -28.25504,
    "longitude": -58.62386
  },
  {
    "city": "Sáenz Valiente",
    "city_zh": "Sáenz Valiente",
    "country": "Argentina",
    "country_zh": "阿根廷",
    "country_iso_code": "AR",
    "timezone": "America/Argentina/Cordoba",
    "latitude": -30.49476,
    "longitude": -57.91155
  },
  {
    "city": "Sáenz Peña",
    "city_zh": "Sáenz Peña",
    "country": "Argentina",
    "country_zh": "阿根廷",
    "country_iso_code": "AR",
    "timezone": "America/Argentina/Buenos_Aires",
    "latitude": -34.60013,
    "longitude": -58.52759
  },
  {
    "city": "Saavedra",
    "city_zh": "Saavedra",
    "country": "Argentina",
    "country_zh": "阿根廷",
    "country_iso_code": "AR",
    "timezone": "America/Argentina/Buenos_Aires",
    "latitude": -34.54969,
    "longitude": -58.48572
  },
  {
    "city": "Ruiz de Montoya",
    "city_zh": "Ruiz de Montoya",
    "country": "Argentina",
    "country_zh": "阿根廷",
    "country_iso_code": "AR",
    "timezone": "America/Argentina/Cordoba",
    "latitude": -26.97088,
    "longitude": -55.05067
  },
  {
    "city": "Villa Ruiz",
    "city_zh": "Villa Ruiz",
    "country": "Argentina",
    "country_zh": "阿根廷",
    "country_iso_code": "AR",
    "timezone": "America/Argentina/Buenos_Aires",
    "latitude": -34.43367,
    "longitude": -59.26025
  },
  {
    "city": "Rosas",
    "city_zh": "Rosas",
    "country": "Argentina",
    "country_zh": "阿根廷",
    "country_iso_code": "AR",
    "timezone": "America/Argentina/Buenos_Aires",
    "latitude": -35.96556,
    "longitude": -58.9392
  },
  {
    "city": "Rosario del Tala",
    "city_zh": "羅薩里奧德爾塔拉",
    "country": "Argentina",
    "country_zh": "阿根廷",
    "country_iso_code": "AR",
    "timezone": "America/Argentina/Cordoba",
    "latitude": -32.30073,
    "longitude": -59.13928
  },
  {
    "city": "Roque Pérez",
    "city_zh": "Roque Pérez",
    "country": "Argentina",
    "country_zh": "阿根廷",
    "country_iso_code": "AR",
    "timezone": "America/Argentina/Buenos_Aires",
    "latitude": -35.40058,
    "longitude": -59.33483
  },
  {
    "city": "Romang",
    "city_zh": "Romang",
    "country": "Argentina",
    "country_zh": "阿根廷",
    "country_iso_code": "AR",
    "timezone": "America/Argentina/Cordoba",
    "latitude": -29.50162,
    "longitude": -59.74806
  },
  {
    "city": "Rocamora",
    "city_zh": "Rocamora",
    "country": "Argentina",
    "country_zh": "阿根廷",
    "country_iso_code": "AR",
    "timezone": "America/Argentina/Cordoba",
    "latitude": -32.34273,
    "longitude": -58.97086
  },
  {
    "city": "Roberto J. Payró",
    "city_zh": "Roberto J. Payró",
    "country": "Argentina",
    "country_zh": "阿根廷",
    "country_iso_code": "AR",
    "timezone": "America/Argentina/Buenos_Aires",
    "latitude": -35.18076,
    "longitude": -57.65387
  },
  {
    "city": "General Rivas",
    "city_zh": "General Rivas",
    "country": "Argentina",
    "country_zh": "阿根廷",
    "country_iso_code": "AR",
    "timezone": "America/Argentina/Buenos_Aires",
    "latitude": -34.60872,
    "longitude": -59.75281
  },
  {
    "city": "Río Yaboty",
    "city_zh": "Río Yaboty",
    "country": "Argentina",
    "country_zh": "阿根廷",
    "country_iso_code": "AR",
    "timezone": "America/Argentina/Cordoba",
    "latitude": -27.14714,
    "longitude": -53.95432
  },
  {
    "city": "Río Tapenagá",
    "city_zh": "Río Tapenagá",
    "country": "Argentina",
    "country_zh": "阿根廷",
    "country_iso_code": "AR",
    "timezone": "America/Argentina/Cordoba",
    "latitude": -27.56478,
    "longitude": -59.65906
  },
  {
    "city": "Río Tala",
    "city_zh": "Río Tala",
    "country": "Argentina",
    "country_zh": "阿根廷",
    "country_iso_code": "AR",
    "timezone": "America/Argentina/Buenos_Aires",
    "latitude": -33.76922,
    "longitude": -59.63855
  },
  {
    "city": "Río Luján",
    "city_zh": "Río Luján",
    "country": "Argentina",
    "country_zh": "阿根廷",
    "country_iso_code": "AR",
    "timezone": "America/Argentina/Buenos_Aires",
    "latitude": -34.27864,
    "longitude": -58.8976
  },
  {
    "city": "Ringuelet",
    "city_zh": "Ringuelet",
    "country": "Argentina",
    "country_zh": "阿根廷",
    "country_iso_code": "AR",
    "timezone": "America/Argentina/Buenos_Aires",
    "latitude": -34.8837,
    "longitude": -57.99155
  },
  {
    "city": "Rincón Tranquera General",
    "city_zh": "Rincón Tranquera General",
    "country": "Argentina",
    "country_zh": "阿根廷",
    "country_iso_code": "AR",
    "timezone": "America/Argentina/Cordoba",
    "latitude": -28.9514,
    "longitude": -57.9688
  },
  {
    "city": "Rincón de Zalazar",
    "city_zh": "Rincón de Zalazar",
    "country": "Argentina",
    "country_zh": "阿根廷",
    "country_iso_code": "AR",
    "timezone": "America/Argentina/Cordoba",
    "latitude": -27.82556,
    "longitude": -57.96045
  },
  {
    "city": "Rincón de Vences",
    "city_zh": "Rincón de Vences",
    "country": "Argentina",
    "country_zh": "阿根廷",
    "country_iso_code": "AR",
    "timezone": "America/Argentina/Cordoba",
    "latitude": -27.81237,
    "longitude": -58.25405
  },
  {
    "city": "Rincón de Soto",
    "city_zh": "Rincón de Soto",
    "country": "Argentina",
    "country_zh": "阿根廷",
    "country_iso_code": "AR",
    "timezone": "America/Argentina/Cordoba",
    "latitude": -29.06557,
    "longitude": -59.20516
  },
  {
    "city": "Rincón de Nogoyá",
    "city_zh": "Rincón de Nogoyá",
    "country": "Argentina",
    "country_zh": "阿根廷",
    "country_iso_code": "AR",
    "timezone": "America/Argentina/Cordoba",
    "latitude": -32.75,
    "longitude": -59.93333
  },
  {
    "city": "Rincón de Luna",
    "city_zh": "Rincón de Luna",
    "country": "Argentina",
    "country_zh": "阿根廷",
    "country_iso_code": "AR",
    "timezone": "America/Argentina/Cordoba",
    "latitude": -28.46255,
    "longitude": -58.23853
  },
  {
    "city": "Rincón del Ombú",
    "city_zh": "Rincón del Ombú",
    "country": "Argentina",
    "country_zh": "阿根廷",
    "country_iso_code": "AR",
    "timezone": "America/Argentina/Cordoba",
    "latitude": -29.46845,
    "longitude": -57.83032
  },
  {
    "city": "Rincón Ombú Chico",
    "city_zh": "Rincón Ombú Chico",
    "country": "Argentina",
    "country_zh": "阿根廷",
    "country_iso_code": "AR",
    "timezone": "America/Argentina/Cordoba",
    "latitude": -27.41019,
    "longitude": -56.26017
  },
  {
    "city": "Rincón de Ambrosio",
    "city_zh": "Rincón de Ambrosio",
    "country": "Argentina",
    "country_zh": "阿根廷",
    "country_iso_code": "AR",
    "timezone": "America/Argentina/Cordoba",
    "latitude": -28.24403,
    "longitude": -58.83885
  },
  {
    "city": "Rincón del Guerrero",
    "city_zh": "Rincón del Guerrero",
    "country": "Argentina",
    "country_zh": "阿根廷",
    "country_iso_code": "AR",
    "timezone": "America/Argentina/Cordoba",
    "latitude": -27.75616,
    "longitude": -55.21364
  },
  {
    "city": "Riachuelo",
    "city_zh": "Riachuelo",
    "country": "Argentina",
    "country_zh": "阿根廷",
    "country_iso_code": "AR",
    "timezone": "America/Argentina/Cordoba",
    "latitude": -27.58191,
    "longitude": -58.74497
  },
  {
    "city": "Riacho Negro",
    "city_zh": "Riacho Negro",
    "country": "Argentina",
    "country_zh": "阿根廷",
    "country_iso_code": "AR",
    "timezone": "America/Argentina/Cordoba",
    "latitude": -25.42369,
    "longitude": -57.79313
  },
  {
    "city": "Riacho Lindo",
    "city_zh": "Riacho Lindo",
    "country": "Argentina",
    "country_zh": "阿根廷",
    "country_iso_code": "AR",
    "timezone": "America/Argentina/Cordoba",
    "latitude": -26.42458,
    "longitude": -58.55405
  },
  {
    "city": "Riacho He-He",
    "city_zh": "Riacho He-He",
    "country": "Argentina",
    "country_zh": "阿根廷",
    "country_iso_code": "AR",
    "timezone": "America/Argentina/Cordoba",
    "latitude": -25.36097,
    "longitude": -58.27731
  },
  {
    "city": "Retiro",
    "city_zh": "雷蒂罗",
    "country": "Argentina",
    "country_zh": "阿根廷",
    "country_iso_code": "AR",
    "timezone": "America/Argentina/Buenos_Aires",
    "latitude": -34.58333,
    "longitude": -58.38333
  },
  {
    "city": "Resistencia",
    "city_zh": "雷西斯滕西亚",
    "country": "Argentina",
    "country_zh": "阿根廷",
    "country_iso_code": "AR",
    "timezone": "America/Argentina/Cordoba",
    "latitude": -27.46363,
    "longitude": -58.98665
  },
  {
    "city": "Remedios de Escalada de San Martín",
    "city_zh": "Remedios de Escalada de San Martín",
    "country": "Argentina",
    "country_zh": "阿根廷",
    "country_iso_code": "AR",
    "timezone": "America/Argentina/Buenos_Aires",
    "latitude": -34.72589,
    "longitude": -58.39663
  },
  {
    "city": "Reconquista",
    "city_zh": "Reconquista",
    "country": "Argentina",
    "country_zh": "阿根廷",
    "country_iso_code": "AR",
    "timezone": "America/Argentina/Cordoba",
    "latitude": -29.15,
    "longitude": -59.65
  },
  {
    "city": "Recoleta",
    "city_zh": "雷科莱塔",
    "country": "Argentina",
    "country_zh": "阿根廷",
    "country_iso_code": "AR",
    "timezone": "America/Argentina/Buenos_Aires",
    "latitude": -34.58565,
    "longitude": -58.39347
  },
  {
    "city": "Real Audiencia",
    "city_zh": "Real Audiencia",
    "country": "Argentina",
    "country_zh": "阿根廷",
    "country_iso_code": "AR",
    "timezone": "America/Argentina/Buenos_Aires",
    "latitude": -36.17584,
    "longitude": -58.58431
  },
  {
    "city": "Rauch",
    "city_zh": "Rauch",
    "country": "Argentina",
    "country_zh": "阿根廷",
    "country_iso_code": "AR",
    "timezone": "America/Argentina/Buenos_Aires",
    "latitude": -36.77441,
    "longitude": -59.08829
  },
  {
    "city": "Ranelagh",
    "city_zh": "Ranelagh",
    "country": "Argentina",
    "country_zh": "阿根廷",
    "country_iso_code": "AR",
    "timezone": "America/Argentina/Buenos_Aires",
    "latitude": -34.78795,
    "longitude": -58.20253
  },
  {
    "city": "Ranchos",
    "city_zh": "Ranchos",
    "country": "Argentina",
    "country_zh": "阿根廷",
    "country_iso_code": "AR",
    "timezone": "America/Argentina/Buenos_Aires",
    "latitude": -35.51601,
    "longitude": -58.3188
  },
  {
    "city": "Ramos Otero",
    "city_zh": "Ramos Otero",
    "country": "Argentina",
    "country_zh": "阿根廷",
    "country_iso_code": "AR",
    "timezone": "America/Argentina/Buenos_Aires",
    "latitude": -37.54099,
    "longitude": -58.34052
  },
  {
    "city": "Ramos Mejía",
    "city_zh": "拉莫斯梅希亞",
    "country": "Argentina",
    "country_zh": "阿根廷",
    "country_iso_code": "AR",
    "timezone": "America/Argentina/Buenos_Aires",
    "latitude": -34.6551,
    "longitude": -58.55318
  },