[
  {
    "city": "Ytri Skáli",
    "city_zh": "Ytri Skáli",
    "country": "Faroe Islands",
    "country_zh": "Faroe Islands",
    "country_iso_code": "FO",
    "timezone": "Atlantic/Faroe",
    "latitude": 62.15853,
    "longitude": -6.78301
  },
  {
    "city": "Víkarbyrgi",
    "city_zh": "Víkarbyrgi",
    "country": "Faroe Islands",
    "country_zh": "Faroe Islands",
    "country_iso_code": "FO",
    "timezone": "Atlantic/Faroe",
    "latitude": 61.44268,
    "longitude": -6.7238
  },
  {
    "city": "Vikar",
    "city_zh": "Vikar",
    "country": "Faroe Islands",
    "country_zh": "Faroe Islands",
    "country_iso_code": "FO",
    "timezone": "Atlantic/Faroe",
    "latitude": 62.13333,
    "longitude": -7.36667
  },
  {
    "city": "Við Sjógv",
    "city_zh": "Við Sjógv",
    "country": "Faroe Islands",
    "country_zh": "Faroe Islands",
    "country_iso_code": "FO",
    "timezone": "Atlantic/Faroe",
    "latitude": 62.11821,
    "longitude": -6.89744
  },
  {
    "city": "Við Sjógv",
    "city_zh": "Við Sjógv",
    "country": "Faroe Islands",
    "country_zh": "Faroe Islands",
    "country_iso_code": "FO",
    "timezone": "Atlantic/Faroe",
    "latitude": 62.11967,
    "longitude": -6.75005
  },
  {
    "city": "Við Neyst",
    "city_zh": "Við Neyst",
    "country": "Faroe Islands",
    "country_zh": "Faroe Islands",
    "country_iso_code": "FO",
    "timezone": "Atlantic/Faroe",
    "latitude": 61.59868,
    "longitude": -6.94971
  },
  {
    "city": "Við Kirkjar",
    "city_zh": "Við Kirkjar",
    "country": "Faroe Islands",
    "country_zh": "Faroe Islands",
    "country_iso_code": "FO",
    "timezone": "Atlantic/Faroe",
    "latitude": 62.04555,
    "longitude": -7.19551
  },
  {
    "city": "Við Garð",
    "city_zh": "Við Garð",
    "country": "Faroe Islands",
    "country_zh": "Faroe Islands",
    "country_iso_code": "FO",
    "timezone": "Atlantic/Faroe",
    "latitude": 62.36651,
    "longitude": -6.54327
  },
  {
    "city": "Við Garð",
    "city_zh": "Við Garð",
    "country": "Faroe Islands",
    "country_zh": "Faroe Islands",
    "country_iso_code": "FO",
    "timezone": "Atlantic/Faroe",
    "latitude": 62.20938,
    "longitude": -6.72079
  },
  {
    "city": "Viðareiði",
    "city_zh": "Viðareiði",
    "country": "Faroe Islands",
    "country_zh": "Faroe Islands",
    "country_iso_code": "FO",
    "timezone": "Atlantic/Faroe",
    "latitude": 62.35999,
    "longitude": -6.5313
  },
  {
    "city": "Vestmanna",
    "city_zh": "韦斯特曼纳",
    "country": "Faroe Islands",
    "country_zh": "Faroe Islands",
    "country_iso_code": "FO",
    "timezone": "Atlantic/Faroe",
    "latitude": 62.15354,
    "longitude": -7.17291
  },
  {
    "city": "Velbastaður",
    "city_zh": "Velbastaður",
    "country": "Faroe Islands",
    "country_zh": "Faroe Islands",
    "country_iso_code": "FO",
    "timezone": "Atlantic/Faroe",
    "latitude": 61.98084,
    "longitude": -6.85259
  },
  {
    "city": "Vatnsoyrar",
    "city_zh": "Vatnsoyrar",
    "country": "Faroe Islands",
    "country_zh": "Faroe Islands",
    "country_iso_code": "FO",
    "timezone": "Atlantic/Faroe",
    "latitude": 62.06667,
    "longitude": -7.23333
  },
  {
    "city": "Válur",
    "city_zh": "Válur",
    "country": "Faroe Islands",
    "country_zh": "Faroe Islands",
    "country_iso_code": "FO",
    "timezone": "Atlantic/Faroe",
    "latitude": 62.15033,
    "longitude": -7.14392
  },
  {
    "city": "Vágur",
    "city_zh": "Vágur",
    "country": "Faroe Islands",
    "country_zh": "Faroe Islands",
    "country_iso_code": "FO",
    "timezone": "Atlantic/Faroe",
    "latitude": 62.22398,
    "longitude": -6.58633
  },
  {
    "city": "Vágur",
    "city_zh": "Vágur",
    "country": "Faroe Islands",
    "country_zh": "Faroe Islands",
    "country_iso_code": "FO",
    "timezone": "Atlantic/Faroe",
    "latitude": 61.47324,
    "longitude": -6.81185
  },
  {
    "city": "Vágsheygur",
    "city_zh": "Vágsheygur",
    "country": "Faroe Islands",
    "country_zh": "Faroe Islands",
    "country_iso_code": "FO",
    "timezone": "Atlantic/Faroe",
    "latitude": 62.22127,
    "longitude": -6.56935
  },
  {
    "city": "Uti á Fløtum",
    "city_zh": "Uti á Fløtum",
    "country": "Faroe Islands",
    "country_zh": "Faroe Islands",
    "country_iso_code": "FO",
    "timezone": "Atlantic/Faroe",
    "latitude": 62.03333,
    "longitude": -6.95
  },
  {
    "city": "Uppsalir",
    "city_zh": "Uppsalir",
    "country": "Faroe Islands",
    "country_zh": "Faroe Islands",
    "country_iso_code": "FO",
    "timezone": "Atlantic/Faroe",
    "latitude": 62.22201,
    "longitude": -6.58421
  },
  {
    "city": "Tvøroyri",
    "city_zh": "Tvøroyri",
    "country": "Faroe Islands",
    "country_zh": "Faroe Islands",
    "country_iso_code": "FO",
    "timezone": "Atlantic/Faroe",
    "latitude": 61.55557,
    "longitude": -6.81109
  },
  {
    "city": "Trøllanes",
    "city_zh": "Trøllanes",
    "country": "Faroe Islands",
    "country_zh": "Faroe Islands",
    "country_iso_code": "FO",
    "timezone": "Atlantic/Faroe",
    "latitude": 62.36087,
    "longitude": -6.78266
  },
  {
    "city": "Trongisvágur",
    "city_zh": "Trongisvágur",
    "country": "Faroe Islands",
    "country_zh": "Faroe Islands",
    "country_iso_code": "FO",
    "timezone": "Atlantic/Faroe",
    "latitude": 61.56262,
    "longitude": -6.84793
  },
  {
    "city": "Traðir",
    "city_zh": "Traðir",
    "country": "Faroe Islands",
    "country_zh": "Faroe Islands",
    "country_iso_code": "FO",
    "timezone": "Atlantic/Faroe",
    "latitude": 61.8437,
    "longitude": -6.79075
  },
  {
    "city": "Tórshavn",
    "city_zh": "托爾斯港",
    "country": "Faroe Islands",
    "country_zh": "Faroe Islands",
    "country_iso_code": "FO",
    "timezone": "Atlantic/Faroe",
    "latitude": 62.00973,
    "longitude": -6.77164
  },
  {
    "city": "Torkilsheyggjur",
    "city_zh": "Torkilsheyggjur",
    "country": "Faroe Islands",
    "country_zh": "Faroe Islands",
    "country_iso_code": "FO",
    "timezone": "Atlantic/Faroe",
    "latitude": 62.08454,
    "longitude": -6.73419
  },
  {
    "city": "Toftir",
    "city_zh": "托夫蒂尔",
    "country": "Faroe Islands",
    "country_zh": "Faroe Islands",
    "country_iso_code": "FO",
    "timezone": "Atlantic/Faroe",
    "latitude": 62.0928,
    "longitude": -6.73475
  },
  {
    "city": "Toftanes",
    "city_zh": "Toftanes",
    "country": "Faroe Islands",
    "country_zh": "Faroe Islands",
    "country_iso_code": "FO",
    "timezone": "Atlantic/Faroe",
    "latitude": 62.21172,
    "longitude": -6.70969
  },
  {
    "city": "Todnes",
    "city_zh": "Todnes",
    "country": "Faroe Islands",
    "country_zh": "Faroe Islands",
    "country_iso_code": "FO",
    "timezone": "Atlantic/Faroe",
    "latitude": 62.11828,
    "longitude": -6.88512
  },
  {
    "city": "Tjørnuvík",
    "city_zh": "Tjørnuvík",
    "country": "Faroe Islands",
    "country_zh": "Faroe Islands",
    "country_iso_code": "FO",
    "timezone": "Atlantic/Faroe",
    "latitude": 62.28896,
    "longitude": -7.14555
  },
  {
    "city": "Teigar",
    "city_zh": "Teigar",
    "country": "Faroe Islands",
    "country_zh": "Faroe Islands",
    "country_iso_code": "FO",
    "timezone": "Atlantic/Faroe",
    "latitude": 61.52187,
    "longitude": -6.88469
  },
  {
    "city": "Syðrugøta",
    "city_zh": "Syðrugøta",
    "country": "Faroe Islands",
    "country_zh": "Faroe Islands",
    "country_iso_code": "FO",
    "timezone": "Atlantic/Faroe",
    "latitude": 62.18371,
    "longitude": -6.75145
  },
  {
    "city": "Syðradalur",
    "city_zh": "Syðradalur",
    "country": "Faroe Islands",
    "country_zh": "Faroe Islands",
    "country_iso_code": "FO",
    "timezone": "Atlantic/Faroe",
    "latitude": 62.245,
    "longitude": -6.66057
  },
  {
    "city": "Syðradalur",
    "city_zh": "Syðradalur",
    "country": "Faroe Islands",
    "country_zh": "Faroe Islands",
    "country_iso_code": "FO",
    "timezone": "Atlantic/Faroe",
    "latitude": 62.01882,
    "longitude": -6.9086
  },
  {
    "city": "Svínoy",
    "city_zh": "斯温岛",
    "country": "Faroe Islands",
    "country_zh": "Faroe Islands",
    "country_iso_code": "FO",
    "timezone": "Atlantic/Faroe",
    "latitude": 62.27865,
    "longitude": -6.33389
  },
  {
    "city": "Svínáir",
    "city_zh": "Svínáir",
    "country": "Faroe Islands",
    "country_zh": "Faroe Islands",
    "country_iso_code": "FO",
    "timezone": "Atlantic/Faroe",
    "latitude": 62.23164,
    "longitude": -7.02842
  },
  {
    "city": "Sund",
    "city_zh": "Sund",
    "country": "Faroe Islands",
    "country_zh": "Faroe Islands",
    "country_iso_code": "FO",
    "timezone": "Atlantic/Faroe",
    "latitude": 62.04728,
    "longitude": -6.83661
  },
  {
    "city": "Sumba",
    "city_zh": "松巴",
    "country": "Faroe Islands",
    "country_zh": "Faroe Islands",
    "country_iso_code": "FO",
    "timezone": "Atlantic/Faroe",
    "latitude": 61.40317,
    "longitude": -6.71196
  },
  {
    "city": "Stykkið",
    "city_zh": "Stykkið",
    "country": "Faroe Islands",
    "country_zh": "Faroe Islands",
    "country_iso_code": "FO",
    "timezone": "Atlantic/Faroe",
    "latitude": 62.11765,
    "longitude": -7.06006
  },
  {
    "city": "Strond",
    "city_zh": "Strond",
    "country": "Faroe Islands",
    "country_zh": "Faroe Islands",
    "country_iso_code": "FO",
    "timezone": "Atlantic/Faroe",
    "latitude": 62.26667,
    "longitude": -6.58333
  },
  {
    "city": "Streymnes",
    "city_zh": "斯特雷姆内斯",
    "country": "Faroe Islands",
    "country_zh": "Faroe Islands",
    "country_iso_code": "FO",
    "timezone": "Atlantic/Faroe",
    "latitude": 62.19153,
    "longitude": -7.0315
  },
  {
    "city": "Strendur",
    "city_zh": "斯特伦杜尔",
    "country": "Faroe Islands",
    "country_zh": "Faroe Islands",
    "country_iso_code": "FO",
    "timezone": "Atlantic/Faroe",
    "latitude": 62.10729,
    "longitude": -6.75721
  },
  {
    "city": "Sørvágur",
    "city_zh": "瑟沃格",
    "country": "Faroe Islands",
    "country_zh": "Faroe Islands",
    "country_iso_code": "FO",
    "timezone": "Atlantic/Faroe",
    "latitude": 62.07203,
    "longitude": -7.30749
  },
  {
    "city": "Søltuvík",
    "city_zh": "Søltuvík",
    "country": "Faroe Islands",
    "country_zh": "Faroe Islands",
    "country_iso_code": "FO",
    "timezone": "Atlantic/Faroe",
    "latitude": 61.84693,
    "longitude": -6.88732
  },
  {
    "city": "Søldarfjørður",
    "city_zh": "Søldarfjørður",
    "country": "Faroe Islands",
    "country_zh": "Faroe Islands",
    "country_iso_code": "FO",
    "timezone": "Atlantic/Faroe",
    "latitude": 62.16319,
    "longitude": -6.75429
  },
  {
    "city": "Slættanes",
    "city_zh": "Slættanes",
    "country": "Faroe Islands",
    "country_zh": "Faroe Islands",
    "country_iso_code": "FO",
    "timezone": "Atlantic/Faroe",
    "latitude": 62.15372,
    "longitude": -7.24506
  },
  {
    "city": "Skúvoy",
    "city_zh": "Skúvoy",
    "country": "Faroe Islands",
    "country_zh": "Faroe Islands",
    "country_iso_code": "FO",
    "timezone": "Atlantic/Faroe",
    "latitude": 61.77103,
    "longitude": -6.80501
  },
  {
    "city": "Skúli",
    "city_zh": "Skúli",
    "country": "Faroe Islands",
    "country_zh": "Faroe Islands",
    "country_iso_code": "FO",
    "timezone": "Atlantic/Faroe",
    "latitude": 61.83739,
    "longitude": -6.80723
  },
  {
    "city": "Skopun",
    "city_zh": "Skopun",
    "country": "Faroe Islands",
    "country_zh": "Faroe Islands",
    "country_iso_code": "FO",
    "timezone": "Atlantic/Faroe",
    "latitude": 61.90285,
    "longitude": -6.88234
  },
  {
    "city": "Skælingur",
    "city_zh": "Skælingur",
    "country": "Faroe Islands",
    "country_zh": "Faroe Islands",
    "country_iso_code": "FO",
    "timezone": "Atlantic/Faroe",
    "latitude": 62.09637,
    "longitude": -7.00609
  },
  {
    "city": "Skipanes",
    "city_zh": "Skipanes",
    "country": "Faroe Islands",
    "country_zh": "Faroe Islands",
    "country_iso_code": "FO",
    "timezone": "Atlantic/Faroe",
    "latitude": 62.17207,
    "longitude": -6.76502
  },
  {
    "city": "Skarvanes",
    "city_zh": "Skarvanes",
    "country": "Faroe Islands",
    "country_zh": "Faroe Islands",
    "country_iso_code": "FO",
    "timezone": "Atlantic/Faroe",
    "latitude": 61.79423,
    "longitude": -6.74543
  },
  {
    "city": "Skarð",
    "city_zh": "Skarð",
    "country": "Faroe Islands",
    "country_zh": "Faroe Islands",
    "country_iso_code": "FO",
    "timezone": "Atlantic/Faroe",
    "latitude": 62.32343,
    "longitude": -6.64254
  },
  {
    "city": "Skáli",
    "city_zh": "Skáli",
    "country": "Faroe Islands",
    "country_zh": "Faroe Islands",
    "country_iso_code": "FO",
    "timezone": "Atlantic/Faroe",
    "latitude": 62.15536,
    "longitude": -6.7794
  },
  {
    "city": "Skálavík",
    "city_zh": "Skálavík",
    "country": "Faroe Islands",
    "country_zh": "Faroe Islands",
    "country_iso_code": "FO",
    "timezone": "Atlantic/Faroe",
    "latitude": 61.83141,
    "longitude": -6.6623
  },
  {
    "city": "Skálatoftir",
    "city_zh": "Skálatoftir",
    "country": "Faroe Islands",
    "country_zh": "Faroe Islands",
    "country_iso_code": "FO",
    "timezone": "Atlantic/Faroe",
    "latitude": 62.32073,
    "longitude": -6.59933
  },
  {
    "city": "Skálar",
    "city_zh": "Skálar",
    "country": "Faroe Islands",
    "country_zh": "Faroe Islands",
    "country_iso_code": "FO",
    "timezone": "Atlantic/Faroe",
    "latitude": 61.60302,
    "longitude": -6.95709
  },
  {
    "city": "Skálafjørður",
    "city_zh": "Skálafjørður",
    "country": "Faroe Islands",
    "country_zh": "Faroe Islands",
    "country_iso_code": "FO",
    "timezone": "Atlantic/Faroe",
    "latitude": 62.19501,
    "longitude": -6.84771
  },
  {
    "city": "Sjóvartoftir",
    "city_zh": "Sjóvartoftir",
    "country": "Faroe Islands",
    "country_zh": "Faroe Islands",
    "country_iso_code": "FO",
    "timezone": "Atlantic/Faroe",
    "latitude": 61.47461,
    "longitude": -6.74964
  },
  {
    "city": "Signabøur",
    "city_zh": "Signabøur",
    "country": "Faroe Islands",
    "country_zh": "Faroe Islands",
    "country_iso_code": "FO",
    "timezone": "Atlantic/Faroe",
    "latitude": 62.09619,
    "longitude": -6.92727
  },
  {
    "city": "Sevlendi",
    "city_zh": "Sevlendi",
    "country": "Faroe Islands",
    "country_zh": "Faroe Islands",
    "country_iso_code": "FO",
    "timezone": "Atlantic/Faroe",
    "latitude": 62.11277,
    "longitude": -6.75532
  },
  {
    "city": "Selatrað",
    "city_zh": "Selatrað",
    "country": "Faroe Islands",
    "country_zh": "Faroe Islands",
    "country_iso_code": "FO",
    "timezone": "Atlantic/Faroe",
    "latitude": 62.15637,
    "longitude": -6.87163
  },
  {
    "city": "Sandvík",
    "city_zh": "桑维克",
    "country": "Faroe Islands",
    "country_zh": "Faroe Islands",
    "country_iso_code": "FO",
    "timezone": "Atlantic/Faroe",
    "latitude": 61.63285,
    "longitude": -6.92458
  },
  {
    "city": "Sandur",
    "city_zh": "Sandur",
    "country": "Faroe Islands",
    "country_zh": "Faroe Islands",
    "country_iso_code": "FO",
    "timezone": "Atlantic/Faroe",
    "latitude": 61.8425,
    "longitude": -6.80778
  },
  {
    "city": "Sandavágur",
    "city_zh": "Sandavágur",
    "country": "Faroe Islands",
    "country_zh": "Faroe Islands",
    "country_iso_code": "FO",
    "timezone": "Atlantic/Faroe",
    "latitude": 62.05372,
    "longitude": -7.14982
  },
  {
    "city": "Saltnes",
    "city_zh": "Saltnes",
    "country": "Faroe Islands",
    "country_zh": "Faroe Islands",
    "country_iso_code": "FO",
    "timezone": "Atlantic/Faroe",
    "latitude": 62.10296,
    "longitude": -6.73952
  },
  {
    "city": "Saltangará",
    "city_zh": "Saltangará",
    "country": "Faroe Islands",
    "country_zh": "Faroe Islands",
    "country_iso_code": "FO",
    "timezone": "Atlantic/Faroe",
    "latitude": 62.11647,
    "longitude": -6.71797
  },
  {
    "city": "Saksun",
    "city_zh": "萨克森",
    "country": "Faroe Islands",
    "country_zh": "Faroe Islands",
    "country_iso_code": "FO",
    "timezone": "Atlantic/Faroe",
    "latitude": 62.24821,
    "longitude": -7.17241
  },
  {
    "city": "Ryggur",
    "city_zh": "Ryggur",
    "country": "Faroe Islands",
    "country_zh": "Faroe Islands",
    "country_iso_code": "FO",
    "timezone": "Atlantic/Faroe",
    "latitude": 62.05072,
    "longitude": -7.20378
  },
  {
    "city": "Runavík",
    "city_zh": "鲁纳维克",
    "country": "Faroe Islands",
    "country_zh": "Faroe Islands",
    "country_iso_code": "FO",
    "timezone": "Atlantic/Faroe",
    "latitude": 62.10892,
    "longitude": -6.72123
  },
  {
    "city": "Rituvík",
    "city_zh": "Rituvík",
    "country": "Faroe Islands",
    "country_zh": "Faroe Islands",
    "country_iso_code": "FO",
    "timezone": "Atlantic/Faroe",
    "latitude": 62.10447,
    "longitude": -6.68701
  },
  {
    "city": "Punthavn",
    "city_zh": "Punthavn",
    "country": "Faroe Islands",
    "country_zh": "Faroe Islands",
    "country_iso_code": "FO",
    "timezone": "Atlantic/Faroe",
    "latitude": 61.55,
    "longitude": -6.81667
  },
  {
    "city": "Porkeri",
    "city_zh": "Porkeri",
    "country": "Faroe Islands",
    "country_zh": "Faroe Islands",
    "country_iso_code": "FO",
    "timezone": "Atlantic/Faroe",
    "latitude": 61.48135,
    "longitude": -6.74497
  },
  {
    "city": "Oyri",
    "city_zh": "Oyri",
    "country": "Faroe Islands",
    "country_zh": "Faroe Islands",
    "country_iso_code": "FO",
    "timezone": "Atlantic/Faroe",
    "latitude": 62.19032,
    "longitude": -6.9776
  },
  {
    "city": "Oyrargjógv",
    "city_zh": "Oyrargjógv",
    "country": "Faroe Islands",
    "country_zh": "Faroe Islands",
    "country_iso_code": "FO",
    "timezone": "Atlantic/Faroe",
    "latitude": 62.11667,
    "longitude": -7.16667
  },
  {
    "city": "Oyrareingir",
    "city_zh": "Oyrareingir",
    "country": "Faroe Islands",
    "country_zh": "Faroe Islands",
    "country_iso_code": "FO",
    "timezone": "Atlantic/Faroe",
    "latitude": 62.09921,
    "longitude": -6.94553
  },
  {
    "city": "Oyrarbakki",
    "city_zh": "Oyrarbakki",
    "country": "Faroe Islands",
    "country_zh": "Faroe Islands",
    "country_iso_code": "FO",
    "timezone": "Atlantic/Faroe",
    "latitude": 62.20995,
    "longitude": -7.00001
  },
  {
    "city": "Oyndarfjørður",
    "city_zh": "Oyndarfjørður",
    "country": "Faroe Islands",
    "country_zh": "Faroe Islands",
    "country_iso_code": "FO",
    "timezone": "Atlantic/Faroe",
    "latitude": 62.27792,
    "longitude": -6.84643
  },
  {
    "city": "Øravík",
    "city_zh": "Øravík",
    "country": "Faroe Islands",
    "country_zh": "Faroe Islands",
    "country_iso_code": "FO",
    "timezone": "Atlantic/Faroe",
    "latitude": 61.53479,
    "longitude": -6.8077
  },
  {
    "city": "Oman fyri Kirkju",
    "city_zh": "Oman fyri Kirkju",
    "country": "Faroe Islands",
    "country_zh": "Faroe Islands",
    "country_iso_code": "FO",
    "timezone": "Atlantic/Faroe",
    "latitude": 61.52596,
    "longitude": -6.87989
  },
  {
    "city": "Norðtoftir",
    "city_zh": "Norðtoftir",
    "country": "Faroe Islands",
    "country_zh": "Faroe Islands",
    "country_iso_code": "FO",
    "timezone": "Atlantic/Faroe",
    "latitude": 62.27546,
    "longitude": -6.50808
  },
  {
    "city": "Norðskáli",
    "city_zh": "Norðskáli",
    "country": "Faroe Islands",
    "country_zh": "Faroe Islands",
    "country_iso_code": "FO",
    "timezone": "Atlantic/Faroe",
    "latitude": 62.22187,
    "longitude": -7.00513
  },
  {
    "city": "Norðragøta",
    "city_zh": "北格塔",
    "country": "Faroe Islands",
    "country_zh": "Faroe Islands",
    "country_iso_code": "FO",
    "timezone": "Atlantic/Faroe",
    "latitude": 62.20071,
    "longitude": -6.74191
  },
  {
    "city": "Norðradalur",
    "city_zh": "Norðradalur",
    "country": "Faroe Islands",
    "country_zh": "Faroe Islands",
    "country_iso_code": "FO",
    "timezone": "Atlantic/Faroe",
    "latitude": 62.03889,
    "longitude": -6.92554
  },
  {
    "city": "Norðoyri",
    "city_zh": "Norðoyri",
    "country": "Faroe Islands",
    "country_zh": "Faroe Islands",
    "country_iso_code": "FO",
    "timezone": "Atlantic/Faroe",
    "latitude": 62.21667,
    "longitude": -6.53333
  },
  {
    "city": "Norðdepil",
    "city_zh": "Norðdepil",
    "country": "Faroe Islands",
    "country_zh": "Faroe Islands",
    "country_iso_code": "FO",
    "timezone": "Atlantic/Faroe",
    "latitude": 62.29467,
    "longitude": -6.52506
  },
  {
    "city": "Nólsoy",
    "city_zh": "Nólsoy",
    "country": "Faroe Islands",
    "country_zh": "Faroe Islands",
    "country_iso_code": "FO",
    "timezone": "Atlantic/Faroe",
    "latitude": 62.00937,
    "longitude": -6.67019
  },
  {
    "city": "Nesvík",
    "city_zh": "Nesvík",
    "country": "Faroe Islands",
    "country_zh": "Faroe Islands",
    "country_iso_code": "FO",
    "timezone": "Atlantic/Faroe",
    "latitude": 62.21667,
    "longitude": -7.01667
  },
  {
    "city": "Nesið",
    "city_zh": "Nesið",
    "country": "Faroe Islands",
    "country_zh": "Faroe Islands",
    "country_iso_code": "FO",
    "timezone": "Atlantic/Faroe",
    "latitude": 62.15006,
    "longitude": -7.15493
  },
  {
    "city": "Nes",
    "city_zh": "Nes",
    "country": "Faroe Islands",
    "country_zh": "Faroe Islands",
    "country_iso_code": "FO",
    "timezone": "Atlantic/Faroe",
    "latitude": 62.08202,
    "longitude": -6.72724
  },
  {
    "city": "Nes",
    "city_zh": "Nes",
    "country": "Faroe Islands",
    "country_zh": "Faroe Islands",
    "country_iso_code": "FO",
    "timezone": "Atlantic/Faroe",
    "latitude": 61.59271,
    "longitude": -6.92701
  },
  {
    "city": "Nes",
    "city_zh": "Nes",
    "country": "Faroe Islands",
    "country_zh": "Faroe Islands",
    "country_iso_code": "FO",
    "timezone": "Atlantic/Faroe",
    "latitude": 61.47264,
    "longitude": -6.75443
  },
  {
    "city": "Myrkjanoyri",
    "city_zh": "Myrkjanoyri",
    "country": "Faroe Islands",
    "country_zh": "Faroe Islands",
    "country_iso_code": "FO",
    "timezone": "Atlantic/Faroe",
    "latitude": 62.22905,
    "longitude": -6.57725
  },
  {
    "city": "Mykines",
    "city_zh": "Mykines",
    "country": "Faroe Islands",
    "country_zh": "Faroe Islands",
    "country_iso_code": "FO",
    "timezone": "Atlantic/Faroe",
    "latitude": 62.10489,
    "longitude": -7.63417
  },
  {
    "city": "Múli",
    "city_zh": "穆利",
    "country": "Faroe Islands",
    "country_zh": "Faroe Islands",
    "country_iso_code": "FO",
    "timezone": "Atlantic/Faroe",
    "latitude": 62.35059,
    "longitude": -6.57688
  },
  {
    "city": "Morskranes",
    "city_zh": "Morskranes",
    "country": "Faroe Islands",
    "country_zh": "Faroe Islands",
    "country_iso_code": "FO",
    "timezone": "Atlantic/Faroe",
    "latitude": 62.13244,
    "longitude": -6.84138
  },
  {
    "city": "Mikladalur",
    "city_zh": "米克拉达勒",
    "country": "Faroe Islands",
    "country_zh": "Faroe Islands",
    "country_iso_code": "FO",
    "timezone": "Atlantic/Faroe",
    "latitude": 62.33345,
    "longitude": -6.75958
  },
  {
    "city": "Miðvágur",
    "city_zh": "Miðvágur",
    "country": "Faroe Islands",
    "country_zh": "Faroe Islands",
    "country_iso_code": "FO",
    "timezone": "Atlantic/Faroe",
    "latitude": 62.05111,
    "longitude": -7.19389
  },
  {
    "city": "Miðgerði",
    "city_zh": "Miðgerði",
    "country": "Faroe Islands",
    "country_zh": "Faroe Islands",
    "country_iso_code": "FO",
    "timezone": "Atlantic/Faroe",
    "latitude": 62.11912,
    "longitude": -6.88422
  },
  {
    "city": "Lopra",
    "city_zh": "Lopra",
    "country": "Faroe Islands",
    "country_zh": "Faroe Islands",
    "country_iso_code": "FO",
    "timezone": "Atlantic/Faroe",
    "latitude": 61.44361,
    "longitude": -6.77135
  },
  {
    "city": "Ljósá",
    "city_zh": "Ljósá",
    "country": "Faroe Islands",
    "country_zh": "Faroe Islands",
    "country_iso_code": "FO",
    "timezone": "Atlantic/Faroe",
    "latitude": 62.26724,
    "longitude": -7.06241
  },
  {
    "city": "Líðin",
    "city_zh": "Líðin",
    "country": "Faroe Islands",
    "country_zh": "Faroe Islands",
    "country_iso_code": "FO",
    "timezone": "Atlantic/Faroe",
    "latitude": 61.55,
    "longitude": -6.83333
  },
  {
    "city": "Leynar",
    "city_zh": "Leynar",
    "country": "Faroe Islands",
    "country_zh": "Faroe Islands",
    "country_iso_code": "FO",
    "timezone": "Atlantic/Faroe",
    "latitude": 62.1165,
    "longitude": -7.04054
  },
  {
    "city": "Leiti",
    "city_zh": "Leiti",
    "country": "Faroe Islands",
    "country_zh": "Faroe Islands",
    "country_iso_code": "FO",
    "timezone": "Atlantic/Faroe",
    "latitude": 61.44997,
    "longitude": -6.75167
  },
  {
    "city": "Leirvík",
    "city_zh": "莱尔维克",
    "country": "Faroe Islands",
    "country_zh": "Faroe Islands",
    "country_iso_code": "FO",
    "timezone": "Atlantic/Faroe",
    "latitude": 62.20992,
    "longitude": -6.69284
  },
  {
    "city": "Langasandur",
    "city_zh": "Langasandur",
    "country": "Faroe Islands",
    "country_zh": "Faroe Islands",
    "country_iso_code": "FO",
    "timezone": "Atlantic/Faroe",
    "latitude": 62.23354,
    "longitude": -7.04654
  },
  {
    "city": "Langasandur",
    "city_zh": "Langasandur",
    "country": "Faroe Islands",
    "country_zh": "Faroe Islands",
    "country_iso_code": "FO",
    "timezone": "Atlantic/Faroe",
    "latitude": 62.16229,
    "longitude": -6.78724
  },
  {
    "city": "Lambi",
    "city_zh": "Lambi",
    "country": "Faroe Islands",
    "country_zh": "Faroe Islands",
    "country_iso_code": "FO",
    "timezone": "Atlantic/Faroe",
    "latitude": 62.13969,
    "longitude": -6.69968
  },
  {
    "city": "Lambareiði",
    "city_zh": "Lambareiði",
    "country": "Faroe Islands",
    "country_zh": "Faroe Islands",
    "country_iso_code": "FO",
    "timezone": "Atlantic/Faroe",
    "latitude": 62.13333,
    "longitude": -6.71667
  },
  {
    "city": "Kvívík",
    "city_zh": "克维维克",
    "country": "Faroe Islands",
    "country_zh": "Faroe Islands",
    "country_iso_code": "FO",
    "timezone": "Atlantic/Faroe",
    "latitude": 62.11731,
    "longitude": -7.07471
  },
  {
    "city": "Kunoy",
    "city_zh": "昆岛",
    "country": "Faroe Islands",
    "country_zh": "Faroe Islands",
    "country_iso_code": "FO",
    "timezone": "Atlantic/Faroe",
    "latitude": 62.30388,
    "longitude": -6.64754
  },
  {
    "city": "Krosslið",
    "city_zh": "Krosslið",
    "country": "Faroe Islands",
    "country_zh": "Faroe Islands",
    "country_iso_code": "FO",
    "timezone": "Atlantic/Faroe",
    "latitude": 61.47375,
    "longitude": -6.8038
  },
  {
    "city": "Kráir",
    "city_zh": "Kráir",
    "country": "Faroe Islands",
    "country_zh": "Faroe Islands",
    "country_iso_code": "FO",
    "timezone": "Atlantic/Faroe",
    "latitude": 61.46742,
    "longitude": -6.8138
  },
  {
    "city": "Koltur",
    "city_zh": "Koltur",
    "country": "Faroe Islands",
    "country_zh": "Faroe Islands",
    "country_iso_code": "FO",
    "timezone": "Atlantic/Faroe",
    "latitude": 61.98647,
    "longitude": -6.96242
  },
  {
    "city": "Kollafjørður",
    "city_zh": "Kollafjørður",
    "country": "Faroe Islands",
    "country_zh": "Faroe Islands",
    "country_iso_code": "FO",
    "timezone": "Atlantic/Faroe",
    "latitude": 62.11167,
    "longitude": -6.91067
  },
  {
    "city": "Kolbanargjógv",
    "city_zh": "Kolbanargjógv",
    "country": "Faroe Islands",
    "country_zh": "Faroe Islands",
    "country_iso_code": "FO",
    "timezone": "Atlantic/Faroe",
    "latitude": 62.1,
    "longitude": -6.78333
  },
  {
    "city": "Klaksvík",
    "city_zh": "克拉克斯维克",
    "country": "Faroe Islands",
    "country_zh": "Faroe Islands",
    "country_iso_code": "FO",
    "timezone": "Atlantic/Faroe",
    "latitude": 62.22655,
    "longitude": -6.58901
  },
  {
    "city": "Kjalnes",
    "city_zh": "Kjalnes",
    "country": "Faroe Islands",
    "country_zh": "Faroe Islands",
    "country_iso_code": "FO",
    "timezone": "Atlantic/Faroe",
    "latitude": 62.11667,
    "longitude": -6.86667
  },
  {
    "city": "Kirkjubøur",
    "city_zh": "奇爾丘伯",
    "country": "Faroe Islands",
    "country_zh": "Faroe Islands",
    "country_iso_code": "FO",
    "timezone": "Atlantic/Faroe",
    "latitude": 61.95306,
    "longitude": -6.79078
  },
  {
    "city": "Kirkja",
    "city_zh": "Kirkja",
    "country": "Faroe Islands",
    "country_zh": "Faroe Islands",
    "country_iso_code": "FO",
    "timezone": "Atlantic/Faroe",
    "latitude": 62.31851,
    "longitude": -6.31646
  },
  {
    "city": "Kaldbak",
    "city_zh": "Kaldbak",
    "country": "Faroe Islands",
    "country_zh": "Faroe Islands",
    "country_iso_code": "FO",
    "timezone": "Atlantic/Faroe",
    "latitude": 62.06057,
    "longitude": -6.82808
  },
  {
    "city": "Jansagerði",
    "city_zh": "Jansagerði",
    "country": "Faroe Islands",
    "country_zh": "Faroe Islands",
    "country_iso_code": "FO",
    "timezone": "Atlantic/Faroe",
    "latitude": 62.04385,
    "longitude": -7.18592
  },
  {
    "city": "Innan Glyvur",
    "city_zh": "Innan Glyvur",
    "country": "Faroe Islands",
    "country_zh": "Faroe Islands",
    "country_iso_code": "FO",
    "timezone": "Atlantic/Faroe",
    "latitude": 62.13333,
    "longitude": -6.75
  },
  {
    "city": "Í Húsi",
    "city_zh": "Í Húsi",
    "country": "Faroe Islands",
    "country_zh": "Faroe Islands",
    "country_iso_code": "FO",
    "timezone": "Atlantic/Faroe",
    "latitude": 62.04859,
    "longitude": -7.16309
  },
  {
    "city": "Í Hørg",
    "city_zh": "Í Hørg",
    "country": "Faroe Islands",
    "country_zh": "Faroe Islands",
    "country_iso_code": "FO",
    "timezone": "Atlantic/Faroe",
    "latitude": 61.40719,
    "longitude": -6.72304
  },
  {
    "city": "Í Fámara",
    "city_zh": "Í Fámara",
    "country": "Faroe Islands",
    "country_zh": "Faroe Islands",
    "country_iso_code": "FO",
    "timezone": "Atlantic/Faroe",
    "latitude": 61.46667,
    "longitude": -6.86667
  },
  {
    "city": "Í Botni",
    "city_zh": "Í Botni",
    "country": "Faroe Islands",
    "country_zh": "Faroe Islands",
    "country_iso_code": "FO",
    "timezone": "Atlantic/Faroe",
    "latitude": 61.48333,
    "longitude": -6.78333
  },
  {
    "city": "Hvítanes",
    "city_zh": "Hvítanes",
    "country": "Faroe Islands",
    "country_zh": "Faroe Islands",
    "country_iso_code": "FO",
    "timezone": "Atlantic/Faroe",
    "latitude": 62.04547,
    "longitude": -6.76297
  },
  {
    "city": "Hvítanes",
    "city_zh": "Hvítanes",
    "country": "Faroe Islands",
    "country_zh": "Faroe Islands",
    "country_iso_code": "FO",
    "timezone": "Atlantic/Faroe",
    "latitude": 61.5586,
    "longitude": -6.8368
  },
  {
    "city": "Hvannasund",
    "city_zh": "克万纳松",
    "country": "Faroe Islands",
    "country_zh": "Faroe Islands",
    "country_iso_code": "FO",
    "timezone": "Atlantic/Faroe",
    "latitude": 62.29687,
    "longitude": -6.51854
  },
  {
    "city": "Hvalvík",
    "city_zh": "Hvalvík",
    "country": "Faroe Islands",
    "country_zh": "Faroe Islands",
    "country_iso_code": "FO",
    "timezone": "Atlantic/Faroe",
    "latitude": 62.18778,
    "longitude": -7.03278
  },
  {
    "city": "Hvalba",
    "city_zh": "Hvalba",
    "country": "Faroe Islands",
    "country_zh": "Faroe Islands",
    "country_iso_code": "FO",
    "timezone": "Atlantic/Faroe",
    "latitude": 61.60237,
    "longitude": -6.96063
  },
  {
    "city": "Húsavík",
    "city_zh": "Húsavík",
    "country": "Faroe Islands",
    "country_zh": "Faroe Islands",
    "country_iso_code": "FO",
    "timezone": "Atlantic/Faroe",
    "latitude": 61.8076,
    "longitude": -6.67091
  },
  {
    "city": "Húsar",
    "city_zh": "胡萨尔",
    "country": "Faroe Islands",
    "country_zh": "Faroe Islands",
    "country_iso_code": "FO",
    "timezone": "Atlantic/Faroe",
    "latitude": 62.26265,
    "longitude": -6.68908
  },
  {
    "city": "Hoyvík",
    "city_zh": "Hoyvík",
    "country": "Faroe Islands",
    "country_zh": "Faroe Islands",
    "country_iso_code": "FO",
    "timezone": "Atlantic/Faroe",
    "latitude": 62.03407,
    "longitude": -6.78127
  },
  {
    "city": "Hov",
    "city_zh": "Hov",
    "country": "Faroe Islands",
    "country_zh": "Faroe Islands",
    "country_iso_code": "FO",
    "timezone": "Atlantic/Faroe",
    "latitude": 61.50684,
    "longitude": -6.75993
  },
  {
    "city": "Hósvík",
    "city_zh": "霍斯维克",
    "country": "Faroe Islands",
    "country_zh": "Faroe Islands",
    "country_iso_code": "FO",
    "timezone": "Atlantic/Faroe",
    "latitude": 62.15187,
    "longitude": -6.94527
  },
  {
    "city": "Hólar",
    "city_zh": "Hólar",
    "country": "Faroe Islands",
    "country_zh": "Faroe Islands",
    "country_iso_code": "FO",
    "timezone": "Atlantic/Faroe",
    "latitude": 61.60513,
    "longitude": -6.95063
  },
  {
    "city": "Heyggjur",
    "city_zh": "Heyggjur",
    "country": "Faroe Islands",
    "country_zh": "Faroe Islands",
    "country_iso_code": "FO",
    "timezone": "Atlantic/Faroe",
    "latitude": 62.10263,
    "longitude": -6.94433
  },
  {
    "city": "Heyggjur",
    "city_zh": "Heyggjur",
    "country": "Faroe Islands",
    "country_zh": "Faroe Islands",
    "country_iso_code": "FO",
    "timezone": "Atlantic/Faroe",
    "latitude": 62.108,
    "longitude": -6.76384
  },
  {
    "city": "Hestur",
    "city_zh": "马岛",
    "country": "Faroe Islands",
    "country_zh": "Faroe Islands",
    "country_iso_code": "FO",
    "timezone": "Atlantic/Faroe",
    "latitude": 61.95581,
    "longitude": -6.8826
  },
  {
    "city": "Hellur",
    "city_zh": "Hellur",
    "country": "Faroe Islands",
    "country_zh": "Faroe Islands",
    "country_iso_code": "FO",
    "timezone": "Atlantic/Faroe",
    "latitude": 62.26245,
    "longitude": -6.84142
  },
  {
    "city": "Hattarvík",
    "city_zh": "哈塔尔维克",
    "country": "Faroe Islands",
    "country_zh": "Faroe Islands",
    "country_iso_code": "FO",
    "timezone": "Atlantic/Faroe",
    "latitude": 62.32942,
    "longitude": -6.27572
  },
  {
    "city": "Haraldssund",
    "city_zh": "Haraldssund",
    "country": "Faroe Islands",
    "country_zh": "Faroe Islands",
    "country_iso_code": "FO",
    "timezone": "Atlantic/Faroe",
    "latitude": 62.2725,
    "longitude": -6.60299
  },
  {
    "city": "Hamrabyrgi",
    "city_zh": "Hamrabyrgi",
    "country": "Faroe Islands",
    "country_zh": "Faroe Islands",
    "country_iso_code": "FO",
    "timezone": "Atlantic/Faroe",
    "latitude": 61.44063,
    "longitude": -6.72576
  },
  {
    "city": "Hamar",
    "city_zh": "Hamar",
    "country": "Faroe Islands",
    "country_zh": "Faroe Islands",
    "country_iso_code": "FO",
    "timezone": "Atlantic/Faroe",
    "latitude": 62.11986,
    "longitude": -6.90485
  },
  {
    "city": "Hamar",
    "city_zh": "Hamar",
    "country": "Faroe Islands",
    "country_zh": "Faroe Islands",
    "country_iso_code": "FO",
    "timezone": "Atlantic/Faroe",
    "latitude": 61.6,
    "longitude": -6.95
  },
  {
    "city": "Haldarsvík",
    "city_zh": "Haldarsvík",
    "country": "Faroe Islands",
    "country_zh": "Faroe Islands",
    "country_iso_code": "FO",
    "timezone": "Atlantic/Faroe",
    "latitude": 62.27555,
    "longitude": -7.09331
  },
  {
    "city": "Grógv",
    "city_zh": "Grógv",
    "country": "Faroe Islands",
    "country_zh": "Faroe Islands",
    "country_iso_code": "FO",
    "timezone": "Atlantic/Faroe",
    "latitude": 62.18064,
    "longitude": -6.75078
  },
  {
    "city": "Gøtugjógv",
    "city_zh": "Gøtugjógv",
    "country": "Faroe Islands",
    "country_zh": "Faroe Islands",
    "country_iso_code": "FO",
    "timezone": "Atlantic/Faroe",
    "latitude": 62.19201,
    "longitude": -6.74338
  },
  {
    "city": "Gøtueiði",
    "city_zh": "Gøtueiði",
    "country": "Faroe Islands",
    "country_zh": "Faroe Islands",
    "country_iso_code": "FO",
    "timezone": "Atlantic/Faroe",
    "latitude": 62.18333,
    "longitude": -6.76667
  },
  {
    "city": "Gøta",
    "city_zh": "Gøta",
    "country": "Faroe Islands",
    "country_zh": "Faroe Islands",
    "country_iso_code": "FO",
    "timezone": "Atlantic/Faroe",
    "latitude": 62.19894,
    "longitude": -6.73605
  },
  {
    "city": "Glyvrar",
    "city_zh": "Glyvrar",
    "country": "Faroe Islands",
    "country_zh": "Faroe Islands",
    "country_iso_code": "FO",
    "timezone": "Atlantic/Faroe",
    "latitude": 62.12475,
    "longitude": -6.72152
  },
  {
    "city": "Gjógvin",
    "city_zh": "Gjógvin",
    "country": "Faroe Islands",
    "country_zh": "Faroe Islands",
    "country_iso_code": "FO",
    "timezone": "Atlantic/Faroe",
    "latitude": 62.14179,
    "longitude": -7.02698
  },
  {
    "city": "Gjógv",
    "city_zh": "杰格夫",
    "country": "Faroe Islands",
    "country_zh": "Faroe Islands",
    "country_iso_code": "FO",
    "timezone": "Atlantic/Faroe",
    "latitude": 62.32294,
    "longitude": -6.93579
  },
  {
    "city": "Gjánoyri",
    "city_zh": "Gjánoyri",
    "country": "Faroe Islands",
    "country_zh": "Faroe Islands",
    "country_iso_code": "FO",
    "timezone": "Atlantic/Faroe",
    "latitude": 62.22535,
    "longitude": -7.03875
  },
  {
    "city": "Gerðar",
    "city_zh": "Gerðar",
    "country": "Faroe Islands",
    "country_zh": "Faroe Islands",
    "country_iso_code": "FO",
    "timezone": "Atlantic/Faroe",
    "latitude": 62.23333,
    "longitude": -6.56667
  },
  {
    "city": "Gerðar",
    "city_zh": "Gerðar",
    "country": "Faroe Islands",
    "country_zh": "Faroe Islands",
    "country_iso_code": "FO",
    "timezone": "Atlantic/Faroe",
    "latitude": 62.10414,
    "longitude": -6.76891
  },
  {
    "city": "Gásadalur",
    "city_zh": "Gásadalur",
    "country": "Faroe Islands",
    "country_zh": "Faroe Islands",
    "country_iso_code": "FO",
    "timezone": "Atlantic/Faroe",
    "latitude": 62.11238,
    "longitude": -7.43245
  },
  {
    "city": "Funningur",
    "city_zh": "Funningur",
    "country": "Faroe Islands",
    "country_zh": "Faroe Islands",
    "country_iso_code": "FO",
    "timezone": "Atlantic/Faroe",
    "latitude": 62.28713,
    "longitude": -6.96799
  },
  {
    "city": "Funningsfjørður",
    "city_zh": "Funningsfjørður",
    "country": "Faroe Islands",
    "country_zh": "Faroe Islands",
    "country_iso_code": "FO",
    "timezone": "Atlantic/Faroe",
    "latitude": 62.23656,
    "longitude": -6.92527
  },
  {
    "city": "Fuglafjørður",
    "city_zh": "Fuglafjørður",
    "country": "Faroe Islands",
    "country_zh": "Faroe Islands",
    "country_iso_code": "FO",
    "timezone": "Atlantic/Faroe",
    "latitude": 62.24398,
    "longitude": -6.81395
  },
  {
    "city": "Froðba",
    "city_zh": "Froðba",
    "country": "Faroe Islands",
    "country_zh": "Faroe Islands",
    "country_iso_code": "FO",
    "timezone": "Atlantic/Faroe",
    "latitude": 61.54382,
    "longitude": -6.7703
  },
  {
    "city": "Fossá",
    "city_zh": "Fossá",
    "country": "Faroe Islands",
    "country_zh": "Faroe Islands",
    "country_iso_code": "FO",
    "timezone": "Atlantic/Faroe",
    "latitude": 62.30334,
    "longitude": -6.53119
  },
  {
    "city": "Fodlendi",
    "city_zh": "Fodlendi",
    "country": "Faroe Islands",
    "country_zh": "Faroe Islands",
    "country_iso_code": "FO",
    "timezone": "Atlantic/Faroe",
    "latitude": 62.36292,
    "longitude": -6.53588
  },
  {
    "city": "Fámjin",
    "city_zh": "福阿姆因",
    "country": "Faroe Islands",
    "country_zh": "Faroe Islands",
    "country_iso_code": "FO",
    "timezone": "Atlantic/Faroe",
    "latitude": 61.52564,
    "longitude": -6.88068
  },
  {
    "city": "Elduvík",
    "city_zh": "Elduvík",
    "country": "Faroe Islands",
    "country_zh": "Faroe Islands",
    "country_iso_code": "FO",
    "timezone": "Atlantic/Faroe",
    "latitude": 62.28022,
    "longitude": -6.90517
  },
  {
    "city": "Eiði",
    "city_zh": "Eiði",
    "country": "Faroe Islands",
    "country_zh": "Faroe Islands",
    "country_iso_code": "FO",
    "timezone": "Atlantic/Faroe",
    "latitude": 62.2993,
    "longitude": -7.09245
  },
  {
    "city": "Djúpidalur",
    "city_zh": "Djúpidalur",
    "country": "Faroe Islands",
    "country_zh": "Faroe Islands",
    "country_iso_code": "FO",
    "timezone": "Atlantic/Faroe",
    "latitude": 61.8,
    "longitude": -6.75
  },
  {
    "city": "Depil",
    "city_zh": "Depil",
    "country": "Faroe Islands",
    "country_zh": "Faroe Islands",
    "country_iso_code": "FO",
    "timezone": "Atlantic/Faroe",
    "latitude": 62.28686,
    "longitude": -6.52282
  },
  {
    "city": "Dalur",
    "city_zh": "Dalur",
    "country": "Faroe Islands",
    "country_zh": "Faroe Islands",
    "country_iso_code": "FO",
    "timezone": "Atlantic/Faroe",
    "latitude": 61.78456,
    "longitude": -6.67153
  },
  {
    "city": "Bøur",
    "city_zh": "伯乌尔",
    "country": "Faroe Islands",
    "country_zh": "Faroe Islands",
    "country_iso_code": "FO",
    "timezone": "Atlantic/Faroe",
    "latitude": 62.08781,
    "longitude": -7.36629
  },
  {
    "city": "Blankskáli",
    "city_zh": "Blankskáli",
    "country": "Faroe Islands",
    "country_zh": "Faroe Islands",
    "country_iso_code": "FO",
    "timezone": "Atlantic/Faroe",
    "latitude": 62.23195,
    "longitude": -6.69799
  },
  {
    "city": "Biskupsstøð",
    "city_zh": "Biskupsstøð",
    "country": "Faroe Islands",
    "country_zh": "Faroe Islands",
    "country_iso_code": "FO",
    "timezone": "Atlantic/Faroe",
    "latitude": 62.22701,
    "longitude": -6.57685
  },
  {
    "city": "Á Steig",
    "city_zh": "Á Steig",
    "country": "Faroe Islands",
    "country_zh": "Faroe Islands",
    "country_iso_code": "FO",
    "timezone": "Atlantic/Faroe",
    "latitude": 62.15,
    "longitude": -7.13333
  },
  {
    "city": "Árnafjørður",
    "city_zh": "Árnafjørður",
    "country": "Faroe Islands",
    "country_zh": "Faroe Islands",
    "country_iso_code": "FO",
    "timezone": "Atlantic/Faroe",
    "latitude": 62.25264,
    "longitude": -6.52006
  },
  {
    "city": "Argir",
    "city_zh": "阿吉爾",
    "country": "Faroe Islands",
    "country_zh": "Faroe Islands",
    "country_iso_code": "FO",
    "timezone": "Atlantic/Faroe",
    "latitude": 61.99595,
    "longitude": -6.77154
  },
  {
    "city": "Ánir",
    "city_zh": "Ánir",
    "country": "Faroe Islands",
    "country_zh": "Faroe Islands",
    "country_iso_code": "FO",
    "timezone": "Atlantic/Faroe",
    "latitude": 62.25601,
    "longitude": -6.57525
  },
  {
    "city": "Akrar",
    "city_zh": "Akrar",
    "country": "Faroe Islands",
    "country_zh": "Faroe Islands",
    "country_iso_code": "FO",
    "timezone": "Atlantic/Faroe",
    "latitude": 61.45575,
    "longitude": -6.7602
  },
  {
    "city": "Akraberg",
    "city_zh": "Akraberg",
    "country": "Faroe Islands",
    "country_zh": "Faroe Islands",
    "country_iso_code": "FO",
    "timezone": "Atlantic/Faroe",
    "latitude": 61.39376,
    "longitude": -6.67917
  },
  {
    "city": "Æðuvík",
    "city_zh": "Æðuvík",
    "country": "Faroe Islands",
    "country_zh": "Faroe Islands",
    "country_iso_code": "FO",
    "timezone": "Atlantic/Faroe",
    "latitude": 62.06917,
    "longitude": -6.68606
  },
  {
    "city": "Suduroy",
    "city_zh": "Suduroy",
    "country": "Faroe Islands",
    "country_zh": "Faroe Islands",
    "country_iso_code": "FO",
    "timezone": "Atlantic/Faroe",
    "latitude": 61.51877,
    "longitude": -6.83006
  },
  {
    "city": "Hesturin Hai",
    "city_zh": "Hesturin Hai",
    "country": "Faroe Islands",
    "country_zh": "Faroe Islands",
    "country_iso_code": "FO",
    "timezone": "Atlantic/Faroe",
    "latitude": 61.4235,
    "longitude": -6.75591
  },
  {
    "city": "Støðlafjall",
    "city_zh": "Støðlafjall",
    "country": "Faroe Islands",
    "country_zh": "Faroe Islands",
    "country_iso_code": "FO",
    "timezone": "Atlantic/Faroe",
    "latitude": 62.17308,
    "longitude": -6.745
  },
  {
    "city": "Eystur",
    "city_zh": "Eystur",
    "country": "Faroe Islands",
    "country_zh": "Faroe Islands",
    "country_iso_code": "FO",
    "timezone": "Atlantic/Faroe",
    "latitude": 62.20907,
    "longitude": -6.75247
  },
  {
    "city": "millum Gilja",
    "city_zh": "millum Gilja",
    "country": "Faroe Islands",
    "country_zh": "Faroe Islands",
    "country_iso_code": "FO",
    "timezone": "Atlantic/Faroe",
    "latitude": 62.03451,
    "longitude": -6.78968
  }
]