[
  {
    "city": "Ytterby",
    "city_zh": "Ytterby",
    "country": "Aland Islands",
    "country_zh": "Aland Islands",
    "country_iso_code": "AX",
    "timezone": "Europe/Mariehamn",
    "latitude": 60.16667,
    "longitude": 20.01667
  },
  {
    "city": "Vessingsboda",
    "city_zh": "Vessingsboda",
    "country": "Aland Islands",
    "country_zh": "Aland Islands",
    "country_iso_code": "AX",
    "timezone": "Europe/Mariehamn",
    "latitude": 60.044,
    "longitude": 20.17501
  },
  {
    "city": "Västeränga",
    "city_zh": "Västeränga",
    "country": "Aland Islands",
    "country_zh": "Aland Islands",
    "country_iso_code": "AX",
    "timezone": "Europe/Mariehamn",
    "latitude": 60.01914,
    "longitude": 20.13435
  },
  {
    "city": "Vargata",
    "city_zh": "Vargata",
    "country": "Aland Islands",
    "country_zh": "Aland Islands",
    "country_iso_code": "AX",
    "timezone": "Europe/Mariehamn",
    "latitude": 60.24424,
    "longitude": 20.34439
  },
  {
    "city": "Vårdö",
    "city_zh": "Vårdö",
    "country": "Aland Islands",
    "country_zh": "Aland Islands",
    "country_iso_code": "AX",
    "timezone": "Europe/Mariehamn",
    "latitude": 60.25,
    "longitude": 20.38333
  },
  {
    "city": "Vålö",
    "city_zh": "Vålö",
    "country": "Aland Islands",
    "country_zh": "Aland Islands",
    "country_iso_code": "AX",
    "timezone": "Europe/Mariehamn",
    "latitude": 59.95,
    "longitude": 21.0
  },
  {
    "city": "Ulversö",
    "city_zh": "Ulversö",
    "country": "Aland Islands",
    "country_zh": "Aland Islands",
    "country_iso_code": "AX",
    "timezone": "Europe/Mariehamn",
    "latitude": 60.09885,
    "longitude": 20.53923
  },
  {
    "city": "Tranvik",
    "city_zh": "Tranvik",
    "country": "Aland Islands",
    "country_zh": "Aland Islands",
    "country_iso_code": "AX",
    "timezone": "Europe/Mariehamn",
    "latitude": 60.20049,
    "longitude": 20.14984
  },
  {
    "city": "Tosarby",
    "city_zh": "Tosarby",
    "country": "Aland Islands",
    "country_zh": "Aland Islands",
    "country_iso_code": "AX",
    "timezone": "Europe/Mariehamn",
    "latitude": 60.21667,
    "longitude": 20.1
  },
  {
    "city": "Torsholma",
    "city_zh": "Torsholma",
    "country": "Aland Islands",
    "country_zh": "Aland Islands",
    "country_iso_code": "AX",
    "timezone": "Europe/Mariehamn",
    "latitude": 60.35642,
    "longitude": 21.06551
  },
  {
    "city": "Töftö",
    "city_zh": "Töftö",
    "country": "Aland Islands",
    "country_zh": "Aland Islands",
    "country_iso_code": "AX",
    "timezone": "Europe/Mariehamn",
    "latitude": 60.20991,
    "longitude": 20.29396
  },
  {
    "city": "Tängsöda",
    "city_zh": "Tängsöda",
    "country": "Aland Islands",
    "country_zh": "Aland Islands",
    "country_iso_code": "AX",
    "timezone": "Europe/Mariehamn",
    "latitude": 60.29571,
    "longitude": 20.14315
  },
  {
    "city": "Syllöda",
    "city_zh": "Syllöda",
    "country": "Aland Islands",
    "country_zh": "Aland Islands",
    "country_iso_code": "AX",
    "timezone": "Europe/Mariehamn",
    "latitude": 60.28501,
    "longitude": 20.12373
  },
  {
    "city": "Svinö",
    "city_zh": "Svinö",
    "country": "Aland Islands",
    "country_zh": "Aland Islands",
    "country_iso_code": "AX",
    "timezone": "Europe/Mariehamn",
    "latitude": 60.07974,
    "longitude": 20.26263
  },
  {
    "city": "Sund",
    "city_zh": "松德",
    "country": "Aland Islands",
    "country_zh": "Aland Islands",
    "country_iso_code": "AX",
    "timezone": "Europe/Mariehamn",
    "latitude": 60.25,
    "longitude": 20.11667
  },
  {
    "city": "Sottunga",
    "city_zh": "Sottunga",
    "country": "Aland Islands",
    "country_zh": "Aland Islands",
    "country_iso_code": "AX",
    "timezone": "Europe/Mariehamn",
    "latitude": 60.13023,
    "longitude": 20.66683
  },
  {
    "city": "Sonnboda",
    "city_zh": "Sonnboda",
    "country": "Aland Islands",
    "country_zh": "Aland Islands",
    "country_iso_code": "AX",
    "timezone": "Europe/Mariehamn",
    "latitude": 60.047,
    "longitude": 20.47976
  },
  {
    "city": "Sommarö",
    "city_zh": "Sommarö",
    "country": "Aland Islands",
    "country_zh": "Aland Islands",
    "country_iso_code": "AX",
    "timezone": "Europe/Mariehamn",
    "latitude": 60.03563,
    "longitude": 20.56186
  },
  {
    "city": "Sommarö",
    "city_zh": "Sommarö",
    "country": "Aland Islands",
    "country_zh": "Aland Islands",
    "country_iso_code": "AX",
    "timezone": "Europe/Mariehamn",
    "latitude": 60.03807,
    "longitude": 20.56142
  },
  {
    "city": "Söderby",
    "city_zh": "Söderby",
    "country": "Aland Islands",
    "country_zh": "Aland Islands",
    "country_iso_code": "AX",
    "timezone": "Europe/Mariehamn",
    "latitude": 60.06682,
    "longitude": 20.0714
  },
  {
    "city": "Söderby",
    "city_zh": "Söderby",
    "country": "Aland Islands",
    "country_zh": "Aland Islands",
    "country_iso_code": "AX",
    "timezone": "Europe/Mariehamn",
    "latitude": 59.93333,
    "longitude": 20.96667
  },
  {
    "city": "Smedsböle",
    "city_zh": "Smedsböle",
    "country": "Aland Islands",
    "country_zh": "Aland Islands",
    "country_iso_code": "AX",
    "timezone": "Europe/Mariehamn",
    "latitude": 60.22222,
    "longitude": 20.16203
  },
  {
    "city": "Skogboda",
    "city_zh": "Skogboda",
    "country": "Aland Islands",
    "country_zh": "Aland Islands",
    "country_iso_code": "AX",
    "timezone": "Europe/Mariehamn",
    "latitude": 60.02535,
    "longitude": 20.51309
  },
  {
    "city": "Skag",
    "city_zh": "Skag",
    "country": "Aland Islands",
    "country_zh": "Aland Islands",
    "country_iso_code": "AX",
    "timezone": "Europe/Mariehamn",
    "latitude": 60.08729,
    "longitude": 20.23147
  },
  {
    "city": "Simskäla",
    "city_zh": "Simskäla",
    "country": "Aland Islands",
    "country_zh": "Aland Islands",
    "country_iso_code": "AX",
    "timezone": "Europe/Mariehamn",
    "latitude": 60.34139,
    "longitude": 20.3097
  },
  {
    "city": "Sibby",
    "city_zh": "Sibby",
    "country": "Aland Islands",
    "country_zh": "Aland Islands",
    "country_iso_code": "AX",
    "timezone": "Europe/Mariehamn",
    "latitude": 60.25733,
    "longitude": 20.19579
  },
  {
    "city": "Seglinge",
    "city_zh": "Seglinge",
    "country": "Aland Islands",
    "country_zh": "Aland Islands",
    "country_iso_code": "AX",
    "timezone": "Europe/Mariehamn",
    "latitude": 60.20496,
    "longitude": 20.69569
  },
  {
    "city": "Saltvik",
    "city_zh": "Saltvik",
    "country": "Aland Islands",
    "country_zh": "Aland Islands",
    "country_iso_code": "AX",
    "timezone": "Europe/Mariehamn",
    "latitude": 60.28333,
    "longitude": 20.05
  },
  {
    "city": "Såg",
    "city_zh": "Såg",
    "country": "Aland Islands",
    "country_zh": "Aland Islands",
    "country_iso_code": "AX",
    "timezone": "Europe/Mariehamn",
    "latitude": 60.11667,
    "longitude": 20.01667
  },
  {
    "city": "Rörstorp",
    "city_zh": "Rörstorp",
    "country": "Aland Islands",
    "country_zh": "Aland Islands",
    "country_iso_code": "AX",
    "timezone": "Europe/Mariehamn",
    "latitude": 60.07338,
    "longitude": 20.13235
  },
  {
    "city": "Överö",
    "city_zh": "Överö",
    "country": "Aland Islands",
    "country_zh": "Aland Islands",
    "country_iso_code": "AX",
    "timezone": "Europe/Mariehamn",
    "latitude": 60.10671,
    "longitude": 20.51905
  },
  {
    "city": "Överboda",
    "city_zh": "Överboda",
    "country": "Aland Islands",
    "country_zh": "Aland Islands",
    "country_iso_code": "AX",
    "timezone": "Europe/Mariehamn",
    "latitude": 59.93333,
    "longitude": 20.9
  },
  {
    "city": "Österbygge",
    "city_zh": "Österbygge",
    "country": "Aland Islands",
    "country_zh": "Aland Islands",
    "country_iso_code": "AX",
    "timezone": "Europe/Mariehamn",
    "latitude": 59.93726,
    "longitude": 20.98013
  },
  {
    "city": "Önningby",
    "city_zh": "Önningby",
    "country": "Aland Islands",
    "country_zh": "Aland Islands",
    "country_iso_code": "AX",
    "timezone": "Europe/Mariehamn",
    "latitude": 60.11754,
    "longitude": 20.00782
  },
  {
    "city": "Nötö",
    "city_zh": "Nötö",
    "country": "Aland Islands",
    "country_zh": "Aland Islands",
    "country_iso_code": "AX",
    "timezone": "Europe/Mariehamn",
    "latitude": 60.09232,
    "longitude": 20.47836
  },
  {
    "city": "Norrby",
    "city_zh": "Norrby",
    "country": "Aland Islands",
    "country_zh": "Aland Islands",
    "country_iso_code": "AX",
    "timezone": "Europe/Mariehamn",
    "latitude": 60.07862,
    "longitude": 20.08215
  },
  {
    "city": "Norrboda",
    "city_zh": "Norrboda",
    "country": "Aland Islands",
    "country_zh": "Aland Islands",
    "country_iso_code": "AX",
    "timezone": "Europe/Mariehamn",
    "latitude": 60.14138,
    "longitude": 20.26729
  },
  {
    "city": "Mångstäkta",
    "city_zh": "Mångstäkta",
    "country": "Aland Islands",
    "country_zh": "Aland Islands",
    "country_iso_code": "AX",
    "timezone": "Europe/Mariehamn",
    "latitude": 60.25323,
    "longitude": 20.22937
  },
  {
    "city": "Lumpo",
    "city_zh": "Lumpo",
    "country": "Aland Islands",
    "country_zh": "Aland Islands",
    "country_iso_code": "AX",
    "timezone": "Europe/Mariehamn",
    "latitude": 60.14625,
    "longitude": 20.23791
  },
  {
    "city": "Lumparland",
    "city_zh": "Lumparland",
    "country": "Aland Islands",
    "country_zh": "Aland Islands",
    "country_iso_code": "AX",
    "timezone": "Europe/Mariehamn",
    "latitude": 60.11695,
    "longitude": 20.25819
  },
  {
    "city": "Lumparby",
    "city_zh": "Lumparby",
    "country": "Aland Islands",
    "country_zh": "Aland Islands",
    "country_iso_code": "AX",
    "timezone": "Europe/Mariehamn",
    "latitude": 60.12181,
    "longitude": 20.24433
  },
  {
    "city": "Lövö",
    "city_zh": "Lövö",
    "country": "Aland Islands",
    "country_zh": "Aland Islands",
    "country_iso_code": "AX",
    "timezone": "Europe/Mariehamn",
    "latitude": 60.26147,
    "longitude": 20.37175
  },
  {
    "city": "Listersby",
    "city_zh": "Listersby",
    "country": "Aland Islands",
    "country_zh": "Aland Islands",
    "country_iso_code": "AX",
    "timezone": "Europe/Mariehamn",
    "latitude": 60.23025,
    "longitude": 20.37969
  },
  {
    "city": "Lilleböle",
    "city_zh": "Lilleböle",
    "country": "Aland Islands",
    "country_zh": "Aland Islands",
    "country_iso_code": "AX",
    "timezone": "Europe/Mariehamn",
    "latitude": 59.93333,
    "longitude": 20.88333
  },
  {
    "city": "Lemland",
    "city_zh": "Lemland",
    "country": "Aland Islands",
    "country_zh": "Aland Islands",
    "country_iso_code": "AX",
    "timezone": "Europe/Mariehamn",
    "latitude": 60.07178,
    "longitude": 20.08472
  },
  {
    "city": "Lappo",
    "city_zh": "Lappo",
    "country": "Aland Islands",
    "country_zh": "Aland Islands",
    "country_iso_code": "AX",
    "timezone": "Europe/Mariehamn",
    "latitude": 60.31626,
    "longitude": 20.98488
  },
  {
    "city": "Långbergsöda",
    "city_zh": "Långbergsöda",
    "country": "Aland Islands",
    "country_zh": "Aland Islands",
    "country_iso_code": "AX",
    "timezone": "Europe/Mariehamn",
    "latitude": 60.30058,
    "longitude": 20.13326
  },
  {
    "city": "Kyrkogårdsö",
    "city_zh": "Kyrkogårdsö",
    "country": "Aland Islands",
    "country_zh": "Aland Islands",
    "country_iso_code": "AX",
    "timezone": "Europe/Mariehamn",
    "latitude": 60.03649,
    "longitude": 20.82372
  },
  {
    "city": "Kumlinge",
    "city_zh": "Kumlinge",
    "country": "Aland Islands",
    "country_zh": "Aland Islands",
    "country_iso_code": "AX",
    "timezone": "Europe/Mariehamn",
    "latitude": 60.26013,
    "longitude": 20.77892
  },
  {
    "city": "Kulla",
    "city_zh": "Kulla",
    "country": "Aland Islands",
    "country_zh": "Aland Islands",
    "country_iso_code": "AX",
    "timezone": "Europe/Mariehamn",
    "latitude": 60.24422,
    "longitude": 20.06687
  },
  {
    "city": "Krokstad",
    "city_zh": "Krokstad",
    "country": "Aland Islands",
    "country_zh": "Aland Islands",
    "country_iso_code": "AX",
    "timezone": "Europe/Mariehamn",
    "latitude": 60.09708,
    "longitude": 20.26009
  },
  {
    "city": "Koskenpää",
    "city_zh": "Koskenpää",
    "country": "Aland Islands",
    "country_zh": "Aland Islands",
    "country_iso_code": "AX",
    "timezone": "Europe/Mariehamn",
    "latitude": 60.41667,
    "longitude": 21.01667
  },
  {
    "city": "Korsö",
    "city_zh": "Korsö",
    "country": "Aland Islands",
    "country_zh": "Aland Islands",
    "country_iso_code": "AX",
    "timezone": "Europe/Mariehamn",
    "latitude": 60.41683,
    "longitude": 20.9865
  },
  {
    "city": "Kökar",
    "city_zh": "Kökar",
    "country": "Aland Islands",
    "country_zh": "Aland Islands",
    "country_iso_code": "AX",
    "timezone": "Europe/Mariehamn",
    "latitude": 59.92051,
    "longitude": 20.90883
  },
  {
    "city": "Knutsboda",
    "city_zh": "Knutsboda",
    "country": "Aland Islands",
    "country_zh": "Aland Islands",
    "country_iso_code": "AX",
    "timezone": "Europe/Mariehamn",
    "latitude": 60.06667,
    "longitude": 20.03333
  },
  {
    "city": "Kastelholm",
    "city_zh": "Kastelholm",
    "country": "Aland Islands",
    "country_zh": "Aland Islands",
    "country_iso_code": "AX",
    "timezone": "Europe/Mariehamn",
    "latitude": 60.23387,
    "longitude": 20.07601
  },
  {
    "city": "Karlby",
    "city_zh": "Karlby",
    "country": "Aland Islands",
    "country_zh": "Aland Islands",
    "country_iso_code": "AX",
    "timezone": "Europe/Mariehamn",
    "latitude": 59.92071,
    "longitude": 20.90387
  },
  {
    "city": "Kallsö",
    "city_zh": "Kallsö",
    "country": "Aland Islands",
    "country_zh": "Aland Islands",
    "country_iso_code": "AX",
    "timezone": "Europe/Mariehamn",
    "latitude": 59.99354,
    "longitude": 20.39323
  },
  {
    "city": "Jurmo",
    "city_zh": "Jurmo",
    "country": "Aland Islands",
    "country_zh": "Aland Islands",
    "country_iso_code": "AX",
    "timezone": "Europe/Mariehamn",
    "latitude": 60.51848,
    "longitude": 21.07744
  },
  {
    "city": "Husö",
    "city_zh": "Husö",
    "country": "Aland Islands",
    "country_zh": "Aland Islands",
    "country_iso_code": "AX",
    "timezone": "Europe/Mariehamn",
    "latitude": 60.06824,
    "longitude": 20.80461
  },
  {
    "city": "Hummersö",
    "city_zh": "Hummersö",
    "country": "Aland Islands",
    "country_zh": "Aland Islands",
    "country_iso_code": "AX",
    "timezone": "Europe/Mariehamn",
    "latitude": 60.00197,
    "longitude": 20.35661
  },
  {
    "city": "Hulta",
    "city_zh": "Hulta",
    "country": "Aland Islands",
    "country_zh": "Aland Islands",
    "country_iso_code": "AX",
    "timezone": "Europe/Mariehamn",
    "latitude": 60.2726,
    "longitude": 20.23643
  },
  {
    "city": "Horsholma",
    "city_zh": "Horsholma",
    "country": "Aland Islands",
    "country_zh": "Aland Islands",
    "country_iso_code": "AX",
    "timezone": "Europe/Mariehamn",
    "latitude": 60.04581,
    "longitude": 20.56205
  },
  {
    "city": "Högbolstad",
    "city_zh": "Högbolstad",
    "country": "Aland Islands",
    "country_zh": "Aland Islands",
    "country_iso_code": "AX",
    "timezone": "Europe/Mariehamn",
    "latitude": 60.20734,
    "longitude": 20.08565
  },
  {
    "city": "Hellsö",
    "city_zh": "Hellsö",
    "country": "Aland Islands",
    "country_zh": "Aland Islands",
    "country_iso_code": "AX",
    "timezone": "Europe/Mariehamn",
    "latitude": 59.9501,
    "longitude": 20.94764
  },
  {
    "city": "Hellestorp",
    "city_zh": "Hellestorp",
    "country": "Aland Islands",
    "country_zh": "Aland Islands",
    "country_iso_code": "AX",
    "timezone": "Europe/Mariehamn",
    "latitude": 60.06023,
    "longitude": 20.09747
  },
  {
    "city": "Hastersboda",
    "city_zh": "Hastersboda",
    "country": "Aland Islands",
    "country_zh": "Aland Islands",
    "country_iso_code": "AX",
    "timezone": "Europe/Mariehamn",
    "latitude": 60.02753,
    "longitude": 20.57886
  },
  {
    "city": "Haraldsby",
    "city_zh": "Haraldsby",
    "country": "Aland Islands",
    "country_zh": "Aland Islands",
    "country_iso_code": "AX",
    "timezone": "Europe/Mariehamn",
    "latitude": 60.25,
    "longitude": 20.03333
  },
  {
    "city": "Haga",
    "city_zh": "Haga",
    "country": "Aland Islands",
    "country_zh": "Aland Islands",
    "country_iso_code": "AX",
    "timezone": "Europe/Mariehamn",
    "latitude": 60.3,
    "longitude": 20.01667
  },
  {
    "city": "Haddnäs",
    "city_zh": "Haddnäs",
    "country": "Aland Islands",
    "country_zh": "Aland Islands",
    "country_iso_code": "AX",
    "timezone": "Europe/Mariehamn",
    "latitude": 60.0595,
    "longitude": 20.20713
  },
  {
    "city": "Grundsunda",
    "city_zh": "Grundsunda",
    "country": "Aland Islands",
    "country_zh": "Aland Islands",
    "country_iso_code": "AX",
    "timezone": "Europe/Mariehamn",
    "latitude": 60.20957,
    "longitude": 20.37914
  },
  {
    "city": "Granboda",
    "city_zh": "Granboda",
    "country": "Aland Islands",
    "country_zh": "Aland Islands",
    "country_iso_code": "AX",
    "timezone": "Europe/Mariehamn",
    "latitude": 60.07513,
    "longitude": 20.19775
  },
  {
    "city": "Granboda",
    "city_zh": "Granboda",
    "country": "Aland Islands",
    "country_zh": "Aland Islands",
    "country_iso_code": "AX",
    "timezone": "Europe/Mariehamn",
    "latitude": 60.04533,
    "longitude": 20.44306
  },
  {
    "city": "Godby",
    "city_zh": "Godby",
    "country": "Aland Islands",
    "country_zh": "Aland Islands",
    "country_iso_code": "AX",
    "timezone": "Europe/Mariehamn",
    "latitude": 60.22995,
    "longitude": 19.9881
  },
  {
    "city": "Germundö",
    "city_zh": "Germundö",
    "country": "Aland Islands",
    "country_zh": "Aland Islands",
    "country_iso_code": "AX",
    "timezone": "Europe/Mariehamn",
    "latitude": 60.28333,
    "longitude": 20.0
  },
  {
    "city": "Föglö",
    "city_zh": "Föglö",
    "country": "Aland Islands",
    "country_zh": "Aland Islands",
    "country_iso_code": "AX",
    "timezone": "Europe/Mariehamn",
    "latitude": 60.01392,
    "longitude": 20.41377
  },
  {
    "city": "Flisö",
    "city_zh": "Flisö",
    "country": "Aland Islands",
    "country_zh": "Aland Islands",
    "country_iso_code": "AX",
    "timezone": "Europe/Mariehamn",
    "latitude": 60.01459,
    "longitude": 20.34475
  },
  {
    "city": "Flaka",
    "city_zh": "Flaka",
    "country": "Aland Islands",
    "country_zh": "Aland Islands",
    "country_iso_code": "AX",
    "timezone": "Europe/Mariehamn",
    "latitude": 60.02481,
    "longitude": 20.16149
  },
  {
    "city": "Fiskö",
    "city_zh": "Fiskö",
    "country": "Aland Islands",
    "country_zh": "Aland Islands",
    "country_iso_code": "AX",
    "timezone": "Europe/Mariehamn",
    "latitude": 60.45178,
    "longitude": 20.93874
  },
  {
    "city": "Finnö",
    "city_zh": "Finnö",
    "country": "Aland Islands",
    "country_zh": "Aland Islands",
    "country_iso_code": "AX",
    "timezone": "Europe/Mariehamn",
    "latitude": 60.07489,
    "longitude": 20.72031
  },
  {
    "city": "Finnö",
    "city_zh": "Finnö",
    "country": "Aland Islands",
    "country_zh": "Aland Islands",
    "country_iso_code": "AX",
    "timezone": "Europe/Mariehamn",
    "latitude": 59.91667,
    "longitude": 20.91667
  },
  {
    "city": "Finby",
    "city_zh": "Finby",
    "country": "Aland Islands",
    "country_zh": "Aland Islands",
    "country_iso_code": "AX",
    "timezone": "Europe/Mariehamn",
    "latitude": 60.2248,
    "longitude": 20.1801
  },
  {
    "city": "Enklinge",
    "city_zh": "Enklinge",
    "country": "Aland Islands",
    "country_zh": "Aland Islands",
    "country_iso_code": "AX",
    "timezone": "Europe/Mariehamn",
    "latitude": 60.34141,
    "longitude": 20.76446
  },
  {
    "city": "Domarböle",
    "city_zh": "Domarböle",
    "country": "Aland Islands",
    "country_zh": "Aland Islands",
    "country_iso_code": "AX",
    "timezone": "Europe/Mariehamn",
    "latitude": 60.23302,
    "longitude": 20.12778
  },
  {
    "city": "Degerby",
    "city_zh": "Degerby",
    "country": "Aland Islands",
    "country_zh": "Aland Islands",
    "country_iso_code": "AX",
    "timezone": "Europe/Mariehamn",
    "latitude": 60.0305,
    "longitude": 20.38876
  },
  {
    "city": "Daglösa",
    "city_zh": "Daglösa",
    "country": "Aland Islands",
    "country_zh": "Aland Islands",
    "country_iso_code": "AX",
    "timezone": "Europe/Mariehamn",
    "latitude": 60.35,
    "longitude": 20.0
  },
  {
    "city": "Bråttö",
    "city_zh": "Bråttö",
    "country": "Aland Islands",
    "country_zh": "Aland Islands",
    "country_iso_code": "AX",
    "timezone": "Europe/Mariehamn",
    "latitude": 59.99323,
    "longitude": 20.32093
  },
  {
    "city": "Brändö",
    "city_zh": "Brändö",
    "country": "Aland Islands",
    "country_zh": "Aland Islands",
    "country_iso_code": "AX",
    "timezone": "Europe/Mariehamn",
    "latitude": 60.41165,
    "longitude": 21.04534
  },
  {
    "city": "Brändö",
    "city_zh": "Brändö",
    "country": "Aland Islands",
    "country_zh": "Aland Islands",
    "country_iso_code": "AX",
    "timezone": "Europe/Mariehamn",
    "latitude": 60.04952,
    "longitude": 20.53906
  },
  {
    "city": "Brännbolstad",
    "city_zh": "Brännbolstad",
    "country": "Aland Islands",
    "country_zh": "Aland Islands",
    "country_iso_code": "AX",
    "timezone": "Europe/Mariehamn",
    "latitude": 60.26589,
    "longitude": 20.14889
  },
  {
    "city": "Bomarsund",
    "city_zh": "Bomarsund",
    "country": "Aland Islands",
    "country_zh": "Aland Islands",
    "country_iso_code": "AX",
    "timezone": "Europe/Mariehamn",
    "latitude": 60.21234,
    "longitude": 20.24023
  },
  {
    "city": "Björsboda",
    "city_zh": "Björsboda",
    "country": "Aland Islands",
    "country_zh": "Aland Islands",
    "country_iso_code": "AX",
    "timezone": "Europe/Mariehamn",
    "latitude": 60.007,
    "longitude": 20.41503
  },
  {
    "city": "Björnholma",
    "city_zh": "Björnholma",
    "country": "Aland Islands",
    "country_zh": "Aland Islands",
    "country_iso_code": "AX",
    "timezone": "Europe/Mariehamn",
    "latitude": 60.43362,
    "longitude": 21.03021
  },
  {
    "city": "Björkö",
    "city_zh": "Björkö",
    "country": "Aland Islands",
    "country_zh": "Aland Islands",
    "country_iso_code": "AX",
    "timezone": "Europe/Mariehamn",
    "latitude": 60.33192,
    "longitude": 20.91921
  },
  {
    "city": "Bistorp",
    "city_zh": "Bistorp",
    "country": "Aland Islands",
    "country_zh": "Aland Islands",
    "country_iso_code": "AX",
    "timezone": "Europe/Mariehamn",
    "latitude": 60.0819,
    "longitude": 20.11043
  },
  {
    "city": "Baggholma",
    "city_zh": "Baggholma",
    "country": "Aland Islands",
    "country_zh": "Aland Islands",
    "country_iso_code": "AX",
    "timezone": "Europe/Mariehamn",
    "latitude": 60.39164,
    "longitude": 21.01645
  },
  {
    "city": "Åva",
    "city_zh": "Åva",
    "country": "Aland Islands",
    "country_zh": "Aland Islands",
    "country_iso_code": "AX",
    "timezone": "Europe/Mariehamn",
    "latitude": 60.45785,
    "longitude": 21.07796
  },
  {
    "city": "Asterholma",
    "city_zh": "Asterholma",
    "country": "Aland Islands",
    "country_zh": "Aland Islands",
    "country_iso_code": "AX",
    "timezone": "Europe/Mariehamn",
    "latitude": 60.2991,
    "longitude": 21.0548
  },
  {
    "city": "Åsgårda",
    "city_zh": "Åsgårda",
    "country": "Aland Islands",
    "country_zh": "Aland Islands",
    "country_iso_code": "AX",
    "timezone": "Europe/Mariehamn",
    "latitude": 60.31631,
    "longitude": 20.07022
  },
  {
    "city": "Ängö",
    "city_zh": "Ängö",
    "country": "Aland Islands",
    "country_zh": "Aland Islands",
    "country_iso_code": "AX",
    "timezone": "Europe/Mariehamn",
    "latitude": 60.15579,
    "longitude": 20.3057
  },
  {
    "city": "Ingela",
    "city_zh": "Ingela",
    "country": "Aland Islands",
    "country_zh": "Aland Islands",
    "country_iso_code": "AX",
    "timezone": "Europe/Mariehamn",
    "latitude": 60.06731,
    "longitude": 20.2655
  },
  {
    "city": "Österlunds",
    "city_zh": "Österlunds",
    "country": "Aland Islands",
    "country_zh": "Aland Islands",
    "country_iso_code": "AX",
    "timezone": "Europe/Mariehamn",
    "latitude": 60.06173,
    "longitude": 20.10313
  },
  {
    "city": "Nygård",
    "city_zh": "Nygård",
    "country": "Aland Islands",
    "country_zh": "Aland Islands",
    "country_iso_code": "AX",
    "timezone": "Europe/Mariehamn",
    "latitude": 60.07333,
    "longitude": 20.0725
  },
  {
    "city": "Nedre Börs",
    "city_zh": "Nedre Börs",
    "country": "Aland Islands",
    "country_zh": "Aland Islands",
    "country_iso_code": "AX",
    "timezone": "Europe/Mariehamn",
    "latitude": 60.07194,
    "longitude": 20.03528
  },
  {
    "city": "Södergård",
    "city_zh": "Södergård",
    "country": "Aland Islands",
    "country_zh": "Aland Islands",
    "country_iso_code": "AX",
    "timezone": "Europe/Mariehamn",
    "latitude": 60.07722,
    "longitude": 20.01194
  },
  {
    "city": "Lemböte",
    "city_zh": "Lemböte",
    "country": "Aland Islands",
    "country_zh": "Aland Islands",
    "country_iso_code": "AX",
    "timezone": "Europe/Mariehamn",
    "latitude": 60.08028,
    "longitude": 20.00389
  },
  {
    "city": "Norrgård",
    "city_zh": "Norrgård",
    "country": "Aland Islands",
    "country_zh": "Aland Islands",
    "country_iso_code": "AX",
    "timezone": "Europe/Mariehamn",
    "latitude": 60.07583,
    "longitude": 20.03611
  },
  {
    "city": "Jonases",
    "city_zh": "Jonases",
    "country": "Aland Islands",
    "country_zh": "Aland Islands",
    "country_iso_code": "AX",
    "timezone": "Europe/Mariehamn",
    "latitude": 60.12,
    "longitude": 20.00667
  },
  {
    "city": "Alfhem",
    "city_zh": "Alfhem",
    "country": "Aland Islands",
    "country_zh": "Aland Islands",
    "country_iso_code": "AX",
    "timezone": "Europe/Mariehamn",
    "latitude": 60.14139,
    "longitude": 20.00139
  },
  {
    "city": "Janses",
    "city_zh": "Janses",
    "country": "Aland Islands",
    "country_zh": "Aland Islands",
    "country_iso_code": "AX",
    "timezone": "Europe/Mariehamn",
    "latitude": 60.12444,
    "longitude": 20.00778
  },
  {
    "city": "Nygård",
    "city_zh": "Nygård",
    "country": "Aland Islands",
    "country_zh": "Aland Islands",
    "country_iso_code": "AX",
    "timezone": "Europe/Mariehamn",
    "latitude": 60.12167,
    "longitude": 20.01139
  },
  {
    "city": "Tullen",
    "city_zh": "Tullen",
    "country": "Aland Islands",
    "country_zh": "Aland Islands",
    "country_iso_code": "AX",
    "timezone": "Europe/Mariehamn",
    "latitude": 60.12875,
    "longitude": 20.26297
  },
  {
    "city": "Estvik",
    "city_zh": "Estvik",
    "country": "Aland Islands",
    "country_zh": "Aland Islands",
    "country_iso_code": "AX",
    "timezone": "Europe/Mariehamn",
    "latitude": 60.2047,
    "longitude": 20.18391
  },
  {
    "city": "Prästö",
    "city_zh": "Prästö",
    "country": "Aland Islands",
    "country_zh": "Aland Islands",
    "country_iso_code": "AX",
    "timezone": "Europe/Mariehamn",
    "latitude": 60.20722,
    "longitude": 20.25711
  },
  {
    "city": "Svensböle",
    "city_zh": "Svensböle",
    "country": "Aland Islands",
    "country_zh": "Aland Islands",
    "country_iso_code": "AX",
    "timezone": "Europe/Mariehamn",
    "latitude": 60.22484,
    "longitude": 20.14986
  },
  {
    "city": "Tjudnäs",
    "city_zh": "Tjudnäs",
    "country": "Aland Islands",
    "country_zh": "Aland Islands",
    "country_iso_code": "AX",
    "timezone": "Europe/Mariehamn",
    "latitude": 60.21389,
    "longitude": 20.0525
  },
  {
    "city": "Storängen",
    "city_zh": "Storängen",
    "country": "Aland Islands",
    "country_zh": "Aland Islands",
    "country_iso_code": "AX",
    "timezone": "Europe/Mariehamn",
    "latitude": 60.21972,
    "longitude": 20.0525
  },
  {
    "city": "Strömsgärdan",
    "city_zh": "Strömsgärdan",
    "country": "Aland Islands",
    "country_zh": "Aland Islands",
    "country_iso_code": "AX",
    "timezone": "Europe/Mariehamn",
    "latitude": 60.21639,
    "longitude": 20.00472
  },
  {
    "city": "Näset",
    "city_zh": "Näset",
    "country": "Aland Islands",
    "country_zh": "Aland Islands",
    "country_iso_code": "AX",
    "timezone": "Europe/Mariehamn",
    "latitude": 60.18917,
    "longitude": 20.00528
  },
  {
    "city": "Trångsund",
    "city_zh": "Trångsund",
    "country": "Aland Islands",
    "country_zh": "Aland Islands",
    "country_iso_code": "AX",
    "timezone": "Europe/Mariehamn",
    "latitude": 59.94694,
    "longitude": 20.97861
  },
  {
    "city": "Söderholm",
    "city_zh": "Söderholm",
    "country": "Aland Islands",
    "country_zh": "Aland Islands",
    "country_iso_code": "AX",
    "timezone": "Europe/Mariehamn",
    "latitude": 59.92639,
    "longitude": 20.95417
  },
  {
    "city": "Sanda",
    "city_zh": "Sanda",
    "country": "Aland Islands",
    "country_zh": "Aland Islands",
    "country_iso_code": "AX",
    "timezone": "Europe/Mariehamn",
    "latitude": 60.03664,
    "longitude": 20.53984
  },
  {
    "city": "Ekdal",
    "city_zh": "Ekdal",
    "country": "Aland Islands",
    "country_zh": "Aland Islands",
    "country_iso_code": "AX",
    "timezone": "Europe/Mariehamn",
    "latitude": 60.04475,
    "longitude": 20.56438
  },
  {
    "city": "Finholma",
    "city_zh": "Finholma",
    "country": "Aland Islands",
    "country_zh": "Aland Islands",
    "country_iso_code": "AX",
    "timezone": "Europe/Mariehamn",
    "latitude": 60.0632,
    "longitude": 20.51957
  },
  {
    "city": "Näversholma",
    "city_zh": "Näversholma",
    "country": "Aland Islands",
    "country_zh": "Aland Islands",
    "country_iso_code": "AX",
    "timezone": "Europe/Mariehamn",
    "latitude": 60.02175,
    "longitude": 20.46597
  },
  {
    "city": "Känskit",
    "city_zh": "Känskit",
    "country": "Aland Islands",
    "country_zh": "Aland Islands",
    "country_iso_code": "AX",
    "timezone": "Europe/Mariehamn",
    "latitude": 60.20528,
    "longitude": 20.70278
  },
  {
    "city": "Mattas",
    "city_zh": "Mattas",
    "country": "Aland Islands",
    "country_zh": "Aland Islands",
    "country_iso_code": "AX",
    "timezone": "Europe/Mariehamn",
    "latitude": 60.19883,
    "longitude": 20.6973
  },
  {
    "city": "Simas",
    "city_zh": "Simas",
    "country": "Aland Islands",
    "country_zh": "Aland Islands",
    "country_iso_code": "AX",
    "timezone": "Europe/Mariehamn",
    "latitude": 60.2036,
    "longitude": 20.69631
  },
  {
    "city": "Lillposten",
    "city_zh": "Lillposten",
    "country": "Aland Islands",
    "country_zh": "Aland Islands",
    "country_iso_code": "AX",
    "timezone": "Europe/Mariehamn",
    "latitude": 60.24778,
    "longitude": 20.39278
  },
  {
    "city": "Ramsholm",
    "city_zh": "Ramsholm",
    "country": "Aland Islands",
    "country_zh": "Aland Islands",
    "country_iso_code": "AX",
    "timezone": "Europe/Mariehamn",
    "latitude": 60.24375,
    "longitude": 20.80073
  },
  {
    "city": "Nabbas",
    "city_zh": "Nabbas",
    "country": "Aland Islands",
    "country_zh": "Aland Islands",
    "country_iso_code": "AX",
    "timezone": "Europe/Mariehamn",
    "latitude": 60.24764,
    "longitude": 20.79149
  },
  {
    "city": "Emtvik",
    "city_zh": "Emtvik",
    "country": "Aland Islands",
    "country_zh": "Aland Islands",
    "country_iso_code": "AX",
    "timezone": "Europe/Mariehamn",
    "latitude": 60.27921,
    "longitude": 20.79462
  },
  {
    "city": "Kvarnkulla",
    "city_zh": "Kvarnkulla",
    "country": "Aland Islands",
    "country_zh": "Aland Islands",
    "country_iso_code": "AX",
    "timezone": "Europe/Mariehamn",
    "latitude": 60.26577,
    "longitude": 20.75851
  },
  {
    "city": "Sälvik",
    "city_zh": "Sälvik",
    "country": "Aland Islands",
    "country_zh": "Aland Islands",
    "country_iso_code": "AX",
    "timezone": "Europe/Mariehamn",
    "latitude": 60.34869,
    "longitude": 20.74537
  },
  {
    "city": "Finnslätt",
    "city_zh": "Finnslätt",
    "country": "Aland Islands",
    "country_zh": "Aland Islands",
    "country_iso_code": "AX",
    "timezone": "Europe/Mariehamn",
    "latitude": 60.35917,
    "longitude": 20.77
  },
  {
    "city": "Västernäs",
    "city_zh": "Västernäs",
    "country": "Aland Islands",
    "country_zh": "Aland Islands",
    "country_iso_code": "AX",
    "timezone": "Europe/Mariehamn",
    "latitude": 60.34178,
    "longitude": 20.91511
  },
  {
    "city": "Nötholm",
    "city_zh": "Nötholm",
    "country": "Aland Islands",
    "country_zh": "Aland Islands",
    "country_iso_code": "AX",
    "timezone": "Europe/Mariehamn",
    "latitude": 60.43977,
    "longitude": 20.93428
  },
  {
    "city": "Hullberga",
    "city_zh": "Hullberga",
    "country": "Aland Islands",
    "country_zh": "Aland Islands",
    "country_iso_code": "AX",
    "timezone": "Europe/Mariehamn",
    "latitude": 60.5258,
    "longitude": 20.88238
  },
  {
    "city": "Persby",
    "city_zh": "Persby",
    "country": "Aland Islands",
    "country_zh": "Aland Islands",
    "country_iso_code": "AX",
    "timezone": "Europe/Mariehamn",
    "latitude": 60.24536,
    "longitude": 20.18945
  },
  {
    "city": "Sveden",
    "city_zh": "Sveden",
    "country": "Aland Islands",
    "country_zh": "Aland Islands",
    "country_iso_code": "AX",
    "timezone": "Europe/Mariehamn",
    "latitude": 60.31005,
    "longitude": 20.19194
  },
  {
    "city": "Kleven",
    "city_zh": "Kleven",
    "country": "Aland Islands",
    "country_zh": "Aland Islands",
    "country_iso_code": "AX",
    "timezone": "Europe/Mariehamn",
    "latitude": 60.28363,
    "longitude": 20.17915
  },
  {
    "city": "Strömbolstad",
    "city_zh": "Strömbolstad",
    "country": "Aland Islands",
    "country_zh": "Aland Islands",
    "country_iso_code": "AX",
    "timezone": "Europe/Mariehamn",
    "latitude": 60.25883,
    "longitude": 20.17929
  },
  {
    "city": "Björby",
    "city_zh": "Björby",
    "country": "Aland Islands",
    "country_zh": "Aland Islands",
    "country_iso_code": "AX",
    "timezone": "Europe/Mariehamn",
    "latitude": 60.25732,
    "longitude": 20.13127
  },
  {
    "city": "Främmanby",
    "city_zh": "Främmanby",
    "country": "Aland Islands",
    "country_zh": "Aland Islands",
    "country_iso_code": "AX",
    "timezone": "Europe/Mariehamn",
    "latitude": 60.26755,
    "longitude": 20.06157
  },
  {
    "city": "Näs",
    "city_zh": "Näs",
    "country": "Aland Islands",
    "country_zh": "Aland Islands",
    "country_iso_code": "AX",
    "timezone": "Europe/Mariehamn",
    "latitude": 60.32278,
    "longitude": 20.02083
  },
  {
    "city": "Kvarnbo",
    "city_zh": "Kvarnbo",
    "country": "Aland Islands",
    "country_zh": "Aland Islands",
    "country_iso_code": "AX",
    "timezone": "Europe/Mariehamn",
    "latitude": 60.27586,
    "longitude": 20.04906
  },
  {
    "city": "Lagmansby",
    "city_zh": "Lagmansby",
    "country": "Aland Islands",
    "country_zh": "Aland Islands",
    "country_iso_code": "AX",
    "timezone": "Europe/Mariehamn",
    "latitude": 60.27785,
    "longitude": 20.08016
  },
  {
    "city": "Rangsby",
    "city_zh": "Rangsby",
    "country": "Aland Islands",
    "country_zh": "Aland Islands",
    "country_iso_code": "AX",
    "timezone": "Europe/Mariehamn",
    "latitude": 60.2779,
    "longitude": 20.0709
  },
  {
    "city": "Ytternäs",
    "city_zh": "Ytternäs",
    "country": "Aland Islands",
    "country_zh": "Aland Islands",
    "country_iso_code": "AX",
    "timezone": "Europe/Mariehamn",
    "latitude": 60.08333,
    "longitude": 19.95
  },
  {
    "city": "Västerkalmare",
    "city_zh": "Västerkalmare",
    "country": "Aland Islands",
    "country_zh": "Aland Islands",
    "country_iso_code": "AX",
    "timezone": "Europe/Mariehamn",
    "latitude": 60.13333,
    "longitude": 19.96667
  },
  {
    "city": "Västergeta",
    "city_zh": "Västergeta",
    "country": "Aland Islands",
    "country_zh": "Aland Islands",
    "country_iso_code": "AX",
    "timezone": "Europe/Mariehamn",
    "latitude": 60.38333,
    "longitude": 19.85
  },
  {
    "city": "Västansunda",
    "city_zh": "Västansunda",
    "country": "Aland Islands",
    "country_zh": "Aland Islands",
    "country_iso_code": "AX",
    "timezone": "Europe/Mariehamn",
    "latitude": 60.15,
    "longitude": 19.85
  },
  {
    "city": "Torrbolstad",
    "city_zh": "Torrbolstad",
    "country": "Aland Islands",
    "country_zh": "Aland Islands",
    "country_iso_code": "AX",
    "timezone": "Europe/Mariehamn",
    "latitude": 60.28333,
    "longitude": 19.91667
  },
  {
    "city": "Torp",
    "city_zh": "Torp",
    "country": "Aland Islands",
    "country_zh": "Aland Islands",
    "country_iso_code": "AX",
    "timezone": "Europe/Mariehamn",
    "latitude": 60.18333,
    "longitude": 19.58333
  },
  {
    "city": "Torp",
    "city_zh": "Torp",
    "country": "Aland Islands",
    "country_zh": "Aland Islands",
    "country_iso_code": "AX",
    "timezone": "Europe/Mariehamn",
    "latitude": 60.15,
    "longitude": 19.76667
  },
  {
    "city": "Torp",
    "city_zh": "Torp",
    "country": "Aland Islands",
    "country_zh": "Aland Islands",
    "country_iso_code": "AX",
    "timezone": "Europe/Mariehamn",
    "latitude": 60.13333,
    "longitude": 19.9
  },
  {
    "city": "Tjudö",
    "city_zh": "Tjudö",
    "country": "Aland Islands",
    "country_zh": "Aland Islands",
    "country_iso_code": "AX",
    "timezone": "Europe/Mariehamn",
    "latitude": 60.33333,
    "longitude": 19.95
  },
  {
    "city": "Tärnbolstad",
    "city_zh": "Tärnbolstad",
    "country": "Aland Islands",
    "country_zh": "Aland Islands",
    "country_iso_code": "AX",
    "timezone": "Europe/Mariehamn",
    "latitude": 60.26667,
    "longitude": 19.96667
  },
  {
    "city": "Svartsmara",
    "city_zh": "Svartsmara",
    "country": "Aland Islands",
    "country_zh": "Aland Islands",
    "country_iso_code": "AX",
    "timezone": "Europe/Mariehamn",
    "latitude": 60.24935,
    "longitude": 19.88016
  },
  {
    "city": "Strömma",
    "city_zh": "Strömma",
    "country": "Aland Islands",
    "country_zh": "Aland Islands",
    "country_iso_code": "AX",
    "timezone": "Europe/Mariehamn",
    "latitude": 60.3,
    "longitude": 19.78333
  },
  {
    "city": "Storby",
    "city_zh": "Storby",
    "country": "Aland Islands",
    "country_zh": "Aland Islands",
    "country_iso_code": "AX",
    "timezone": "Europe/Mariehamn",
    "latitude": 60.22317,
    "longitude": 19.55948
  },
  {
    "city": "Stålsby",
    "city_zh": "Stålsby",
    "country": "Aland Islands",
    "country_zh": "Aland Islands",
    "country_iso_code": "AX",
    "timezone": "Europe/Mariehamn",
    "latitude": 60.35,
    "longitude": 19.98333
  },
  {
    "city": "Södersunda",
    "city_zh": "Södersunda",
    "country": "Aland Islands",
    "country_zh": "Aland Islands",
    "country_iso_code": "AX",
    "timezone": "Europe/Mariehamn",
    "latitude": 60.15,
    "longitude": 19.86667
  },
  {
    "city": "Söderlund",
    "city_zh": "Söderlund",
    "country": "Aland Islands",
    "country_zh": "Aland Islands",
    "country_iso_code": "AX",
    "timezone": "Europe/Mariehamn",
    "latitude": 60.23333,
    "longitude": 19.66667
  },
  {
    "city": "Snäckö",
    "city_zh": "Snäckö",
    "country": "Aland Islands",
    "country_zh": "Aland Islands",
    "country_iso_code": "AX",
    "timezone": "Europe/Mariehamn",
    "latitude": 60.35,
    "longitude": 19.8
  },
  {
    "city": "Skeppsvik",
    "city_zh": "Skeppsvik",
    "country": "Aland Islands",
    "country_zh": "Aland Islands",
    "country_iso_code": "AX",
    "timezone": "Europe/Mariehamn",
    "latitude": 60.16667,
    "longitude": 19.53333
  },
  {
    "city": "Sålis",
    "city_zh": "Sålis",
    "country": "Aland Islands",
    "country_zh": "Aland Islands",
    "country_iso_code": "AX",
    "timezone": "Europe/Mariehamn",
    "latitude": 60.25566,
    "longitude": 19.74037
  },
  {
    "city": "Ringsböle",
    "city_zh": "Ringsböle",
    "country": "Aland Islands",
    "country_zh": "Aland Islands",
    "country_iso_code": "AX",
    "timezone": "Europe/Mariehamn",
    "latitude": 60.2,
    "longitude": 19.91667
  },
  {
    "city": "Rågetsböle",
    "city_zh": "Rågetsböle",
    "country": "Aland Islands",
    "country_zh": "Aland Islands",
    "country_iso_code": "AX",
    "timezone": "Europe/Mariehamn",
    "latitude": 60.26667,
    "longitude": 19.9
  },
  {
    "city": "Posta",
    "city_zh": "Posta",
    "country": "Aland Islands",
    "country_zh": "Aland Islands",
    "country_iso_code": "AX",
    "timezone": "Europe/Mariehamn",
    "latitude": 60.23333,
    "longitude": 19.78333
  },
  {
    "city": "Pålsböle",
    "city_zh": "Pålsböle",
    "country": "Aland Islands",
    "country_zh": "Aland Islands",
    "country_iso_code": "AX",
    "timezone": "Europe/Mariehamn",
    "latitude": 60.26319,
    "longitude": 19.93246
  },
  {
    "city": "Överby",
    "city_zh": "Överby",
    "country": "Aland Islands",
    "country_zh": "Aland Islands",
    "country_iso_code": "AX",
    "timezone": "Europe/Mariehamn",
    "latitude": 60.21667,
    "longitude": 19.63333
  },
  {
    "city": "Överby",
    "city_zh": "Överby",
    "country": "Aland Islands",
    "country_zh": "Aland Islands",
    "country_iso_code": "AX",
    "timezone": "Europe/Mariehamn",
    "latitude": 60.15,
    "longitude": 19.98333
  },
  {
    "city": "Östergeta",
    "city_zh": "Östergeta",
    "country": "Aland Islands",
    "country_zh": "Aland Islands",
    "country_iso_code": "AX",
    "timezone": "Europe/Mariehamn",
    "latitude": 60.38333,
    "longitude": 19.88333
  },
  {
    "city": "Ödkarby",
    "city_zh": "Ödkarby",
    "country": "Aland Islands",
    "country_zh": "Aland Islands",
    "country_iso_code": "AX",
    "timezone": "Europe/Mariehamn",
    "latitude": 60.30908,
    "longitude": 19.98016
  },
  {
    "city": "Norrsunda",
    "city_zh": "Norrsunda",
    "country": "Aland Islands",
    "country_zh": "Aland Islands",
    "country_iso_code": "AX",
    "timezone": "Europe/Mariehamn",
    "latitude": 60.16667,
    "longitude": 19.88333
  },
  {
    "city": "Näfsby",
    "city_zh": "Näfsby",
    "country": "Aland Islands",
    "country_zh": "Aland Islands",
    "country_iso_code": "AX",
    "timezone": "Europe/Mariehamn",
    "latitude": 60.2,
    "longitude": 19.8
  },
  {
    "city": "Nåtö",
    "city_zh": "Nåtö",
    "country": "Aland Islands",
    "country_zh": "Aland Islands",
    "country_iso_code": "AX",
    "timezone": "Europe/Mariehamn",
    "latitude": 60.05,
    "longitude": 19.98333
  },
  {
    "city": "Mörby",
    "city_zh": "Mörby",
    "country": "Aland Islands",
    "country_zh": "Aland Islands",
    "country_iso_code": "AX",
    "timezone": "Europe/Mariehamn",
    "latitude": 60.23333,
    "longitude": 19.71667
  },
  {
    "city": "Möckelby",
    "city_zh": "Möckelby",
    "country": "Aland Islands",
    "country_zh": "Aland Islands",
    "country_iso_code": "AX",
    "timezone": "Europe/Mariehamn",
    "latitude": 60.15083,
    "longitude": 19.93944
  },
  {
    "city": "Marsund",
    "city_zh": "Marsund",
    "country": "Aland Islands",
    "country_zh": "Aland Islands",
    "country_iso_code": "AX",
    "timezone": "Europe/Mariehamn",
    "latitude": 60.2,
    "longitude": 19.7
  },
  {
    "city": "Mariehamn",
    "city_zh": "Mariehamn",
    "country": "Aland Islands",
    "country_zh": "Aland Islands",
    "country_iso_code": "AX",
    "timezone": "Europe/Mariehamn",
    "latitude": 60.09726,
    "longitude": 19.93481
  },
  {
    "city": "Marby",
    "city_zh": "Marby",
    "country": "Aland Islands",
    "country_zh": "Aland Islands",
    "country_iso_code": "AX",
    "timezone": "Europe/Mariehamn",
    "latitude": 60.2,
    "longitude": 19.66667
  },
  {
    "city": "Mangelbo",
    "city_zh": "Mangelbo",
    "country": "Aland Islands",
    "country_zh": "Aland Islands",
    "country_iso_code": "AX",
    "timezone": "Europe/Mariehamn",
    "latitude": 60.26532,
    "longitude": 19.9792
  },
  {
    "city": "Lillbolstad",
    "city_zh": "Lillbolstad",
    "country": "Aland Islands",
    "country_zh": "Aland Islands",
    "country_iso_code": "AX",
    "timezone": "Europe/Mariehamn",
    "latitude": 60.25,
    "longitude": 19.76667
  },
  {
    "city": "Kattby",
    "city_zh": "Kattby",
    "country": "Aland Islands",
    "country_zh": "Aland Islands",
    "country_iso_code": "AX",
    "timezone": "Europe/Mariehamn",
    "latitude": 60.21638,
    "longitude": 19.74026
  },
  {
    "city": "Karrböle",
    "city_zh": "Karrböle",
    "country": "Aland Islands",
    "country_zh": "Aland Islands",
    "country_iso_code": "AX",
    "timezone": "Europe/Mariehamn",
    "latitude": 60.18333,
    "longitude": 19.93333
  },
  {
    "city": "Karlgård",
    "city_zh": "Karlgård",
    "country": "Aland Islands",
    "country_zh": "Aland Islands",
    "country_iso_code": "AX",
    "timezone": "Europe/Mariehamn",
    "latitude": 60.15,
    "longitude": 19.71667
  },
  {
    "city": "Jomalby",
    "city_zh": "Jomalby",
    "country": "Aland Islands",
    "country_zh": "Aland Islands",
    "country_iso_code": "AX",
    "timezone": "Europe/Mariehamn",
    "latitude": 60.18333,
    "longitude": 19.98333
  },
  {
    "city": "Jomala",
    "city_zh": "Jomala",
    "country": "Aland Islands",
    "country_zh": "Aland Islands",
    "country_iso_code": "AX",
    "timezone": "Europe/Mariehamn",
    "latitude": 60.14902,
    "longitude": 19.951
  },
  {
    "city": "Jättböle",
    "city_zh": "Jättböle",
    "country": "Aland Islands",
    "country_zh": "Aland Islands",
    "country_iso_code": "AX",
    "timezone": "Europe/Mariehamn",
    "latitude": 60.13333,
    "longitude": 19.98333
  },
  {
    "city": "Isaksö",
    "city_zh": "Isaksö",
    "country": "Aland Islands",
    "country_zh": "Aland Islands",
    "country_iso_code": "AX",
    "timezone": "Europe/Mariehamn",
    "latitude": 60.36773,
    "longitude": 19.74956
  },
  {
    "city": "Ingby",
    "city_zh": "Ingby",
    "country": "Aland Islands",
    "country_zh": "Aland Islands",
    "country_iso_code": "AX",
    "timezone": "Europe/Mariehamn",
    "latitude": 60.16667,
    "longitude": 19.95
  },
  {
    "city": "Hindersböle",
    "city_zh": "Hindersböle",
    "country": "Aland Islands",
    "country_zh": "Aland Islands",
    "country_iso_code": "AX",
    "timezone": "Europe/Mariehamn",
    "latitude": 60.11667,
    "longitude": 19.95
  },
  {
    "city": "Hamnäs",
    "city_zh": "Hamnäs",
    "country": "Aland Islands",
    "country_zh": "Aland Islands",
    "country_iso_code": "AX",
    "timezone": "Europe/Mariehamn",
    "latitude": 60.1,
    "longitude": 19.83333
  },
  {
    "city": "Hammarland",
    "city_zh": "Hammarland",
    "country": "Aland Islands",
    "country_zh": "Aland Islands",
    "country_iso_code": "AX",
    "timezone": "Europe/Mariehamn",
    "latitude": 60.21667,
    "longitude": 19.75
  },
  {
    "city": "Gottby",
    "city_zh": "Gottby",
    "country": "Aland Islands",
    "country_zh": "Aland Islands",
    "country_iso_code": "AX",
    "timezone": "Europe/Mariehamn",
    "latitude": 60.12992,
    "longitude": 19.82191
  },
  {
    "city": "Gölby",
    "city_zh": "Gölby",
    "country": "Aland Islands",
    "country_zh": "Aland Islands",
    "country_iso_code": "AX",
    "timezone": "Europe/Mariehamn",
    "latitude": 60.18333,
    "longitude": 19.95
  },
  {
    "city": "Geta",
    "city_zh": "蓋塔",
    "country": "Aland Islands",
    "country_zh": "Aland Islands",
    "country_iso_code": "AX",
    "timezone": "Europe/Mariehamn",
    "latitude": 60.37453,
    "longitude": 19.84455
  },
  {
    "city": "Frebbenby",
    "city_zh": "Frebbenby",
    "country": "Aland Islands",
    "country_zh": "Aland Islands",
    "country_iso_code": "AX",
    "timezone": "Europe/Mariehamn",
    "latitude": 60.21667,
    "longitude": 19.71667
  },
  {
    "city": "Finström",
    "city_zh": "Finström",
    "country": "Aland Islands",
    "country_zh": "Aland Islands",
    "country_iso_code": "AX",
    "timezone": "Europe/Mariehamn",
    "latitude": 60.26667,
    "longitude": 19.93333
  },
  {
    "city": "Finbo",
    "city_zh": "Finbo",
    "country": "Aland Islands",
    "country_zh": "Aland Islands",
    "country_iso_code": "AX",
    "timezone": "Europe/Mariehamn",
    "latitude": 60.35,
    "longitude": 19.58333
  },
  {
    "city": "Emkarby",
    "city_zh": "Emkarby",
    "country": "Aland Islands",
    "country_zh": "Aland Islands",
    "country_iso_code": "AX",
    "timezone": "Europe/Mariehamn",
    "latitude": 60.21111,
    "longitude": 19.88556
  },
  {
    "city": "Eckerö",
    "city_zh": "埃克勒",
    "country": "Aland Islands",
    "country_zh": "Aland Islands",
    "country_iso_code": "AX",
    "timezone": "Europe/Mariehamn",
    "latitude": 60.21249,
    "longitude": 19.61442
  },
  {
    "city": "Drygsböle",
    "city_zh": "Drygsböle",
    "country": "Aland Islands",
    "country_zh": "Aland Islands",
    "country_iso_code": "AX",
    "timezone": "Europe/Mariehamn",
    "latitude": 60.18333,
    "longitude": 19.8
  },
  {
    "city": "Djurvik",
    "city_zh": "Djurvik",
    "country": "Aland Islands",
    "country_zh": "Aland Islands",
    "country_iso_code": "AX",
    "timezone": "Europe/Mariehamn",
    "latitude": 60.11667,
    "longitude": 19.76667
  },
  {
    "city": "Djäkenböle",
    "city_zh": "Djäkenböle",
    "country": "Aland Islands",
    "country_zh": "Aland Islands",
    "country_iso_code": "AX",
    "timezone": "Europe/Mariehamn",
    "latitude": 60.2,
    "longitude": 19.78333
  },
  {
    "city": "Degersand",
    "city_zh": "Degersand",
    "country": "Aland Islands",
    "country_zh": "Aland Islands",
    "country_iso_code": "AX",
    "timezone": "Europe/Mariehamn",
    "latitude": 60.15,
    "longitude": 19.6
  },
  {
    "city": "Dånö",
    "city_zh": "Dånö",
    "country": "Aland Islands",
    "country_zh": "Aland Islands",
    "country_iso_code": "AX",
    "timezone": "Europe/Mariehamn",
    "latitude": 60.40154,
    "longitude": 19.77359
  },
  {
    "city": "Dalkarby",
    "city_zh": "Dalkarby",
    "country": "Aland Islands",
    "country_zh": "Aland Islands",
    "country_iso_code": "AX",
    "timezone": "Europe/Mariehamn",
    "latitude": 60.13333,
    "longitude": 19.95
  },
  {
    "city": "Buskböle",
    "city_zh": "Buskböle",
    "country": "Aland Islands",
    "country_zh": "Aland Islands",
    "country_iso_code": "AX",
    "timezone": "Europe/Mariehamn",
    "latitude": 60.18333,
    "longitude": 19.95
  },
  {
    "city": "Bredbolstad",
    "city_zh": "Bredbolstad",
    "country": "Aland Islands",
    "country_zh": "Aland Islands",
    "country_iso_code": "AX",
    "timezone": "Europe/Mariehamn",
    "latitude": 60.24475,
    "longitude": 19.72355
  },
  {
    "city": "Bovik",
    "city_zh": "Bovik",
    "country": "Aland Islands",
    "country_zh": "Aland Islands",
    "country_iso_code": "AX",
    "timezone": "Europe/Mariehamn",
    "latitude": 60.25919,
    "longitude": 19.70778
  },
  {
    "city": "Björsby",
    "city_zh": "Björsby",
    "country": "Aland Islands",
    "country_zh": "Aland Islands",
    "country_iso_code": "AX",
    "timezone": "Europe/Mariehamn",
    "latitude": 60.18678,
    "longitude": 19.96175
  },
  {
    "city": "Björnhuvud",
    "city_zh": "Björnhuvud",
    "country": "Aland Islands",
    "country_zh": "Aland Islands",
    "country_iso_code": "AX",
    "timezone": "Europe/Mariehamn",
    "latitude": 60.18515,
    "longitude": 19.66578
  },
  {
    "city": "Bergö",
    "city_zh": "Bergö",
    "country": "Aland Islands",
    "country_zh": "Aland Islands",
    "country_iso_code": "AX",
    "timezone": "Europe/Mariehamn",
    "latitude": 60.3,
    "longitude": 19.83333
  },
  {
    "city": "Bastö",
    "city_zh": "Bastö",
    "country": "Aland Islands",
    "country_zh": "Aland Islands",
    "country_iso_code": "AX",
    "timezone": "Europe/Mariehamn",
    "latitude": 60.31667,
    "longitude": 19.86667
  },
  {
    "city": "Bamböle",
    "city_zh": "Bamböle",
    "country": "Aland Islands",
    "country_zh": "Aland Islands",
    "country_iso_code": "AX",
    "timezone": "Europe/Mariehamn",
    "latitude": 60.23333,
    "longitude": 19.85
  },
  {
    "city": "Åttböle",
    "city_zh": "Åttböle",
    "country": "Aland Islands",
    "country_zh": "Aland Islands",
    "country_iso_code": "AX",
    "timezone": "Europe/Mariehamn",
    "latitude": 60.25,
    "longitude": 19.91667
  },
  {
    "city": "Ämnäs",
    "city_zh": "Ämnäs",
    "country": "Aland Islands",
    "country_zh": "Aland Islands",
    "country_iso_code": "AX",
    "timezone": "Europe/Mariehamn",
    "latitude": 60.21667,
    "longitude": 19.98333
  },
  {
    "city": "Östergård",
    "city_zh": "Östergård",
    "country": "Aland Islands",
    "country_zh": "Aland Islands",
    "country_iso_code": "AX",
    "timezone": "Europe/Mariehamn",
    "latitude": 60.02222,
    "longitude": 19.99889
  },
  {
    "city": "Strandnäs",
    "city_zh": "Strandnäs",
    "country": "Aland Islands",
    "country_zh": "Aland Islands",
    "country_iso_code": "AX",
    "timezone": "Europe/Mariehamn",
    "latitude": 60.115,
    "longitude": 19.94556
  },
  {
    "city": "Klinten",
    "city_zh": "Klinten",
    "country": "Aland Islands",
    "country_zh": "Aland Islands",
    "country_iso_code": "AX",
    "timezone": "Europe/Mariehamn",
    "latitude": 60.10861,
    "longitude": 19.93
  },
  {
    "city": "Rommarn",
    "city_zh": "Rommarn",
    "country": "Aland Islands",
    "country_zh": "Aland Islands",
    "country_iso_code": "AX",
    "timezone": "Europe/Mariehamn",
    "latitude": 60.0975,
    "longitude": 19.91528
  },
  {
    "city": "Trovill",
    "city_zh": "Trovill",
    "country": "Aland Islands",
    "country_zh": "Aland Islands",
    "country_iso_code": "AX",
    "timezone": "Europe/Mariehamn",
    "latitude": 60.0925,
    "longitude": 19.91056
  },
  {
    "city": "Norrgård",
    "city_zh": "Norrgård",
    "country": "Aland Islands",
    "country_zh": "Aland Islands",
    "country_iso_code": "AX",
    "timezone": "Europe/Mariehamn",
    "latitude": 60.10528,
    "longitude": 19.9
  },
  {
    "city": "Östra Ytternäs",
    "city_zh": "Östra Ytternäs",
    "country": "Aland Islands",
    "country_zh": "Aland Islands",
    "country_iso_code": "AX",
    "timezone": "Europe/Mariehamn",
    "latitude": 60.08306,
    "longitude": 19.96278
  },
  {
    "city": "Västra Ytternäs",
    "city_zh": "Västra Ytternäs",
    "country": "Aland Islands",
    "country_zh": "Aland Islands",
    "country_iso_code": "AX",
    "timezone": "Europe/Mariehamn",
    "latitude": 60.07944,
    "longitude": 19.9375
  },
  {
    "city": "Norrgård",
    "city_zh": "Norrgård",
    "country": "Aland Islands",
    "country_zh": "Aland Islands",
    "country_iso_code": "AX",
    "timezone": "Europe/Mariehamn",
    "latitude": 60.11722,
    "longitude": 19.76861
  },
  {
    "city": "Tallöga",
    "city_zh": "Tallöga",
    "country": "Aland Islands",
    "country_zh": "Aland Islands",
    "country_iso_code": "AX",
    "timezone": "Europe/Mariehamn",
    "latitude": 60.11083,
    "longitude": 19.74583
  },
  {
    "city": "Alebo",
    "city_zh": "Alebo",
    "country": "Aland Islands",
    "country_zh": "Aland Islands",
    "country_iso_code": "AX",
    "timezone": "Europe/Mariehamn",
    "latitude": 60.09972,
    "longitude": 19.78
  },
  {
    "city": "Pellas",
    "city_zh": "Pellas",
    "country": "Aland Islands",
    "country_zh": "Aland Islands",
    "country_iso_code": "AX",
    "timezone": "Europe/Mariehamn",
    "latitude": 60.10917,
    "longitude": 19.82417
  },
  {
    "city": "Karlberg",
    "city_zh": "Karlberg",
    "country": "Aland Islands",
    "country_zh": "Aland Islands",
    "country_iso_code": "AX",
    "timezone": "Europe/Mariehamn",
    "latitude": 60.11222,
    "longitude": 19.81472
  },
  {
    "city": "Södra Gottby",
    "city_zh": "Södra Gottby",
    "country": "Aland Islands",
    "country_zh": "Aland Islands",
    "country_iso_code": "AX",
    "timezone": "Europe/Mariehamn",
    "latitude": 60.11944,
    "longitude": 19.82333
  },
  {
    "city": "Böjsas",
    "city_zh": "Böjsas",
    "country": "Aland Islands",
    "country_zh": "Aland Islands",
    "country_iso_code": "AX",
    "timezone": "Europe/Mariehamn",
    "latitude": 60.12444,
    "longitude": 19.81472
  },
  {
    "city": "Karls",
    "city_zh": "Karls",
    "country": "Aland Islands",
    "country_zh": "Aland Islands",
    "country_iso_code": "AX",
    "timezone": "Europe/Mariehamn",
    "latitude": 60.13194,
    "longitude": 19.82861
  },
  {
    "city": "Norra Gottby",
    "city_zh": "Norra Gottby",
    "country": "Aland Islands",
    "country_zh": "Aland Islands",
    "country_iso_code": "AX",
    "timezone": "Europe/Mariehamn",
    "latitude": 60.13389,
    "longitude": 19.81667
  },
  {
    "city": "Mellangård",
    "city_zh": "Mellangård",
    "country": "Aland Islands",
    "country_zh": "Aland Islands",
    "country_iso_code": "AX",
    "timezone": "Europe/Mariehamn",
    "latitude": 60.155,
    "longitude": 19.75833
  },
  {
    "city": "Västergård",
    "city_zh": "Västergård",
    "country": "Aland Islands",
    "country_zh": "Aland Islands",
    "country_iso_code": "AX",
    "timezone": "Europe/Mariehamn",
    "latitude": 60.15889,
    "longitude": 19.75639
  },
  {
    "city": "Furubo",
    "city_zh": "Furubo",
    "country": "Aland Islands",
    "country_zh": "Aland Islands",
    "country_iso_code": "AX",
    "timezone": "Europe/Mariehamn",
    "latitude": 60.15917,
    "longitude": 19.76111
  },
  {
    "city": "Görans",
    "city_zh": "Görans",
    "country": "Aland Islands",
    "country_zh": "Aland Islands",
    "country_iso_code": "AX",
    "timezone": "Europe/Mariehamn",
    "latitude": 60.15333,
    "longitude": 19.80056
  },
  {
    "city": "Nybacka",
    "city_zh": "Nybacka",
    "country": "Aland Islands",
    "country_zh": "Aland Islands",
    "country_iso_code": "AX",
    "timezone": "Europe/Mariehamn",
    "latitude": 60.12583,
    "longitude": 19.83
  },
  {
    "city": "Bengtas",
    "city_zh": "Bengtas",
    "country": "Aland Islands",
    "country_zh": "Aland Islands",
    "country_iso_code": "AX",
    "timezone": "Europe/Mariehamn",
    "latitude": 60.11083,
    "longitude": 19.84583
  },
  {
    "city": "Fagerlund",
    "city_zh": "Fagerlund",
    "country": "Aland Islands",
    "country_zh": "Aland Islands",
    "country_iso_code": "AX",
    "timezone": "Europe/Mariehamn",
    "latitude": 60.10111,
    "longitude": 19.86528
  },
  {
    "city": "Brandö",
    "city_zh": "Brandö",
    "country": "Aland Islands",
    "country_zh": "Aland Islands",
    "country_iso_code": "AX",
    "timezone": "Europe/Mariehamn",
    "latitude": 60.11417,
    "longitude": 19.88028
  },
  {
    "city": "Grönbacka",
    "city_zh": "Grönbacka",
    "country": "Aland Islands",
    "country_zh": "Aland Islands",
    "country_iso_code": "AX",
    "timezone": "Europe/Mariehamn",
    "latitude": 60.13806,
    "longitude": 19.97889
  },
  {
    "city": "Österkalmare",
    "city_zh": "Österkalmare",
    "country": "Aland Islands",
    "country_zh": "Aland Islands",
    "country_iso_code": "AX",
    "timezone": "Europe/Mariehamn",
    "latitude": 60.13028,
    "longitude": 19.99583
  },
  {
    "city": "Ulvsby",
    "city_zh": "Ulvsby",
    "country": "Aland Islands",
    "country_zh": "Aland Islands",
    "country_iso_code": "AX",
    "timezone": "Europe/Mariehamn",
    "latitude": 60.15861,
    "longitude": 19.93083
  },
  {
    "city": "Kihla",
    "city_zh": "Kihla",
    "country": "Aland Islands",
    "country_zh": "Aland Islands",
    "country_iso_code": "AX",
    "timezone": "Europe/Mariehamn",
    "latitude": 60.15833,
    "longitude": 19.98389
  },
  {
    "city": "Kyrkobyn",
    "city_zh": "Kyrkobyn",
    "country": "Aland Islands",
    "country_zh": "Aland Islands",
    "country_iso_code": "AX",
    "timezone": "Europe/Mariehamn",
    "latitude": 60.15139,
    "longitude": 19.95167
  },
  {
    "city": "Södergård",
    "city_zh": "Södergård",
    "country": "Aland Islands",
    "country_zh": "Aland Islands",
    "country_iso_code": "AX",
    "timezone": "Europe/Mariehamn",
    "latitude": 60.175,
    "longitude": 19.97972
  },
  {
    "city": "Kalmsta",
    "city_zh": "Kalmsta",
    "country": "Aland Islands",
    "country_zh": "Aland Islands",
    "country_iso_code": "AX",
    "timezone": "Europe/Mariehamn",
    "latitude": 60.11861,
    "longitude": 19.9675
  },
  {
    "city": "Norrgård",
    "city_zh": "Norrgård",
    "country": "Aland Islands",
    "country_zh": "Aland Islands",
    "country_iso_code": "AX",
    "timezone": "Europe/Mariehamn",
    "latitude": 60.1375,
    "longitude": 19.89722
  },
  {
    "city": "Janses",
    "city_zh": "Janses",
    "country": "Aland Islands",
    "country_zh": "Aland Islands",
    "country_iso_code": "AX",
    "timezone": "Europe/Mariehamn",
    "latitude": 60.135,
    "longitude": 19.85861
  },
  {
    "city": "Julle",
    "city_zh": "Julle",
    "country": "Aland Islands",
    "country_zh": "Aland Islands",
    "country_iso_code": "AX",
    "timezone": "Europe/Mariehamn",
    "latitude": 60.12861,
    "longitude": 19.8975
  },
  {
    "city": "Boskas",
    "city_zh": "Boskas",
    "country": "Aland Islands",
    "country_zh": "Aland Islands",
    "country_iso_code": "AX",
    "timezone": "Europe/Mariehamn",
    "latitude": 60.13417,
    "longitude": 19.89972
  },
  {
    "city": "Norrgård",
    "city_zh": "Norrgård",
    "country": "Aland Islands",
    "country_zh": "Aland Islands",
    "country_iso_code": "AX",
    "timezone": "Europe/Mariehamn",
    "latitude": 60.13806,
    "longitude": 19.89694
  },
  {
    "city": "Gibböle",
    "city_zh": "Gibböle",
    "country": "Aland Islands",
    "country_zh": "Aland Islands",
    "country_iso_code": "AX",
    "timezone": "Europe/Mariehamn",
    "latitude": 60.21167,
    "longitude": 19.99139
  },
  {
    "city": "Norrberg",
    "city_zh": "Norrberg",
    "country": "Aland Islands",
    "country_zh": "Aland Islands",
    "country_iso_code": "AX",
    "timezone": "Europe/Mariehamn",
    "latitude": 60.20806,
    "longitude": 19.97583
  },
  {
    "city": "Norrängen",
    "city_zh": "Norrängen",
    "country": "Aland Islands",
    "country_zh": "Aland Islands",
    "country_iso_code": "AX",
    "timezone": "Europe/Mariehamn",
    "latitude": 60.16583,
    "longitude": 19.98583
  },
  {
    "city": "Markusas",
    "city_zh": "Markusas",
    "country": "Aland Islands",
    "country_zh": "Aland Islands",
    "country_iso_code": "AX",
    "timezone": "Europe/Mariehamn",
    "latitude": 60.16806,
    "longitude": 19.95
  },
  {
    "city": "Vargsunda",
    "city_zh": "Vargsunda",
    "country": "Aland Islands",
    "country_zh": "Aland Islands",
    "country_iso_code": "AX",
    "timezone": "Europe/Mariehamn",
    "latitude": 60.18028,
    "longitude": 19.85583
  },
  {
    "city": "Kullaö",
    "city_zh": "Kullaö",
    "country": "Aland Islands",
    "country_zh": "Aland Islands",
    "country_iso_code": "AX",
    "timezone": "Europe/Mariehamn",
    "latitude": 60.20389,
    "longitude": 19.85917
  },
  {
    "city": "Vikhem",
    "city_zh": "Vikhem",
    "country": "Aland Islands",
    "country_zh": "Aland Islands",
    "country_iso_code": "AX",
    "timezone": "Europe/Mariehamn",
    "latitude": 60.20972,
    "longitude": 19.85889
  },
  {
    "city": "Bjärström",
    "city_zh": "Bjärström",
    "country": "Aland Islands",
    "country_zh": "Aland Islands",
    "country_iso_code": "AX",
    "timezone": "Europe/Mariehamn",
    "latitude": 60.21333,
    "longitude": 19.85917
  },
  {
    "city": "Björkbacka",
    "city_zh": "Björkbacka",
    "country": "Aland Islands",
    "country_zh": "Aland Islands",
    "country_iso_code": "AX",
    "timezone": "Europe/Mariehamn",
    "latitude": 60.21556,
    "longitude": 19.85417
  },
  {
    "city": "Rönnhem",
    "city_zh": "Rönnhem",
    "country": "Aland Islands",
    "country_zh": "Aland Islands",
    "country_iso_code": "AX",
    "timezone": "Europe/Mariehamn",
    "latitude": 60.21444,
    "longitude": 19.89778
  },
  {
    "city": "Stornäs",
    "city_zh": "Stornäs",
    "country": "Aland Islands",
    "country_zh": "Aland Islands",
    "country_iso_code": "AX",
    "timezone": "Europe/Mariehamn",
    "latitude": 60.22333,
    "longitude": 19.94722
  },
  {
    "city": "Östanåker",
    "city_zh": "Östanåker",
    "country": "Aland Islands",
    "country_zh": "Aland Islands",
    "country_iso_code": "AX",
    "timezone": "Europe/Mariehamn",
    "latitude": 60.20611,
    "longitude": 19.9025
  },
  {
    "city": "Norrgård",
    "city_zh": "Norrgård",
    "country": "Aland Islands",
    "country_zh": "Aland Islands",
    "country_iso_code": "AX",
    "timezone": "Europe/Mariehamn",
    "latitude": 60.19833,
    "longitude": 19.91306
  },
  {
    "city": "Pellas",
    "city_zh": "Pellas",
    "country": "Aland Islands",
    "country_zh": "Aland Islands",
    "country_iso_code": "AX",
    "timezone": "Europe/Mariehamn",
    "latitude": 60.20583,
    "longitude": 19.84194
  },
  {
    "city": "Andersböle",
    "city_zh": "Andersböle",
    "country": "Aland Islands",
    "country_zh": "Aland Islands",
    "country_iso_code": "AX",
    "timezone": "Europe/Mariehamn",
    "latitude": 60.18139,
    "longitude": 19.94111
  },
  {
    "city": "Jans",
    "city_zh": "Jans",
    "country": "Aland Islands",
    "country_zh": "Aland Islands",
    "country_iso_code": "AX",
    "timezone": "Europe/Mariehamn",
    "latitude": 60.18944,
    "longitude": 19.93972
  },
  {
    "city": "Grins",
    "city_zh": "Grins",
    "country": "Aland Islands",
    "country_zh": "Aland Islands",
    "country_iso_code": "AX",
    "timezone": "Europe/Mariehamn",
    "latitude": 60.18667,
    "longitude": 19.94444
  },
  {
    "city": "Mellangård",
    "city_zh": "Mellangård",
    "country": "Aland Islands",
    "country_zh": "Aland Islands",
    "country_iso_code": "AX",
    "timezone": "Europe/Mariehamn",
    "latitude": 60.19,
    "longitude": 19.82944
  },
  {
    "city": "Västergård",
    "city_zh": "Västergård",
    "country": "Aland Islands",
    "country_zh": "Aland Islands",
    "country_iso_code": "AX",
    "timezone": "Europe/Mariehamn",
    "latitude": 60.18528,
    "longitude": 19.8075
  },
  {
    "city": "Boda",
    "city_zh": "Boda",
    "country": "Aland Islands",
    "country_zh": "Aland Islands",
    "country_iso_code": "AX",
    "timezone": "Europe/Mariehamn",
    "latitude": 60.185,
    "longitude": 19.80472
  },
  {
    "city": "Östergård",
    "city_zh": "Östergård",
    "country": "Aland Islands",
    "country_zh": "Aland Islands",
    "country_iso_code": "AX",
    "timezone": "Europe/Mariehamn",
    "latitude": 60.18472,
    "longitude": 19.83361
  },
  {
    "city": "Mannes",
    "city_zh": "Mannes",
    "country": "Aland Islands",
    "country_zh": "Aland Islands",
    "country_iso_code": "AX",
    "timezone": "Europe/Mariehamn",
    "latitude": 60.16833,
    "longitude": 19.74556
  },
  {
    "city": "Samuelstorp",
    "city_zh": "Samuelstorp",
    "country": "Aland Islands",
    "country_zh": "Aland Islands",
    "country_iso_code": "AX",
    "timezone": "Europe/Mariehamn",
    "latitude": 60.16917,
    "longitude": 19.74472
  },
  {
    "city": "Norrgård",
    "city_zh": "Norrgård",
    "country": "Aland Islands",
    "country_zh": "Aland Islands",
    "country_iso_code": "AX",
    "timezone": "Europe/Mariehamn",
    "latitude": 60.18361,
    "longitude": 19.69028
  },
  {
    "city": "Sandhagen",
    "city_zh": "Sandhagen",
    "country": "Aland Islands",
    "country_zh": "Aland Islands",
    "country_iso_code": "AX",
    "timezone": "Europe/Mariehamn",
    "latitude": 60.18472,
    "longitude": 19.69972
  },
  {
    "city": "Hällesby Sand",
    "city_zh": "Hällesby Sand",
    "country": "Aland Islands",
    "country_zh": "Aland Islands",
    "country_iso_code": "AX",
    "timezone": "Europe/Mariehamn",
    "latitude": 60.18833,
    "longitude": 19.6975
  },
  {
    "city": "Övergård",
    "city_zh": "Övergård",
    "country": "Aland Islands",
    "country_zh": "Aland Islands",
    "country_iso_code": "AX",
    "timezone": "Europe/Mariehamn",
    "latitude": 60.1875,
    "longitude": 19.75778
  },
  {
    "city": "Bolstad",
    "city_zh": "Bolstad",
    "country": "Aland Islands",
    "country_zh": "Aland Islands",
    "country_iso_code": "AX",
    "timezone": "Europe/Mariehamn",
    "latitude": 60.18556,
    "longitude": 19.78278
  },
  {
    "city": "Nygård",
    "city_zh": "Nygård",
    "country": "Aland Islands",
    "country_zh": "Aland Islands",
    "country_iso_code": "AX",
    "timezone": "Europe/Mariehamn",
    "latitude": 60.18722,
    "longitude": 19.79639
  },
  {
    "city": "Karlsö",
    "city_zh": "Karlsö",
    "country": "Aland Islands",
    "country_zh": "Aland Islands",
    "country_iso_code": "AX",
    "timezone": "Europe/Mariehamn",
    "latitude": 60.19278,
    "longitude": 19.81833
  },
  {
    "city": "Björknäs",
    "city_zh": "Björknäs",
    "country": "Aland Islands",
    "country_zh": "Aland Islands",
    "country_iso_code": "AX",
    "timezone": "Europe/Mariehamn",
    "latitude": 60.20056,
    "longitude": 19.8275
  },
  {
    "city": "Strandäng",
    "city_zh": "Strandäng",
    "country": "Aland Islands",
    "country_zh": "Aland Islands",
    "country_iso_code": "AX",
    "timezone": "Europe/Mariehamn",
    "latitude": 60.21444,
    "longitude": 19.77472
  },
  {
    "city": "Södergård",
    "city_zh": "Södergård",
    "country": "Aland Islands",
    "country_zh": "Aland Islands",
    "country_iso_code": "AX",
    "timezone": "Europe/Mariehamn",
    "latitude": 60.2225,
    "longitude": 19.77944
  },
  {
    "city": "Björkbo",
    "city_zh": "Björkbo",
    "country": "Aland Islands",
    "country_zh": "Aland Islands",
    "country_iso_code": "AX",
    "timezone": "Europe/Mariehamn",
    "latitude": 60.22028,
    "longitude": 19.77306
  },
  {
    "city": "Laine",
    "city_zh": "Laine",
    "country": "Aland Islands",
    "country_zh": "Aland Islands",
    "country_iso_code": "AX",
    "timezone": "Europe/Mariehamn",
    "latitude": 60.21833,
    "longitude": 19.76028
  },
  {
    "city": "Månäng",
    "city_zh": "Månäng",
    "country": "Aland Islands",
    "country_zh": "Aland Islands",
    "country_iso_code": "AX",
    "timezone": "Europe/Mariehamn",
    "latitude": 60.21861,
    "longitude": 19.74056
  },
  {
    "city": "Västerbo",
    "city_zh": "Västerbo",
    "country": "Aland Islands",
    "country_zh": "Aland Islands",
    "country_iso_code": "AX",
    "timezone": "Europe/Mariehamn",
    "latitude": 60.21667,
    "longitude": 19.71167
  },
  {
    "city": "Örliden",
    "city_zh": "Örliden",
    "country": "Aland Islands",
    "country_zh": "Aland Islands",
    "country_iso_code": "AX",
    "timezone": "Europe/Mariehamn",
    "latitude": 60.21528,
    "longitude": 19.685
  },
  {
    "city": "Smeds",
    "city_zh": "Smeds",
    "country": "Aland Islands",
    "country_zh": "Aland Islands",
    "country_iso_code": "AX",
    "timezone": "Europe/Mariehamn",
    "latitude": 60.20861,
    "longitude": 19.67472
  },
  {
    "city": "Kattnäs",
    "city_zh": "Kattnäs",
    "country": "Aland Islands",
    "country_zh": "Aland Islands",
    "country_iso_code": "AX",
    "timezone": "Europe/Mariehamn",
    "latitude": 60.19833,
    "longitude": 19.69333
  },
  {
    "city": "Nordström",
    "city_zh": "Nordström",
    "country": "Aland Islands",
    "country_zh": "Aland Islands",
    "country_iso_code": "AX",
    "timezone": "Europe/Mariehamn",
    "latitude": 60.19917,
    "longitude": 19.70083
  },
  {
    "city": "Nedergård",
    "city_zh": "Nedergård",
    "country": "Aland Islands",
    "country_zh": "Aland Islands",
    "country_iso_code": "AX",
    "timezone": "Europe/Mariehamn",
    "latitude": 60.20194,
    "longitude": 19.73472
  },
  {
    "city": "Bohem",
    "city_zh": "Bohem",
    "country": "Aland Islands",
    "country_zh": "Aland Islands",
    "country_iso_code": "AX",
    "timezone": "Europe/Mariehamn",
    "latitude": 60.20806,
    "longitude": 19.73833
  },
  {
    "city": "Hellesby",
    "city_zh": "Hellesby",
    "country": "Aland Islands",
    "country_zh": "Aland Islands",
    "country_iso_code": "AX",
    "timezone": "Europe/Mariehamn",
    "latitude": 60.20361,
    "longitude": 19.73861
  },
  {
    "city": "Grops",
    "city_zh": "Grops",
    "country": "Aland Islands",
    "country_zh": "Aland Islands",
    "country_iso_code": "AX",
    "timezone": "Europe/Mariehamn",
    "latitude": 60.19806,
    "longitude": 19.77472
  },
  {
    "city": "Bonäs",
    "city_zh": "Bonäs",
    "country": "Aland Islands",
    "country_zh": "Aland Islands",
    "country_iso_code": "AX",
    "timezone": "Europe/Mariehamn",
    "latitude": 60.17778,
    "longitude": 19.59694
  },
  {
    "city": "Furulund",
    "city_zh": "Furulund",
    "country": "Aland Islands",
    "country_zh": "Aland Islands",
    "country_iso_code": "AX",
    "timezone": "Europe/Mariehamn",
    "latitude": 60.18444,
    "longitude": 19.57917
  },
  {
    "city": "Östra Mangsjö",
    "city_zh": "Östra Mangsjö",
    "country": "Aland Islands",
    "country_zh": "Aland Islands",
    "country_iso_code": "AX",
    "timezone": "Europe/Mariehamn",
    "latitude": 60.18833,
    "longitude": 19.59361
  },
  {
    "city": "Karls",
    "city_zh": "Karls",
    "country": "Aland Islands",
    "country_zh": "Aland Islands",
    "country_iso_code": "AX",
    "timezone": "Europe/Mariehamn",
    "latitude": 60.20917,
    "longitude": 19.65417
  },
  {
    "city": "Klemes",
    "city_zh": "Klemes",
    "country": "Aland Islands",
    "country_zh": "Aland Islands",
    "country_iso_code": "AX",
    "timezone": "Europe/Mariehamn",
    "latitude": 60.21111,
    "longitude": 19.66111
  },
  {
    "city": "Storhaga",
    "city_zh": "Storhaga",
    "country": "Aland Islands",
    "country_zh": "Aland Islands",
    "country_iso_code": "AX",
    "timezone": "Europe/Mariehamn",
    "latitude": 60.2225,
    "longitude": 19.66111
  },
  {
    "city": "Östergård",
    "city_zh": "Östergård",
    "country": "Aland Islands",
    "country_zh": "Aland Islands",
    "country_iso_code": "AX",
    "timezone": "Europe/Mariehamn",
    "latitude": 60.2175,
    "longitude": 19.635
  },
  {
    "city": "Kyrkoby",
    "city_zh": "Kyrkoby",
    "country": "Aland Islands",
    "country_zh": "Aland Islands",
    "country_iso_code": "AX",
    "timezone": "Europe/Mariehamn",
    "latitude": 60.21639,
    "longitude": 19.60528
  },
  {
    "city": "Karlsdal",
    "city_zh": "Karlsdal",
    "country": "Aland Islands",
    "country_zh": "Aland Islands",
    "country_iso_code": "AX",
    "timezone": "Europe/Mariehamn",
    "latitude": 60.17806,
    "longitude": 19.52333
  },
  {
    "city": "Kalsborg",
    "city_zh": "Kalsborg",
    "country": "Aland Islands",
    "country_zh": "Aland Islands",
    "country_iso_code": "AX",
    "timezone": "Europe/Mariehamn",
    "latitude": 60.17389,
    "longitude": 19.53028
  },
  {
    "city": "Brännskär",
    "city_zh": "Brännskär",
    "country": "Aland Islands",
    "country_zh": "Aland Islands",
    "country_iso_code": "AX",
    "timezone": "Europe/Mariehamn",
    "latitude": 60.2425,
    "longitude": 19.53278
  },
  {
    "city": "Hummelvik",
    "city_zh": "Hummelvik",
    "country": "Aland Islands",
    "country_zh": "Aland Islands",
    "country_iso_code": "AX",
    "timezone": "Europe/Mariehamn",
    "latitude": 60.245,
    "longitude": 19.54056
  },
  {
    "city": "Böle",
    "city_zh": "Böle",
    "country": "Aland Islands",
    "country_zh": "Aland Islands",
    "country_iso_code": "AX",
    "timezone": "Europe/Mariehamn",
    "latitude": 60.22833,
    "longitude": 19.595
  },
  {
    "city": "Furulund",
    "city_zh": "Furulund",
    "country": "Aland Islands",
    "country_zh": "Aland Islands",
    "country_iso_code": "AX",
    "timezone": "Europe/Mariehamn",
    "latitude": 60.22944,
    "longitude": 19.77417
  },
  {
    "city": "Laby",
    "city_zh": "Laby",
    "country": "Aland Islands",
    "country_zh": "Aland Islands",
    "country_iso_code": "AX",
    "timezone": "Europe/Mariehamn",
    "latitude": 60.31889,
    "longitude": 19.99667
  },
  {
    "city": "Hjortö",
    "city_zh": "Hjortö",
    "country": "Aland Islands",
    "country_zh": "Aland Islands",
    "country_iso_code": "AX",
    "timezone": "Europe/Mariehamn",
    "latitude": 60.28175,
    "longitude": 19.99014
  },
  {
    "city": "Markusböle",
    "city_zh": "Markusböle",
    "country": "Aland Islands",
    "country_zh": "Aland Islands",
    "country_iso_code": "AX",
    "timezone": "Europe/Mariehamn",
    "latitude": 60.25333,
    "longitude": 19.91611
  },
  {
    "city": "Brantsböle",
    "city_zh": "Brantsböle",
    "country": "Aland Islands",
    "country_zh": "Aland Islands",
    "country_iso_code": "AX",
    "timezone": "Europe/Mariehamn",
    "latitude": 60.27611,
    "longitude": 19.91944
  },
  {
    "city": "Norra Vandö",
    "city_zh": "Norra Vandö",
    "country": "Aland Islands",
    "country_zh": "Aland Islands",
    "country_iso_code": "AX",
    "timezone": "Europe/Mariehamn",
    "latitude": 60.32333,
    "longitude": 19.91222
  },
  {
    "city": "Pantsarnäs",
    "city_zh": "Pantsarnäs",
    "country": "Aland Islands",
    "country_zh": "Aland Islands",
    "country_iso_code": "AX",
    "timezone": "Europe/Mariehamn",
    "latitude": 60.33389,
    "longitude": 19.85194
  },
  {
    "city": "Skarpnåtö",
    "city_zh": "Skarpnåtö",
    "country": "Aland Islands",
    "country_zh": "Aland Islands",
    "country_iso_code": "AX",
    "timezone": "Europe/Mariehamn",
    "latitude": 60.32559,
    "longitude": 19.7541
  },
  {
    "city": "Skag",
    "city_zh": "Skag",
    "country": "Aland Islands",
    "country_zh": "Aland Islands",
    "country_iso_code": "AX",
    "timezone": "Europe/Mariehamn",
    "latitude": 60.29083,
    "longitude": 19.595
  },
  {
    "city": "Öra",
    "city_zh": "Öra",
    "country": "Aland Islands",
    "country_zh": "Aland Islands",
    "country_iso_code": "AX",
    "timezone": "Europe/Mariehamn",
    "latitude": 60.27722,
    "longitude": 19.59056
  },
  {
    "city": "Olofsnäs",
    "city_zh": "Olofsnäs",
    "country": "Aland Islands",
    "country_zh": "Aland Islands",
    "country_iso_code": "AX",
    "timezone": "Europe/Mariehamn",
    "latitude": 60.35528,
    "longitude": 19.83361
  },
  {
    "city": "Pettböle",
    "city_zh": "Pettböle",
    "country": "Aland Islands",
    "country_zh": "Aland Islands",
    "country_iso_code": "AX",
    "timezone": "Europe/Mariehamn",
    "latitude": 60.35611,
    "longitude": 19.98333
  },
  {
    "city": "Västanträsk",
    "city_zh": "Västanträsk",
    "country": "Aland Islands",
    "country_zh": "Aland Islands",
    "country_iso_code": "AX",
    "timezone": "Europe/Mariehamn",
    "latitude": 60.34222,
    "longitude": 19.92889
  },
  {
    "city": "Gräggnäs",
    "city_zh": "Gräggnäs",
    "country": "Aland Islands",
    "country_zh": "Aland Islands",
    "country_iso_code": "AX",
    "timezone": "Europe/Mariehamn",
    "latitude": 60.35194,
    "longitude": 19.84861
  },
  {
    "city": "Klemetsby",
    "city_zh": "Klemetsby",
    "country": "Aland Islands",
    "country_zh": "Aland Islands",
    "country_iso_code": "AX",
    "timezone": "Europe/Mariehamn",
    "latitude": 60.12203,
    "longitude": 20.26188
  },
  {
    "city": "Långnäs hamn",
    "city_zh": "Långnäs hamn",
    "country": "Aland Islands",
    "country_zh": "Aland Islands",
    "country_iso_code": "AX",
    "timezone": "Europe/Mariehamn",
    "latitude": 60.1169,
    "longitude": 20.29711
  },
  {
    "city": "Apallund",
    "city_zh": "Apallund",
    "country": "Aland Islands",
    "country_zh": "Aland Islands",
    "country_iso_code": "AX",
    "timezone": "Europe/Mariehamn",
    "latitude": 59.99931,
    "longitude": 20.15245
  },
  {
    "city": "Sviby",
    "city_zh": "Sviby",
    "country": "Aland Islands",
    "country_zh": "Aland Islands",
    "country_iso_code": "AX",
    "timezone": "Europe/Mariehamn",
    "latitude": 60.13393,
    "longitude": 19.9173
  },
  {
    "city": "Lemström",
    "city_zh": "Lemström",
    "country": "Aland Islands",
    "country_zh": "Aland Islands",
    "country_iso_code": "AX",
    "timezone": "Europe/Mariehamn",
    "latitude": 60.09676,
    "longitude": 20.01536
  },
  {
    "city": "Hamnsundet",
    "city_zh": "Hamnsundet",
    "country": "Aland Islands",
    "country_zh": "Aland Islands",
    "country_iso_code": "AX",
    "timezone": "Europe/Mariehamn",
    "latitude": 60.37368,
    "longitude": 20.08482
  },
  {
    "city": "Hullby",
    "city_zh": "Hullby",
    "country": "Aland Islands",
    "country_zh": "Aland Islands",
    "country_iso_code": "AX",
    "timezone": "Europe/Mariehamn",
    "latitude": 60.26082,
    "longitude": 20.07636
  },
  {
    "city": "Gesterby",
    "city_zh": "Gesterby",
    "country": "Aland Islands",
    "country_zh": "Aland Islands",
    "country_iso_code": "AX",
    "timezone": "Europe/Mariehamn",
    "latitude": 60.24826,
    "longitude": 20.08115
  }
]
