[
  {
    "city": "Tahorakui",
    "city_zh": "Tahorakui",
    "country": "New Zealand",
    "country_zh": "紐西蘭",
    "country_iso_code": "NZ",
    "timezone": "Pacific/Auckland",
    "latitude": -38.47896,
    "longitude": 176.27242
  },
  {
    "city": "Bartlett",
    "city_zh": "Bartlett",
    "country": "New Zealand",
    "country_zh": "紐西蘭",
    "country_iso_code": "NZ",
    "timezone": "Pacific/Auckland",
    "latitude": -38.85,
    "longitude": 177.88333
  },
  {
    "city": "Arthur’s Pass",
    "city_zh": "Arthur’s Pass",
    "country": "New Zealand",
    "country_zh": "紐西蘭",
    "country_iso_code": "NZ",
    "timezone": "Pacific/Auckland",
    "latitude": -42.95,
    "longitude": 171.56667
  },
  {
    "city": "Ardmore College",
    "city_zh": "Ardmore College",
    "country": "New Zealand",
    "country_zh": "紐西蘭",
    "country_iso_code": "NZ",
    "timezone": "Pacific/Auckland",
    "latitude": -37.03333,
    "longitude": 175.0
  },
  {
    "city": "Yaldhurst",
    "city_zh": "Yaldhurst",
    "country": "New Zealand",
    "country_zh": "紐西蘭",
    "country_iso_code": "NZ",
    "timezone": "Pacific/Auckland",
    "latitude": -43.51667,
    "longitude": 172.51667
  },
  {
    "city": "Wyndham",
    "city_zh": "Wyndham",
    "country": "New Zealand",
    "country_zh": "紐西蘭",
    "country_iso_code": "NZ",
    "timezone": "Pacific/Auckland",
    "latitude": -46.33333,
    "longitude": 168.85
  },
  {
    "city": "Wylies Crossing",
    "city_zh": "Wylies Crossing",
    "country": "New Zealand",
    "country_zh": "紐西蘭",
    "country_iso_code": "NZ",
    "timezone": "Pacific/Auckland",
    "latitude": -45.85,
    "longitude": 170.31667
  },
  {
    "city": "Wreys Bush",
    "city_zh": "Wreys Bush",
    "country": "New Zealand",
    "country_zh": "紐西蘭",
    "country_iso_code": "NZ",
    "timezone": "Pacific/Auckland",
    "latitude": -46.01667,
    "longitude": 168.1
  },
  {
    "city": "Woolston",
    "city_zh": "Woolston",
    "country": "New Zealand",
    "country_zh": "紐西蘭",
    "country_iso_code": "NZ",
    "timezone": "Pacific/Auckland",
    "latitude": -43.54727,
    "longitude": 172.67744
  },
  {
    "city": "Woodstock",
    "city_zh": "Woodstock",
    "country": "New Zealand",
    "country_zh": "紐西蘭",
    "country_iso_code": "NZ",
    "timezone": "Pacific/Auckland",
    "latitude": -42.76667,
    "longitude": 171.0
  },
  {
    "city": "Woodside",
    "city_zh": "Woodside",
    "country": "New Zealand",
    "country_zh": "紐西蘭",
    "country_iso_code": "NZ",
    "timezone": "Pacific/Auckland",
    "latitude": -45.86667,
    "longitude": 170.18333
  },
  {
    "city": "Woodside",
    "city_zh": "Woodside",
    "country": "New Zealand",
    "country_zh": "紐西蘭",
    "country_iso_code": "NZ",
    "timezone": "Pacific/Auckland",
    "latitude": -41.06667,
    "longitude": 175.4
  },
  {
    "city": "Woodleigh",
    "city_zh": "Woodleigh",
    "country": "New Zealand",
    "country_zh": "紐西蘭",
    "country_iso_code": "NZ",
    "timezone": "Pacific/Auckland",
    "latitude": -37.53134,
    "longitude": 174.90269
  },
  {
    "city": "Woodlands",
    "city_zh": "Woodlands",
    "country": "New Zealand",
    "country_zh": "紐西蘭",
    "country_iso_code": "NZ",
    "timezone": "Pacific/Auckland",
    "latitude": -46.36667,
    "longitude": 168.55
  },
  {
    "city": "Woodhill",
    "city_zh": "Woodhill",
    "country": "New Zealand",
    "country_zh": "紐西蘭",
    "country_iso_code": "NZ",
    "timezone": "Pacific/Auckland",
    "latitude": -36.75,
    "longitude": 174.43333
  },
  {
    "city": "Woodhill",
    "city_zh": "Woodhill",
    "country": "New Zealand",
    "country_zh": "紐西蘭",
    "country_iso_code": "NZ",
    "timezone": "Pacific/Auckland",
    "latitude": -35.73174,
    "longitude": 174.31037
  },
  {
    "city": "Woodend",
    "city_zh": "Woodend",
    "country": "New Zealand",
    "country_zh": "紐西蘭",
    "country_iso_code": "NZ",
    "timezone": "Pacific/Auckland",
    "latitude": -46.46667,
    "longitude": 168.38333
  },
  {
    "city": "Woodend",
    "city_zh": "Woodend",
    "country": "New Zealand",
    "country_zh": "紐西蘭",
    "country_iso_code": "NZ",
    "timezone": "Pacific/Auckland",
    "latitude": -43.31667,
    "longitude": 172.66667
  },
  {
    "city": "Woodcocks",
    "city_zh": "Woodcocks",
    "country": "New Zealand",
    "country_zh": "紐西蘭",
    "country_iso_code": "NZ",
    "timezone": "Pacific/Auckland",
    "latitude": -36.45,
    "longitude": 174.56667
  },
  {
    "city": "Woodbury",
    "city_zh": "Woodbury",
    "country": "New Zealand",
    "country_zh": "紐西蘭",
    "country_iso_code": "NZ",
    "timezone": "Pacific/Auckland",
    "latitude": -44.03333,
    "longitude": 171.2
  },
  {
    "city": "Woodbourne",
    "city_zh": "Woodbourne",
    "country": "New Zealand",
    "country_zh": "紐西蘭",
    "country_iso_code": "NZ",
    "timezone": "Pacific/Auckland",
    "latitude": -41.5,
    "longitude": 173.91667
  },
  {
    "city": "Wiritoa",
    "city_zh": "Wiritoa",
    "country": "New Zealand",
    "country_zh": "紐西蘭",
    "country_iso_code": "NZ",
    "timezone": "Pacific/Auckland",
    "latitude": -39.96667,
    "longitude": 175.1
  },
  {
    "city": "Winslow",
    "city_zh": "Winslow",
    "country": "New Zealand",
    "country_zh": "紐西蘭",
    "country_iso_code": "NZ",
    "timezone": "Pacific/Auckland",
    "latitude": -43.95,
    "longitude": 171.65
  },
  {
    "city": "Winscombe",
    "city_zh": "Winscombe",
    "country": "New Zealand",
    "country_zh": "紐西蘭",
    "country_iso_code": "NZ",
    "timezone": "Pacific/Auckland",
    "latitude": -44.0,
    "longitude": 170.83333
  },
  {
    "city": "Wingatui",
    "city_zh": "Wingatui",
    "country": "New Zealand",
    "country_zh": "紐西蘭",
    "country_iso_code": "NZ",
    "timezone": "Pacific/Auckland",
    "latitude": -45.88333,
    "longitude": 170.38333
  },
  {
    "city": "Windwhistle",
    "city_zh": "Windwhistle",
    "country": "New Zealand",
    "country_zh": "紐西蘭",
    "country_iso_code": "NZ",
    "timezone": "Pacific/Auckland",
    "latitude": -43.5,
    "longitude": 171.68333
  },
  {
    "city": "Windsor",
    "city_zh": "Windsor",
    "country": "New Zealand",
    "country_zh": "紐西蘭",
    "country_iso_code": "NZ",
    "timezone": "Pacific/Auckland",
    "latitude": -45.0,
    "longitude": 170.8
  },
  {
    "city": "Windermere",
    "city_zh": "Windermere",
    "country": "New Zealand",
    "country_zh": "紐西蘭",
    "country_iso_code": "NZ",
    "timezone": "Pacific/Auckland",
    "latitude": -43.98333,
    "longitude": 171.61667
  },
  {
    "city": "Winchmore",
    "city_zh": "Winchmore",
    "country": "New Zealand",
    "country_zh": "紐西蘭",
    "country_iso_code": "NZ",
    "timezone": "Pacific/Auckland",
    "latitude": -43.83333,
    "longitude": 171.71667
  },
  {
    "city": "Winchester",
    "city_zh": "Winchester",
    "country": "New Zealand",
    "country_zh": "紐西蘭",
    "country_iso_code": "NZ",
    "timezone": "Pacific/Auckland",
    "latitude": -44.2,
    "longitude": 171.28333
  },
  {
    "city": "Wimbledon",
    "city_zh": "Wimbledon",
    "country": "New Zealand",
    "country_zh": "紐西蘭",
    "country_iso_code": "NZ",
    "timezone": "Pacific/Auckland",
    "latitude": -40.44104,
    "longitude": 176.50759
  },
  {
    "city": "Willowby",
    "city_zh": "Willowby",
    "country": "New Zealand",
    "country_zh": "紐西蘭",
    "country_iso_code": "NZ",
    "timezone": "Pacific/Auckland",
    "latitude": -43.98333,
    "longitude": 171.68333
  },
  {
    "city": "Willowbridge",
    "city_zh": "Willowbridge",
    "country": "New Zealand",
    "country_zh": "紐西蘭",
    "country_iso_code": "NZ",
    "timezone": "Pacific/Auckland",
    "latitude": -44.78333,
    "longitude": 171.11667
  },
  {
    "city": "Wigram",
    "city_zh": "Wigram",
    "country": "New Zealand",
    "country_zh": "紐西蘭",
    "country_iso_code": "NZ",
    "timezone": "Pacific/Auckland",
    "latitude": -43.55,
    "longitude": 172.55
  },
  {
    "city": "Whitstone",
    "city_zh": "Whitstone",
    "country": "New Zealand",
    "country_zh": "紐西蘭",
    "country_iso_code": "NZ",
    "timezone": "Pacific/Auckland",
    "latitude": -45.06667,
    "longitude": 170.88333
  },
  {
    "city": "Whitianga",
    "city_zh": "Whitianga",
    "country": "New Zealand",
    "country_zh": "紐西蘭",
    "country_iso_code": "NZ",
    "timezone": "Pacific/Auckland",
    "latitude": -36.83333,
    "longitude": 175.7
  },
  {
    "city": "Whitford",
    "city_zh": "Whitford",
    "country": "New Zealand",
    "country_zh": "紐西蘭",
    "country_iso_code": "NZ",
    "timezone": "Pacific/Auckland",
    "latitude": -36.93333,
    "longitude": 174.96667
  },
  {
    "city": "Whitehall",
    "city_zh": "Whitehall",
    "country": "New Zealand",
    "country_zh": "紐西蘭",
    "country_iso_code": "NZ",
    "timezone": "Pacific/Auckland",
    "latitude": -37.88333,
    "longitude": 175.56667
  },
  {
    "city": "Whitecliffs",
    "city_zh": "Whitecliffs",
    "country": "New Zealand",
    "country_zh": "紐西蘭",
    "country_iso_code": "NZ",
    "timezone": "Pacific/Auckland",
    "latitude": -43.46667,
    "longitude": 171.9
  },
  {
    "city": "Whirinaki",
    "city_zh": "Whirinaki",
    "country": "New Zealand",
    "country_zh": "紐西蘭",
    "country_iso_code": "NZ",
    "timezone": "Pacific/Auckland",
    "latitude": -35.48333,
    "longitude": 173.46667
  },
  {
    "city": "Whenuatonga",
    "city_zh": "Whenuatonga",
    "country": "New Zealand",
    "country_zh": "紐西蘭",
    "country_iso_code": "NZ",
    "timezone": "Pacific/Auckland",
    "latitude": -45.71667,
    "longitude": 168.65
  },
  {
    "city": "Whenuapai",
    "city_zh": "Whenuapai",
    "country": "New Zealand",
    "country_zh": "紐西蘭",
    "country_iso_code": "NZ",
    "timezone": "Pacific/Auckland",
    "latitude": -36.76667,
    "longitude": 174.65
  },
  {
    "city": "Whenuakoa",
    "city_zh": "Whenuakoa",
    "country": "New Zealand",
    "country_zh": "紐西蘭",
    "country_iso_code": "NZ",
    "timezone": "Pacific/Auckland",
    "latitude": -45.95,
    "longitude": 169.63333
  },
  {
    "city": "Whenuakite",
    "city_zh": "Whenuakite",
    "country": "New Zealand",
    "country_zh": "紐西蘭",
    "country_iso_code": "NZ",
    "timezone": "Pacific/Auckland",
    "latitude": -36.9,
    "longitude": 175.76667
  },
  {
    "city": "Wheatstone",
    "city_zh": "Wheatstone",
    "country": "New Zealand",
    "country_zh": "紐西蘭",
    "country_iso_code": "NZ",
    "timezone": "Pacific/Auckland",
    "latitude": -44.01667,
    "longitude": 171.75
  },
  {
    "city": "Whatoro",
    "city_zh": "Whatoro",
    "country": "New Zealand",
    "country_zh": "紐西蘭",
    "country_iso_code": "NZ",
    "timezone": "Pacific/Auckland",
    "latitude": -35.75,
    "longitude": 173.68333
  },
  {
    "city": "Whatawhata",
    "city_zh": "Whatawhata",
    "country": "New Zealand",
    "country_zh": "紐西蘭",
    "country_iso_code": "NZ",
    "timezone": "Pacific/Auckland",
    "latitude": -37.8,
    "longitude": 175.15
  },
  {
    "city": "Whatatutu",
    "city_zh": "Whatatutu",
    "country": "New Zealand",
    "country_zh": "紐西蘭",
    "country_iso_code": "NZ",
    "timezone": "Pacific/Auckland",
    "latitude": -38.38333,
    "longitude": 177.83333
  },
  {
    "city": "Whataroa",
    "city_zh": "Whataroa",
    "country": "New Zealand",
    "country_zh": "紐西蘭",
    "country_iso_code": "NZ",
    "timezone": "Pacific/Auckland",
    "latitude": -43.28333,
    "longitude": 170.41667
  },
  {
    "city": "Whatanihi",
    "city_zh": "Whatanihi",
    "country": "New Zealand",
    "country_zh": "紐西蘭",
    "country_iso_code": "NZ",
    "timezone": "Pacific/Auckland",
    "latitude": -41.23333,
    "longitude": 173.85
  },
  {
    "city": "Wharua",
    "city_zh": "Wharua",
    "country": "New Zealand",
    "country_zh": "紐西蘭",
    "country_iso_code": "NZ",
    "timezone": "Pacific/Auckland",
    "latitude": -44.7,
    "longitude": 170.51667
  },
  {
    "city": "Whareroa",
    "city_zh": "Whareroa",
    "country": "New Zealand",
    "country_zh": "紐西蘭",
    "country_iso_code": "NZ",
    "timezone": "Pacific/Auckland",
    "latitude": -39.61667,
    "longitude": 174.26667
  },
  {
    "city": "Wharepuhunga",
    "city_zh": "Wharepuhunga",
    "country": "New Zealand",
    "country_zh": "紐西蘭",
    "country_iso_code": "NZ",
    "timezone": "Pacific/Auckland",
    "latitude": -38.13333,
    "longitude": 175.45
  },
  {
    "city": "Whareponga",
    "city_zh": "Whareponga",
    "country": "New Zealand",
    "country_zh": "紐西蘭",
    "country_iso_code": "NZ",
    "timezone": "Pacific/Auckland",
    "latitude": -37.96667,
    "longitude": 178.36667
  },
  {
    "city": "Wharepoa",
    "city_zh": "Wharepoa",
    "country": "New Zealand",
    "country_zh": "紐西蘭",
    "country_iso_code": "NZ",
    "timezone": "Pacific/Auckland",
    "latitude": -37.26667,
    "longitude": 175.63333
  },
  {
    "city": "Wharepapa",
    "city_zh": "Wharepapa",
    "country": "New Zealand",
    "country_zh": "紐西蘭",
    "country_iso_code": "NZ",
    "timezone": "Pacific/Auckland",
    "latitude": -36.71667,
    "longitude": 174.43333
  },
  {
    "city": "Wharepaina",
    "city_zh": "Wharepaina",
    "country": "New Zealand",
    "country_zh": "紐西蘭",
    "country_iso_code": "NZ",
    "timezone": "Pacific/Auckland",
    "latitude": -38.4,
    "longitude": 176.33333
  },
  {
    "city": "Whareorino",
    "city_zh": "Whareorino",
    "country": "New Zealand",
    "country_zh": "紐西蘭",
    "country_iso_code": "NZ",
    "timezone": "Pacific/Auckland",
    "latitude": -38.46667,
    "longitude": 174.66667
  },
  {
    "city": "Wharekuri",
    "city_zh": "Wharekuri",
    "country": "New Zealand",
    "country_zh": "紐西蘭",
    "country_iso_code": "NZ",
    "timezone": "Pacific/Auckland",
    "latitude": -44.69971,
    "longitude": 170.43514
  },
  {
    "city": "Wharekopae",
    "city_zh": "Wharekopae",
    "country": "New Zealand",
    "country_zh": "紐西蘭",
    "country_iso_code": "NZ",
    "timezone": "Pacific/Auckland",
    "latitude": -38.55,
    "longitude": 177.5
  },
  {
    "city": "Wharehuia",
    "city_zh": "Wharehuia",
    "country": "New Zealand",
    "country_zh": "紐西蘭",
    "country_iso_code": "NZ",
    "timezone": "Pacific/Auckland",
    "latitude": -39.3,
    "longitude": 174.33333
  },
  {
    "city": "Wharehuanui",
    "city_zh": "Wharehuanui",
    "country": "New Zealand",
    "country_zh": "紐西蘭",
    "country_iso_code": "NZ",
    "timezone": "Pacific/Auckland",
    "latitude": -44.95,
    "longitude": 168.76667
  },
  {
    "city": "Wharehine",
    "city_zh": "Wharehine",
    "country": "New Zealand",
    "country_zh": "紐西蘭",
    "country_iso_code": "NZ",
    "timezone": "Pacific/Auckland",
    "latitude": -36.31667,
    "longitude": 174.41667
  },
  {
    "city": "Whareama",
    "city_zh": "Whareama",
    "country": "New Zealand",
    "country_zh": "紐西蘭",
    "country_iso_code": "NZ",
    "timezone": "Pacific/Auckland",
    "latitude": -40.93333,
    "longitude": 176.05
  },
  {
    "city": "Wharanui",
    "city_zh": "Wharanui",
    "country": "New Zealand",
    "country_zh": "紐西蘭",
    "country_iso_code": "NZ",
    "timezone": "Pacific/Auckland",
    "latitude": -41.91667,
    "longitude": 174.1
  },
  {
    "city": "Whangateau",
    "city_zh": "Whangateau",
    "country": "New Zealand",
    "country_zh": "紐西蘭",
    "country_iso_code": "NZ",
    "timezone": "Pacific/Auckland",
    "latitude": -36.3,
    "longitude": 174.76667
  },
  {
    "city": "Whangaruru South",
    "city_zh": "Whangaruru South",
    "country": "New Zealand",
    "country_zh": "紐西蘭",
    "country_iso_code": "NZ",
    "timezone": "Pacific/Auckland",
    "latitude": -35.38333,
    "longitude": 174.35
  },
  {
    "city": "Whangaruru North",
    "city_zh": "Whangaruru North",
    "country": "New Zealand",
    "country_zh": "紐西蘭",
    "country_iso_code": "NZ",
    "timezone": "Pacific/Auckland",
    "latitude": -35.35,
    "longitude": 174.35
  },
  {
    "city": "Whangaroa",
    "city_zh": "Whangaroa",
    "country": "New Zealand",
    "country_zh": "紐西蘭",
    "country_iso_code": "NZ",
    "timezone": "Pacific/Auckland",
    "latitude": -35.05,
    "longitude": 173.75
  },
  {
    "city": "Whangarei Heads",
    "city_zh": "Whangarei Heads",
    "country": "New Zealand",
    "country_zh": "紐西蘭",
    "country_iso_code": "NZ",
    "timezone": "Pacific/Auckland",
    "latitude": -35.81667,
    "longitude": 174.5
  },
  {
    "city": "Whangarata",
    "city_zh": "Whangarata",
    "country": "New Zealand",
    "country_zh": "紐西蘭",
    "country_iso_code": "NZ",
    "timezone": "Pacific/Auckland",
    "latitude": -37.25954,
    "longitude": 174.99345
  },
  {
    "city": "Whangara",
    "city_zh": "Whangara",
    "country": "New Zealand",
    "country_zh": "紐西蘭",
    "country_iso_code": "NZ",
    "timezone": "Pacific/Auckland",
    "latitude": -38.56667,
    "longitude": 178.21667
  },
  {
    "city": "Whangapoua",
    "city_zh": "Whangapoua",
    "country": "New Zealand",
    "country_zh": "紐西蘭",
    "country_iso_code": "NZ",
    "timezone": "Pacific/Auckland",
    "latitude": -36.71667,
    "longitude": 175.61667
  },
  {
    "city": "Whangape",
    "city_zh": "Whangape",
    "country": "New Zealand",
    "country_zh": "紐西蘭",
    "country_iso_code": "NZ",
    "timezone": "Pacific/Auckland",
    "latitude": -35.33702,
    "longitude": 173.22233
  },
  {
    "city": "Whangaparaoa",
    "city_zh": "Whangaparaoa",
    "country": "New Zealand",
    "country_zh": "紐西蘭",
    "country_iso_code": "NZ",
    "timezone": "Pacific/Auckland",
    "latitude": -36.63333,
    "longitude": 174.76667
  },
  {
    "city": "Whangapara",
    "city_zh": "Whangapara",
    "country": "New Zealand",
    "country_zh": "紐西蘭",
    "country_iso_code": "NZ",
    "timezone": "Pacific/Auckland",
    "latitude": -36.23333,
    "longitude": 175.4
  },
  {
    "city": "Whangamumu",
    "city_zh": "Whangamumu",
    "country": "New Zealand",
    "country_zh": "紐西蘭",
    "country_iso_code": "NZ",
    "timezone": "Pacific/Auckland",
    "latitude": -35.2513,
    "longitude": 174.28891
  },
  {
    "city": "Whangamomona",
    "city_zh": "Whangamomona",
    "country": "New Zealand",
    "country_zh": "紐西蘭",
    "country_iso_code": "NZ",
    "timezone": "Pacific/Auckland",
    "latitude": -39.14456,
    "longitude": 174.73532
  },
  {
    "city": "Whangamata",
    "city_zh": "Whangamata",
    "country": "New Zealand",
    "country_zh": "紐西蘭",
    "country_iso_code": "NZ",
    "timezone": "Pacific/Auckland",
    "latitude": -37.2,
    "longitude": 175.86667
  },
  {
    "city": "Whangamarino",
    "city_zh": "Whangamarino",
    "country": "New Zealand",
    "country_zh": "紐西蘭",
    "country_iso_code": "NZ",
    "timezone": "Pacific/Auckland",
    "latitude": -37.34914,
    "longitude": 175.11349
  },
  {
    "city": "Whangakoko",
    "city_zh": "Whangakoko",
    "country": "New Zealand",
    "country_zh": "紐西蘭",
    "country_iso_code": "NZ",
    "timezone": "Pacific/Auckland",
    "latitude": -41.28333,
    "longitude": 174.16667
  },
  {
    "city": "Whangaehu",
    "city_zh": "Whangaehu",
    "country": "New Zealand",
    "country_zh": "紐西蘭",
    "country_iso_code": "NZ",
    "timezone": "Pacific/Auckland",
    "latitude": -40.00747,
    "longitude": 175.16876
  },
  {
    "city": "Whananaki South",
    "city_zh": "Whananaki South",
    "country": "New Zealand",
    "country_zh": "紐西蘭",
    "country_iso_code": "NZ",
    "timezone": "Pacific/Auckland",
    "latitude": -35.51667,
    "longitude": 174.45
  },
  {
    "city": "Whananaki",
    "city_zh": "Whananaki",
    "country": "New Zealand",
    "country_zh": "紐西蘭",
    "country_iso_code": "NZ",
    "timezone": "Pacific/Auckland",
    "latitude": -35.5,
    "longitude": 174.45
  },
  {
    "city": "Whakatu",
    "city_zh": "Whakatu",
    "country": "New Zealand",
    "country_zh": "紐西蘭",
    "country_iso_code": "NZ",
    "timezone": "Pacific/Auckland",
    "latitude": -39.6,
    "longitude": 176.88333
  },
  {
    "city": "Whakatiri",
    "city_zh": "Whakatiri",
    "country": "New Zealand",
    "country_zh": "紐西蘭",
    "country_iso_code": "NZ",
    "timezone": "Pacific/Auckland",
    "latitude": -36.95,
    "longitude": 175.11667
  },
  {
    "city": "Whakatahuri",
    "city_zh": "Whakatahuri",
    "country": "New Zealand",
    "country_zh": "紐西蘭",
    "country_iso_code": "NZ",
    "timezone": "Pacific/Auckland",
    "latitude": -41.01667,
    "longitude": 174.03333
  },
  {
    "city": "Whakarongo",
    "city_zh": "Whakarongo",
    "country": "New Zealand",
    "country_zh": "紐西蘭",
    "country_iso_code": "NZ",
    "timezone": "Pacific/Auckland",
    "latitude": -40.33333,
    "longitude": 175.66667
  },
  {
    "city": "Whakapirau",
    "city_zh": "Whakapirau",
    "country": "New Zealand",
    "country_zh": "紐西蘭",
    "country_iso_code": "NZ",
    "timezone": "Pacific/Auckland",
    "latitude": -36.15,
    "longitude": 174.25
  },
  {
    "city": "Whakapara",
    "city_zh": "Whakapara",
    "country": "New Zealand",
    "country_zh": "紐西蘭",
    "country_iso_code": "NZ",
    "timezone": "Pacific/Auckland",
    "latitude": -35.53333,
    "longitude": 174.28333
  },
  {
    "city": "Whakamarama",
    "city_zh": "Whakamarama",
    "country": "New Zealand",
    "country_zh": "紐西蘭",
    "country_iso_code": "NZ",
    "timezone": "Pacific/Auckland",
    "latitude": -37.73333,
    "longitude": 176.0
  },
  {
    "city": "Whakamara",
    "city_zh": "Whakamara",
    "country": "New Zealand",
    "country_zh": "紐西蘭",
    "country_iso_code": "NZ",
    "timezone": "Pacific/Auckland",
    "latitude": -39.63333,
    "longitude": 174.43333
  },
  {
    "city": "Whakaki",
    "city_zh": "Whakaki",
    "country": "New Zealand",
    "country_zh": "紐西蘭",
    "country_iso_code": "NZ",
    "timezone": "Pacific/Auckland",
    "latitude": -39.03333,
    "longitude": 177.6
  },
  {
    "city": "Whakaihuwaka",
    "city_zh": "Whakaihuwaka",
    "country": "New Zealand",
    "country_zh": "紐西蘭",
    "country_iso_code": "NZ",
    "timezone": "Pacific/Auckland",
    "latitude": -39.76667,
    "longitude": 175.15
  },
  {
    "city": "Whakahoro",
    "city_zh": "Whakahoro",
    "country": "New Zealand",
    "country_zh": "紐西蘭",
    "country_iso_code": "NZ",
    "timezone": "Pacific/Auckland",
    "latitude": -39.1,
    "longitude": 175.06667
  },
  {
    "city": "Whakaangiangi",
    "city_zh": "Whakaangiangi",
    "country": "New Zealand",
    "country_zh": "紐西蘭",
    "country_iso_code": "NZ",
    "timezone": "Pacific/Auckland",
    "latitude": -37.71667,
    "longitude": 178.3
  },
  {
    "city": "Weymouth",
    "city_zh": "Weymouth",
    "country": "New Zealand",
    "country_zh": "紐西蘭",
    "country_iso_code": "NZ",
    "timezone": "Pacific/Auckland",
    "latitude": -37.04207,
    "longitude": 174.86508
  },
  {
    "city": "Wetheral",
    "city_zh": "Wetheral",
    "country": "New Zealand",
    "country_zh": "紐西蘭",
    "country_iso_code": "NZ",
    "timezone": "Pacific/Auckland",
    "latitude": -43.36667,
    "longitude": 172.58333
  },
  {
    "city": "Westshore",
    "city_zh": "Westshore",
    "country": "New Zealand",
    "country_zh": "紐西蘭",
    "country_iso_code": "NZ",
    "timezone": "Pacific/Auckland",
    "latitude": -39.47688,
    "longitude": 176.88151
  },
  {
    "city": "West Plains",
    "city_zh": "West Plains",
    "country": "New Zealand",
    "country_zh": "紐西蘭",
    "country_iso_code": "NZ",
    "timezone": "Pacific/Auckland",
    "latitude": -46.36667,
    "longitude": 168.31667
  },
  {
    "city": "Weston",
    "city_zh": "Weston",
    "country": "New Zealand",
    "country_zh": "紐西蘭",
    "country_iso_code": "NZ",
    "timezone": "Pacific/Auckland",
    "latitude": -45.08333,
    "longitude": 170.91667
  },
  {
    "city": "Westmere",
    "city_zh": "Westmere",
    "country": "New Zealand",
    "country_zh": "紐西蘭",
    "country_iso_code": "NZ",
    "timezone": "Pacific/Auckland",
    "latitude": -39.9,
    "longitude": 175.0
  },
  {
    "city": "West Melton",
    "city_zh": "West Melton",
    "country": "New Zealand",
    "country_zh": "紐西蘭",
    "country_iso_code": "NZ",
    "timezone": "Pacific/Auckland",
    "latitude": -43.51667,
    "longitude": 172.36667
  },
  {
    "city": "West Kyle",
    "city_zh": "West Kyle",
    "country": "New Zealand",
    "country_zh": "紐西蘭",
    "country_iso_code": "NZ",
    "timezone": "Pacific/Auckland",
    "latitude": -43.93333,
    "longitude": 172.06667
  },
  {
    "city": "Westfield",
    "city_zh": "Westfield",
    "country": "New Zealand",
    "country_zh": "紐西蘭",
    "country_iso_code": "NZ",
    "timezone": "Pacific/Auckland",
    "latitude": -36.95,
    "longitude": 174.85
  },
  {
    "city": "West Eyreton",
    "city_zh": "West Eyreton",
    "country": "New Zealand",
    "country_zh": "紐西蘭",
    "country_iso_code": "NZ",
    "timezone": "Pacific/Auckland",
    "latitude": -43.35,
    "longitude": 172.38333
  },
  {
    "city": "Western Springs",
    "city_zh": "Western Springs",
    "country": "New Zealand",
    "country_zh": "紐西蘭",
    "country_iso_code": "NZ",
    "timezone": "Pacific/Auckland",
    "latitude": -36.86667,
    "longitude": 174.73333
  },
  {
    "city": "Westerfield",
    "city_zh": "Westerfield",
    "country": "New Zealand",
    "country_zh": "紐西蘭",
    "country_iso_code": "NZ",
    "timezone": "Pacific/Auckland",
    "latitude": -43.83333,
    "longitude": 171.61667
  },
  {
    "city": "Wendon Valley",
    "city_zh": "Wendon Valley",
    "country": "New Zealand",
    "country_zh": "紐西蘭",
    "country_iso_code": "NZ",
    "timezone": "Pacific/Auckland",
    "latitude": -45.88333,
    "longitude": 168.96667
  },
  {
    "city": "Wendonside",
    "city_zh": "Wendonside",
    "country": "New Zealand",
    "country_zh": "紐西蘭",
    "country_iso_code": "NZ",
    "timezone": "Pacific/Auckland",
    "latitude": -45.75,
    "longitude": 168.73333
  },
  {
    "city": "Wendon",
    "city_zh": "Wendon",
    "country": "New Zealand",
    "country_zh": "紐西蘭",
    "country_iso_code": "NZ",
    "timezone": "Pacific/Auckland",
    "latitude": -45.88333,
    "longitude": 168.81667
  },
  {
    "city": "Wellsford",
    "city_zh": "Wellsford",
    "country": "New Zealand",
    "country_zh": "紐西蘭",
    "country_iso_code": "NZ",
    "timezone": "Pacific/Auckland",
    "latitude": -36.28333,
    "longitude": 174.51667
  },
  {
    "city": "Wellington",
    "city_zh": "惠灵顿",
    "country": "New Zealand",
    "country_zh": "紐西蘭",
    "country_iso_code": "NZ",
    "timezone": "Pacific/Auckland",
    "latitude": -41.28664,
    "longitude": 174.77557
  },
  {
    "city": "Welds Hill",
    "city_zh": "Welds Hill",
    "country": "New Zealand",
    "country_zh": "紐西蘭",
    "country_iso_code": "NZ",
    "timezone": "Pacific/Auckland",
    "latitude": -41.78333,
    "longitude": 173.85
  },
  {
    "city": "Wekaweka",
    "city_zh": "Wekaweka",
    "country": "New Zealand",
    "country_zh": "紐西蘭",
    "country_iso_code": "NZ",
    "timezone": "Pacific/Auckland",
    "latitude": -35.56667,
    "longitude": 173.55
  },
  {
    "city": "Wehenga",
    "city_zh": "Wehenga",
    "country": "New Zealand",
    "country_zh": "紐西蘭",
    "country_iso_code": "NZ",
    "timezone": "Pacific/Auckland",
    "latitude": -45.73333,
    "longitude": 170.18333
  },
  {
    "city": "Fox Glacier",
    "city_zh": "Fox Glacier",
    "country": "New Zealand",
    "country_zh": "紐西蘭",
    "country_iso_code": "NZ",
    "timezone": "Pacific/Auckland",
    "latitude": -43.46485,
    "longitude": 170.01678
  },
  {
    "city": "Weedons",
    "city_zh": "Weedons",
    "country": "New Zealand",
    "country_zh": "紐西蘭",
    "country_iso_code": "NZ",
    "timezone": "Pacific/Auckland",
    "latitude": -43.58333,
    "longitude": 172.4
  },
  {
    "city": "Wedderburn",
    "city_zh": "Wedderburn",
    "country": "New Zealand",
    "country_zh": "紐西蘭",
    "country_iso_code": "NZ",
    "timezone": "Pacific/Auckland",
    "latitude": -45.03333,
    "longitude": 170.01667
  },
  {
    "city": "Weber",
    "city_zh": "Weber",
    "country": "New Zealand",
    "country_zh": "紐西蘭",
    "country_iso_code": "NZ",
    "timezone": "Pacific/Auckland",
    "latitude": -40.40157,
    "longitude": 176.31117
  },
  {
    "city": "Wayby",
    "city_zh": "Wayby",
    "country": "New Zealand",
    "country_zh": "紐西蘭",
    "country_iso_code": "NZ",
    "timezone": "Pacific/Auckland",
    "latitude": -36.33333,
    "longitude": 174.56667
  },
  {
    "city": "Waverley",
    "city_zh": "Waverley",
    "country": "New Zealand",
    "country_zh": "紐西蘭",
    "country_iso_code": "NZ",
    "timezone": "Pacific/Auckland",
    "latitude": -39.76667,
    "longitude": 174.63333
  },
  {
    "city": "Waterton",
    "city_zh": "Waterton",
    "country": "New Zealand",
    "country_zh": "紐西蘭",
    "country_iso_code": "NZ",
    "timezone": "Pacific/Auckland",
    "latitude": -44.06667,
    "longitude": 171.75
  },
  {
    "city": "Washdyke",
    "city_zh": "Washdyke",
    "country": "New Zealand",
    "country_zh": "紐西蘭",
    "country_iso_code": "NZ",
    "timezone": "Pacific/Auckland",
    "latitude": -44.35,
    "longitude": 171.23333
  },
  {
    "city": "Warwick Junction",
    "city_zh": "Warwick Junction",
    "country": "New Zealand",
    "country_zh": "紐西蘭",
    "country_iso_code": "NZ",
    "timezone": "Pacific/Auckland",
    "latitude": -42.13333,
    "longitude": 172.23333
  },
  {
    "city": "Warrington",
    "city_zh": "Warrington",
    "country": "New Zealand",
    "country_zh": "紐西蘭",
    "country_iso_code": "NZ",
    "timezone": "Pacific/Auckland",
    "latitude": -45.71667,
    "longitude": 170.58333
  },
  {
    "city": "Waro",
    "city_zh": "Waro",
    "country": "New Zealand",
    "country_zh": "紐西蘭",
    "country_iso_code": "NZ",
    "timezone": "Pacific/Auckland",
    "latitude": -35.58333,
    "longitude": 174.3
  },
  {
    "city": "Warkworth",
    "city_zh": "Warkworth",
    "country": "New Zealand",
    "country_zh": "紐西蘭",
    "country_iso_code": "NZ",
    "timezone": "Pacific/Auckland",
    "latitude": -36.4,
    "longitude": 174.66667
  },
  {
    "city": "Warepa",
    "city_zh": "Warepa",
    "country": "New Zealand",
    "country_zh": "紐西蘭",
    "country_iso_code": "NZ",
    "timezone": "Pacific/Auckland",
    "latitude": -46.25,
    "longitude": 169.58333
  },
  {
    "city": "Warea",
    "city_zh": "Warea",
    "country": "New Zealand",
    "country_zh": "紐西蘭",
    "country_iso_code": "NZ",
    "timezone": "Pacific/Auckland",
    "latitude": -39.23333,
    "longitude": 173.81667
  },
  {
    "city": "Ward",
    "city_zh": "Ward",
    "country": "New Zealand",
    "country_zh": "紐西蘭",
    "country_iso_code": "NZ",
    "timezone": "Pacific/Auckland",
    "latitude": -41.83333,
    "longitude": 174.13333
  },
  {
    "city": "Wanstead",
    "city_zh": "Wanstead",
    "country": "New Zealand",
    "country_zh": "紐西蘭",
    "country_iso_code": "NZ",
    "timezone": "Pacific/Auckland",
    "latitude": -40.13333,
    "longitude": 176.53333
  },
  {
    "city": "Wangapeka Valley",
    "city_zh": "Wangapeka Valley",
    "country": "New Zealand",
    "country_zh": "紐西蘭",
    "country_iso_code": "NZ",
    "timezone": "Pacific/Auckland",
    "latitude": -41.35,
    "longitude": 172.11667
  },
  {
    "city": "Wangapeka",
    "city_zh": "Wangapeka",
    "country": "New Zealand",
    "country_zh": "紐西蘭",
    "country_iso_code": "NZ",
    "timezone": "Pacific/Auckland",
    "latitude": -41.41667,
    "longitude": 172.65
  },
  {
    "city": "Whanganui",
    "city_zh": "旺阿努伊",
    "country": "New Zealand",
    "country_zh": "紐西蘭",
    "country_iso_code": "NZ",
    "timezone": "Pacific/Auckland",
    "latitude": -39.93333,
    "longitude": 175.05
  },
  {
    "city": "Wangaloa",
    "city_zh": "Wangaloa",
    "country": "New Zealand",
    "country_zh": "紐西蘭",
    "country_iso_code": "NZ",
    "timezone": "Pacific/Auckland",
    "latitude": -46.28333,
    "longitude": 169.91667
  },
  {
    "city": "Walton",
    "city_zh": "Walton",
    "country": "New Zealand",
    "country_zh": "紐西蘭",
    "country_iso_code": "NZ",
    "timezone": "Pacific/Auckland",
    "latitude": -37.73333,
    "longitude": 175.68333
  },
  {
    "city": "Wallsend",
    "city_zh": "Wallsend",
    "country": "New Zealand",
    "country_zh": "紐西蘭",
    "country_iso_code": "NZ",
    "timezone": "Pacific/Auckland",
    "latitude": -42.46667,
    "longitude": 171.3
  },
  {
    "city": "Wallingford",
    "city_zh": "Wallingford",
    "country": "New Zealand",
    "country_zh": "紐西蘭",
    "country_iso_code": "NZ",
    "timezone": "Pacific/Auckland",
    "latitude": -40.21667,
    "longitude": 176.6
  },
  {
    "city": "Wallaceville",
    "city_zh": "Wallaceville",
    "country": "New Zealand",
    "country_zh": "紐西蘭",
    "country_iso_code": "NZ",
    "timezone": "Pacific/Auckland",
    "latitude": -41.13333,
    "longitude": 175.05
  },
  {
    "city": "Wallacetown",
    "city_zh": "Wallacetown",
    "country": "New Zealand",
    "country_zh": "紐西蘭",
    "country_iso_code": "NZ",
    "timezone": "Pacific/Auckland",
    "latitude": -46.33333,
    "longitude": 168.28333
  },
  {
    "city": "Wakefield",
    "city_zh": "Wakefield",
    "country": "New Zealand",
    "country_zh": "紐西蘭",
    "country_iso_code": "NZ",
    "timezone": "Pacific/Auckland",
    "latitude": -41.4,
    "longitude": 173.05
  },
  {
    "city": "Wakarara",
    "city_zh": "Wakarara",
    "country": "New Zealand",
    "country_zh": "紐西蘭",
    "country_iso_code": "NZ",
    "timezone": "Pacific/Auckland",
    "latitude": -39.78333,
    "longitude": 176.26667
  },
  {
    "city": "Wakapuaka",
    "city_zh": "Wakapuaka",
    "country": "New Zealand",
    "country_zh": "紐西蘭",
    "country_iso_code": "NZ",
    "timezone": "Pacific/Auckland",
    "latitude": -41.20639,
    "longitude": 173.3575
  },
  {
    "city": "Wakapatu",
    "city_zh": "Wakapatu",
    "country": "New Zealand",
    "country_zh": "紐西蘭",
    "country_iso_code": "NZ",
    "timezone": "Pacific/Auckland",
    "latitude": -46.36667,
    "longitude": 167.8
  },
  {
    "city": "Wakanui",
    "city_zh": "Wakanui",
    "country": "New Zealand",
    "country_zh": "紐西蘭",
    "country_iso_code": "NZ",
    "timezone": "Pacific/Auckland",
    "latitude": -43.96667,
    "longitude": 171.81667
  },
  {
    "city": "Waiwhiu",
    "city_zh": "Waiwhiu",
    "country": "New Zealand",
    "country_zh": "紐西蘭",
    "country_iso_code": "NZ",
    "timezone": "Pacific/Auckland",
    "latitude": -36.36667,
    "longitude": 174.6
  },
  {
    "city": "Waiwera South",
    "city_zh": "Waiwera South",
    "country": "New Zealand",
    "country_zh": "紐西蘭",
    "country_iso_code": "NZ",
    "timezone": "Pacific/Auckland",
    "latitude": -46.21667,
    "longitude": 169.5
  },
  {
    "city": "Waiwera",
    "city_zh": "Waiwera",
    "country": "New Zealand",
    "country_zh": "紐西蘭",
    "country_iso_code": "NZ",
    "timezone": "Pacific/Auckland",
    "latitude": -36.55,
    "longitude": 174.71667
  },
  {
    "city": "Waiuta",
    "city_zh": "Waiuta",
    "country": "New Zealand",
    "country_zh": "紐西蘭",
    "country_iso_code": "NZ",
    "timezone": "Pacific/Auckland",
    "latitude": -42.3,
    "longitude": 171.81667
  },
  {
    "city": "Waiuku",
    "city_zh": "Waiuku",
    "country": "New Zealand",
    "country_zh": "紐西蘭",
    "country_iso_code": "NZ",
    "timezone": "Pacific/Auckland",
    "latitude": -37.24806,
    "longitude": 174.73489
  },
  {
    "city": "Waituna West",
    "city_zh": "Waituna West",
    "country": "New Zealand",
    "country_zh": "紐西蘭",
    "country_iso_code": "NZ",
    "timezone": "Pacific/Auckland",
    "latitude": -40.05,
    "longitude": 175.61667
  },
  {
    "city": "Waituna",
    "city_zh": "Waituna",
    "country": "New Zealand",
    "country_zh": "紐西蘭",
    "country_iso_code": "NZ",
    "timezone": "Pacific/Auckland",
    "latitude": -46.41667,
    "longitude": 168.63333
  },
  {
    "city": "Waitotara",
    "city_zh": "Waitotara",
    "country": "New Zealand",
    "country_zh": "紐西蘭",
    "country_iso_code": "NZ",
    "timezone": "Pacific/Auckland",
    "latitude": -39.8,
    "longitude": 174.73333
  },
  {
    "city": "Waitomo Caves",
    "city_zh": "Waitomo Caves",
    "country": "New Zealand",
    "country_zh": "紐西蘭",
    "country_iso_code": "NZ",
    "timezone": "Pacific/Auckland",
    "latitude": -38.26667,
    "longitude": 175.1
  },
  {
    "city": "Waitoitoi",
    "city_zh": "Waitoitoi",
    "country": "New Zealand",
    "country_zh": "紐西蘭",
    "country_iso_code": "NZ",
    "timezone": "Pacific/Auckland",
    "latitude": -38.98333,
    "longitude": 174.43333
  },
  {
    "city": "Waitohi Flat",
    "city_zh": "Waitohi Flat",
    "country": "New Zealand",
    "country_zh": "紐西蘭",
    "country_iso_code": "NZ",
    "timezone": "Pacific/Auckland",
    "latitude": -44.21667,
    "longitude": 171.18333
  },
  {
    "city": "Waitoa",
    "city_zh": "Waitoa",
    "country": "New Zealand",
    "country_zh": "紐西蘭",
    "country_iso_code": "NZ",
    "timezone": "Pacific/Auckland",
    "latitude": -37.61667,
    "longitude": 175.63333
  },
  {
    "city": "Waitetuna",
    "city_zh": "Waitetuna",
    "country": "New Zealand",
    "country_zh": "紐西蘭",
    "country_iso_code": "NZ",
    "timezone": "Pacific/Auckland",
    "latitude": -37.83333,
    "longitude": 175.03333
  },
  {
    "city": "Waitewhenua",
    "city_zh": "Waitewhenua",
    "country": "New Zealand",
    "country_zh": "紐西蘭",
    "country_iso_code": "NZ",
    "timezone": "Pacific/Auckland",
    "latitude": -38.7,
    "longitude": 174.96667
  },
  {
    "city": "Waiterimu",
    "city_zh": "Waiterimu",
    "country": "New Zealand",
    "country_zh": "紐西蘭",
    "country_iso_code": "NZ",
    "timezone": "Pacific/Auckland",
    "latitude": -37.45,
    "longitude": 175.3
  },
  {
    "city": "Waitepeka",
    "city_zh": "Waitepeka",
    "country": "New Zealand",
    "country_zh": "紐西蘭",
    "country_iso_code": "NZ",
    "timezone": "Pacific/Auckland",
    "latitude": -46.28333,
    "longitude": 169.66667
  },
  {
    "city": "Waitekauri",
    "city_zh": "Waitekauri",
    "country": "New Zealand",
    "country_zh": "紐西蘭",
    "country_iso_code": "NZ",
    "timezone": "Pacific/Auckland",
    "latitude": -37.38333,
    "longitude": 175.76667
  },
  {
    "city": "Waiteika",
    "city_zh": "Waiteika",
    "country": "New Zealand",
    "country_zh": "紐西蘭",
    "country_iso_code": "NZ",
    "timezone": "Pacific/Auckland",
    "latitude": -39.48333,
    "longitude": 173.9
  },
  {
    "city": "Waitawa",
    "city_zh": "Waitawa",
    "country": "New Zealand",
    "country_zh": "紐西蘭",
    "country_iso_code": "NZ",
    "timezone": "Pacific/Auckland",
    "latitude": -44.3,
    "longitude": 171.2
  },
  {
    "city": "Waitati",
    "city_zh": "Waitati",
    "country": "New Zealand",
    "country_zh": "紐西蘭",
    "country_iso_code": "NZ",
    "timezone": "Pacific/Auckland",
    "latitude": -45.75,
    "longitude": 170.56667
  },
  {
    "city": "Waitarere",
    "city_zh": "Waitarere",
    "country": "New Zealand",
    "country_zh": "紐西蘭",
    "country_iso_code": "NZ",
    "timezone": "Pacific/Auckland",
    "latitude": -40.55,
    "longitude": 175.2
  },
  {
    "city": "Waitanguru",
    "city_zh": "Waitanguru",
    "country": "New Zealand",
    "country_zh": "紐西蘭",
    "country_iso_code": "NZ",
    "timezone": "Pacific/Auckland",
    "latitude": -38.38333,
    "longitude": 174.86667
  },
  {
    "city": "Waitangi",
    "city_zh": "Waitangi",
    "country": "New Zealand",
    "country_zh": "紐西蘭",
    "country_iso_code": "NZ",
    "timezone": "Pacific/Auckland",
    "latitude": -35.27025,
    "longitude": 174.08062
  },
  {
    "city": "Waitane",
    "city_zh": "Waitane",
    "country": "New Zealand",
    "country_zh": "紐西蘭",
    "country_iso_code": "NZ",
    "timezone": "Pacific/Auckland",
    "latitude": -46.18333,
    "longitude": 168.7
  },
  {
    "city": "Waitaki",
    "city_zh": "Waitaki",
    "country": "New Zealand",
    "country_zh": "紐西蘭",
    "country_iso_code": "NZ",
    "timezone": "Pacific/Auckland",
    "latitude": -44.93333,
    "longitude": 171.1
  },
  {
    "city": "Waitakere",
    "city_zh": "怀塔克雷",
    "country": "New Zealand",
    "country_zh": "紐西蘭",
    "country_iso_code": "NZ",
    "timezone": "Pacific/Auckland",
    "latitude": -36.85126,
    "longitude": 174.54477
  },
  {
    "city": "Waitakaruru",
    "city_zh": "Waitakaruru",
    "country": "New Zealand",
    "country_zh": "紐西蘭",
    "country_iso_code": "NZ",
    "timezone": "Pacific/Auckland",
    "latitude": -37.25,
    "longitude": 175.38333
  },
  {
    "city": "Waitakaro",
    "city_zh": "Waitakaro",
    "country": "New Zealand",
    "country_zh": "紐西蘭",
    "country_iso_code": "NZ",
    "timezone": "Pacific/Auckland",
    "latitude": -37.93333,
    "longitude": 178.26667
  },
  {
    "city": "Waitai",
    "city_zh": "Waitai",
    "country": "New Zealand",
    "country_zh": "紐西蘭",
    "country_iso_code": "NZ",
    "timezone": "Pacific/Auckland",
    "latitude": -40.76667,
    "longitude": 173.93333
  },
  {
    "city": "Waitahuna West",
    "city_zh": "Waitahuna West",
    "country": "New Zealand",
    "country_zh": "紐西蘭",
    "country_iso_code": "NZ",
    "timezone": "Pacific/Auckland",
    "latitude": -46.01667,
    "longitude": 169.63333
  },
  {
    "city": "Waitahuna",
    "city_zh": "Waitahuna",
    "country": "New Zealand",
    "country_zh": "紐西蘭",
    "country_iso_code": "NZ",
    "timezone": "Pacific/Auckland",
    "latitude": -45.98333,
    "longitude": 169.76667
  },
  {
    "city": "Waitahinga",
    "city_zh": "Waitahinga",
    "country": "New Zealand",
    "country_zh": "紐西蘭",
    "country_iso_code": "NZ",
    "timezone": "Pacific/Auckland",
    "latitude": -39.75,
    "longitude": 174.95
  },
  {
    "city": "Waitahanui",
    "city_zh": "Waitahanui",
    "country": "New Zealand",
    "country_zh": "紐西蘭",
    "country_iso_code": "NZ",
    "timezone": "Pacific/Auckland",
    "latitude": -38.78333,
    "longitude": 176.08333
  },
  {
    "city": "Waitaanga",
    "city_zh": "Waitaanga",
    "country": "New Zealand",
    "country_zh": "紐西蘭",
    "country_iso_code": "NZ",
    "timezone": "Pacific/Auckland",
    "latitude": -38.83333,
    "longitude": 174.83333
  },
  {
    "city": "Wairunga",
    "city_zh": "Wairunga",
    "country": "New Zealand",
    "country_zh": "紐西蘭",
    "country_iso_code": "NZ",
    "timezone": "Pacific/Auckland",
    "latitude": -45.53333,
    "longitude": 170.7
  },
  {
    "city": "Wairuna",
    "city_zh": "Wairuna",
    "country": "New Zealand",
    "country_zh": "紐西蘭",
    "country_iso_code": "NZ",
    "timezone": "Pacific/Auckland",
    "latitude": -46.16667,
    "longitude": 169.33333
  },
  {
    "city": "Wairoto",
    "city_zh": "Wairoto",
    "country": "New Zealand",
    "country_zh": "紐西蘭",
    "country_iso_code": "NZ",
    "timezone": "Pacific/Auckland",
    "latitude": -45.98333,
    "longitude": 167.6
  },
  {
    "city": "Wairio",
    "city_zh": "Wairio",
    "country": "New Zealand",
    "country_zh": "紐西蘭",
    "country_iso_code": "NZ",
    "timezone": "Pacific/Auckland",
    "latitude": -46.0,
    "longitude": 168.03333
  },
  {
    "city": "Wairere Falls",
    "city_zh": "Wairere Falls",
    "country": "New Zealand",
    "country_zh": "紐西蘭",
    "country_iso_code": "NZ",
    "timezone": "Pacific/Auckland",
    "latitude": -38.51667,
    "longitude": 175.01667
  },
  {
    "city": "Wairau Valley",
    "city_zh": "Wairau Valley",
    "country": "New Zealand",
    "country_zh": "紐西蘭",
    "country_iso_code": "NZ",
    "timezone": "Pacific/Auckland",
    "latitude": -41.56667,
    "longitude": 173.53333
  },
  {
    "city": "Wairata",
    "city_zh": "Wairata",
    "country": "New Zealand",
    "country_zh": "紐西蘭",
    "country_iso_code": "NZ",
    "timezone": "Pacific/Auckland",
    "latitude": -38.3,
    "longitude": 177.33333
  },
  {
    "city": "Wairangi",
    "city_zh": "Wairangi",
    "country": "New Zealand",
    "country_zh": "紐西蘭",
    "country_iso_code": "NZ",
    "timezone": "Pacific/Auckland",
    "latitude": -41.03333,
    "longitude": 173.75
  },
  {
    "city": "Wairakei",
    "city_zh": "Wairakei",
    "country": "New Zealand",
    "country_zh": "紐西蘭",
    "country_iso_code": "NZ",
    "timezone": "Pacific/Auckland",
    "latitude": -38.63333,
    "longitude": 176.1
  },
  {
    "city": "Waipuna",
    "city_zh": "Waipuna",
    "country": "New Zealand",
    "country_zh": "紐西蘭",
    "country_iso_code": "NZ",
    "timezone": "Pacific/Auckland",
    "latitude": -37.38333,
    "longitude": 175.3
  },
  {
    "city": "Waipuku",
    "city_zh": "Waipuku",
    "country": "New Zealand",
    "country_zh": "紐西蘭",
    "country_iso_code": "NZ",
    "timezone": "Pacific/Auckland",
    "latitude": -39.26667,
    "longitude": 174.26667
  },
  {
    "city": "Waipu Cove",
    "city_zh": "Waipu Cove",
    "country": "New Zealand",
    "country_zh": "紐西蘭",
    "country_iso_code": "NZ",
    "timezone": "Pacific/Auckland",
    "latitude": -36.03333,
    "longitude": 174.51667
  },
  {
    "city": "Waipu",
    "city_zh": "Waipu",
    "country": "New Zealand",
    "country_zh": "紐西蘭",
    "country_iso_code": "NZ",
    "timezone": "Pacific/Auckland",
    "latitude": -35.98333,
    "longitude": 174.45
  },
  {
    "city": "Waipounamu",
    "city_zh": "Waipounamu",
    "country": "New Zealand",
    "country_zh": "紐西蘭",
    "country_iso_code": "NZ",
    "timezone": "Pacific/Auckland",
    "latitude": -45.85,
    "longitude": 168.76667
  },
  {
    "city": "Waipori Falls",
    "city_zh": "Waipori Falls",
    "country": "New Zealand",
    "country_zh": "紐西蘭",
    "country_iso_code": "NZ",
    "timezone": "Pacific/Auckland",
    "latitude": -45.91667,
    "longitude": 169.98333
  },
  {
    "city": "Waipori",
    "city_zh": "Waipori",
    "country": "New Zealand",
    "country_zh": "紐西蘭",
    "country_iso_code": "NZ",
    "timezone": "Pacific/Auckland",
    "latitude": -45.83333,
    "longitude": 169.88333
  },
  {
    "city": "Waipiro",
    "city_zh": "Waipiro",
    "country": "New Zealand",
    "country_zh": "紐西蘭",
    "country_iso_code": "NZ",
    "timezone": "Pacific/Auckland",
    "latitude": -38.01667,
    "longitude": 178.33333
  },
  {
    "city": "Waipipi",
    "city_zh": "Waipipi",
    "country": "New Zealand",
    "country_zh": "紐西蘭",
    "country_iso_code": "NZ",
    "timezone": "Pacific/Auckland",
    "latitude": -37.21667,
    "longitude": 174.66667
  },
  {
    "city": "Waipiata",
    "city_zh": "Waipiata",
    "country": "New Zealand",
    "country_zh": "紐西蘭",
    "country_iso_code": "NZ",
    "timezone": "Pacific/Auckland",
    "latitude": -45.18333,
    "longitude": 170.16667
  },
  {
    "city": "Waipatiki",
    "city_zh": "Waipatiki",
    "country": "New Zealand",
    "country_zh": "紐西蘭",
    "country_iso_code": "NZ",
    "timezone": "Pacific/Auckland",
    "latitude": -40.37296,
    "longitude": 176.28334
  },
  {
    "city": "Waiparera",
    "city_zh": "Waiparera",
    "country": "New Zealand",
    "country_zh": "紐西蘭",
    "country_iso_code": "NZ",
    "timezone": "Pacific/Auckland",
    "latitude": -35.7,
    "longitude": 174.46667
  },
  {
    "city": "Waipara",
    "city_zh": "Waipara",
    "country": "New Zealand",
    "country_zh": "紐西蘭",
    "country_iso_code": "NZ",
    "timezone": "Pacific/Auckland",
    "latitude": -43.06667,
    "longitude": 172.75
  },
  {
    "city": "Waipapakauri",
    "city_zh": "Waipapakauri",
    "country": "New Zealand",
    "country_zh": "紐西蘭",
    "country_iso_code": "NZ",
    "timezone": "Pacific/Auckland",
    "latitude": -35.03333,
    "longitude": 173.23333
  },
  {
    "city": "Waipapa",
    "city_zh": "Waipapa",
    "country": "New Zealand",
    "country_zh": "紐西蘭",
    "country_iso_code": "NZ",
    "timezone": "Pacific/Auckland",
    "latitude": -35.2,
    "longitude": 173.91667
  },
  {
    "city": "Waipaoa",
    "city_zh": "Waipaoa",
    "country": "New Zealand",
    "country_zh": "紐西蘭",
    "country_iso_code": "NZ",
    "timezone": "Pacific/Auckland",
    "latitude": -38.53333,
    "longitude": 177.9
  },
  {
    "city": "Waipai",
    "city_zh": "Waipai",
    "country": "New Zealand",
    "country_zh": "紐西蘭",
    "country_iso_code": "NZ",
    "timezone": "Pacific/Auckland",
    "latitude": -39.1,
    "longitude": 176.61667
  },
  {
    "city": "Waipahi",
    "city_zh": "Waipahi",
    "country": "New Zealand",
    "country_zh": "紐西蘭",
    "country_iso_code": "NZ",
    "timezone": "Pacific/Auckland",
    "latitude": -46.11667,
    "longitude": 169.25
  },
  {
    "city": "Waiouru",
    "city_zh": "Waiouru",
    "country": "New Zealand",
    "country_zh": "紐西蘭",
    "country_iso_code": "NZ",
    "timezone": "Pacific/Auckland",
    "latitude": -39.47753,
    "longitude": 175.66834
  },
  {
    "city": "Waiotu",
    "city_zh": "Waiotu",
    "country": "New Zealand",
    "country_zh": "紐西蘭",
    "country_iso_code": "NZ",
    "timezone": "Pacific/Auckland",
    "latitude": -35.51667,
    "longitude": 174.21667
  },
  {
    "city": "Waiotira",
    "city_zh": "Waiotira",
    "country": "New Zealand",
    "country_zh": "紐西蘭",
    "country_iso_code": "NZ",
    "timezone": "Pacific/Auckland",
    "latitude": -35.93333,
    "longitude": 174.2
  },
  {
    "city": "Waiotemarama",
    "city_zh": "Waiotemarama",
    "country": "New Zealand",
    "country_zh": "紐西蘭",
    "country_iso_code": "NZ",
    "timezone": "Pacific/Auckland",
    "latitude": -35.55,
    "longitude": 173.43333
  },
  {
    "city": "Waiotapu",
    "city_zh": "Waiotapu",
    "country": "New Zealand",
    "country_zh": "紐西蘭",
    "country_iso_code": "NZ",
    "timezone": "Pacific/Auckland",
    "latitude": -38.35,
    "longitude": 176.36667
  },
  {
    "city": "Waiotahi",
    "city_zh": "Waiotahi",
    "country": "New Zealand",
    "country_zh": "紐西蘭",
    "country_iso_code": "NZ",
    "timezone": "Pacific/Auckland",
    "latitude": -38.0,
    "longitude": 177.21667
  },
  {
    "city": "Waiongona",
    "city_zh": "Waiongona",
    "country": "New Zealand",
    "country_zh": "紐西蘭",
    "country_iso_code": "NZ",
    "timezone": "Pacific/Auckland",
    "latitude": -39.1,
    "longitude": 174.21667
  },
  {
    "city": "Waione",
    "city_zh": "Waione",
    "country": "New Zealand",
    "country_zh": "紐西蘭",
    "country_iso_code": "NZ",
    "timezone": "Pacific/Auckland",
    "latitude": -40.46945,
    "longitude": 176.27967
  },
  {
    "city": "Wainuiomata",
    "city_zh": "Wainuiomata",
    "country": "New Zealand",
    "country_zh": "紐西蘭",
    "country_iso_code": "NZ",
    "timezone": "Pacific/Auckland",
    "latitude": -41.26667,
    "longitude": 174.95
  },
  {
    "city": "Wainui",
    "city_zh": "Wainui",
    "country": "New Zealand",
    "country_zh": "紐西蘭",
    "country_iso_code": "NZ",
    "timezone": "Pacific/Auckland",
    "latitude": -43.81667,
    "longitude": 172.9
  },
  {
    "city": "Wainui",
    "city_zh": "Wainui",
    "country": "New Zealand",
    "country_zh": "紐西蘭",
    "country_iso_code": "NZ",
    "timezone": "Pacific/Auckland",
    "latitude": -38.68873,
    "longitude": 178.07048
  },
  {
    "city": "Wainihinihi",
    "city_zh": "Wainihinihi",
    "country": "New Zealand",
    "country_zh": "紐西蘭",
    "country_iso_code": "NZ",
    "timezone": "Pacific/Auckland",
    "latitude": -42.76667,
    "longitude": 171.33333
  },
  {
    "city": "Waingaro",
    "city_zh": "Waingaro",
    "country": "New Zealand",
    "country_zh": "紐西蘭",
    "country_iso_code": "NZ",
    "timezone": "Pacific/Auckland",
    "latitude": -37.68333,
    "longitude": 175.0
  },
  {
    "city": "Waimumu",
    "city_zh": "Waimumu",
    "country": "New Zealand",
    "country_zh": "紐西蘭",
    "country_iso_code": "NZ",
    "timezone": "Pacific/Auckland",
    "latitude": -46.11667,
    "longitude": 168.8
  },
  {
    "city": "Waimiro",
    "city_zh": "Waimiro",
    "country": "New Zealand",
    "country_zh": "紐西蘭",
    "country_iso_code": "NZ",
    "timezone": "Pacific/Auckland",
    "latitude": -40.45,
    "longitude": 176.23333
  },
  {
    "city": "Waimiha",
    "city_zh": "Waimiha",
    "country": "New Zealand",
    "country_zh": "紐西蘭",
    "country_iso_code": "NZ",
    "timezone": "Pacific/Auckland",
    "latitude": -38.61667,
    "longitude": 175.31667
  },
  {
    "city": "Waimea West",
    "city_zh": "Waimea West",
    "country": "New Zealand",
    "country_zh": "紐西蘭",
    "country_iso_code": "NZ",
    "timezone": "Pacific/Auckland",
    "latitude": -41.33333,
    "longitude": 173.1
  },
  {
    "city": "Waimaunga",
    "city_zh": "Waimaunga",
    "country": "New Zealand",
    "country_zh": "紐西蘭",
    "country_iso_code": "NZ",
    "timezone": "Pacific/Auckland",
    "latitude": -42.23333,
    "longitude": 171.7
  },
  {
    "city": "Waimauku",
    "city_zh": "Waimauku",
    "country": "New Zealand",
    "country_zh": "紐西蘭",
    "country_iso_code": "NZ",
    "timezone": "Pacific/Auckland",
    "latitude": -36.75,
    "longitude": 174.5
  },
  {
    "city": "Waimatuku",
    "city_zh": "Waimatuku",
    "country": "New Zealand",
    "country_zh": "紐西蘭",
    "country_iso_code": "NZ",
    "timezone": "Pacific/Auckland",
    "latitude": -46.3,
    "longitude": 168.16667
  },
  {
    "city": "Waimatenui",
    "city_zh": "Waimatenui",
    "country": "New Zealand",
    "country_zh": "紐西蘭",
    "country_iso_code": "NZ",
    "timezone": "Pacific/Auckland",
    "latitude": -35.61667,
    "longitude": 173.71667
  },
  {
    "city": "Waimate North",
    "city_zh": "Waimate North",
    "country": "New Zealand",
    "country_zh": "紐西蘭",
    "country_iso_code": "NZ",
    "timezone": "Pacific/Auckland",
    "latitude": -35.31667,
    "longitude": 173.88333
  },
  {
    "city": "Waimata",
    "city_zh": "Waimata",
    "country": "New Zealand",
    "country_zh": "紐西蘭",
    "country_iso_code": "NZ",
    "timezone": "Pacific/Auckland",
    "latitude": -37.45,
    "longitude": 175.86667
  },
  {
    "city": "Waimarie",
    "city_zh": "Waimarie",
    "country": "New Zealand",
    "country_zh": "紐西蘭",
    "country_iso_code": "NZ",
    "timezone": "Pacific/Auckland",
    "latitude": -41.52619,
    "longitude": 171.93715
  },
  {
    "city": "Waimarama",
    "city_zh": "Waimarama",
    "country": "New Zealand",
    "country_zh": "紐西蘭",
    "country_iso_code": "NZ",
    "timezone": "Pacific/Auckland",
    "latitude": -39.8,
    "longitude": 176.98333
  },
  {
    "city": "Waimangu",
    "city_zh": "Waimangu",
    "country": "New Zealand",
    "country_zh": "紐西蘭",
    "country_iso_code": "NZ",
    "timezone": "Pacific/Auckland",
    "latitude": -38.28404,
    "longitude": 176.38262
  },
  {
    "city": "Waimangaroa",
    "city_zh": "Waimangaroa",
    "country": "New Zealand",
    "country_zh": "紐西蘭",
    "country_iso_code": "NZ",
    "timezone": "Pacific/Auckland",
    "latitude": -41.71667,
    "longitude": 171.76667
  },
  {
    "city": "Waimana",
    "city_zh": "Waimana",
    "country": "New Zealand",
    "country_zh": "紐西蘭",
    "country_iso_code": "NZ",
    "timezone": "Pacific/Auckland",
    "latitude": -38.15,
    "longitude": 177.08333
  },
  {
    "city": "Waimamaku",
    "city_zh": "Waimamaku",
    "country": "New Zealand",
    "country_zh": "紐西蘭",
    "country_iso_code": "NZ",
    "timezone": "Pacific/Auckland",
    "latitude": -35.55629,
    "longitude": 173.47824
  },
  {
    "city": "Waimahaka",
    "city_zh": "Waimahaka",
    "country": "New Zealand",
    "country_zh": "紐西蘭",
    "country_iso_code": "NZ",
    "timezone": "Pacific/Auckland",
    "latitude": -46.51667,
    "longitude": 168.81667
  },
  {
    "city": "Waima",
    "city_zh": "Waima",
    "country": "New Zealand",
    "country_zh": "紐西蘭",
    "country_iso_code": "NZ",
    "timezone": "Pacific/Auckland",
    "latitude": -35.48333,
    "longitude": 173.58333
  },
  {
    "city": "Waikuku Beach",
    "city_zh": "Waikuku Beach",
    "country": "New Zealand",
    "country_zh": "紐西蘭",
    "country_iso_code": "NZ",
    "timezone": "Pacific/Auckland",
    "latitude": -43.28333,
    "longitude": 172.71667
  },
  {
    "city": "Waikuku",
    "city_zh": "Waikuku",
    "country": "New Zealand",
    "country_zh": "紐西蘭",
    "country_iso_code": "NZ",
    "timezone": "Pacific/Auckland",
    "latitude": -43.3,
    "longitude": 172.68333
  },
  {
    "city": "Waikowhai",
    "city_zh": "Waikowhai",
    "country": "New Zealand",
    "country_zh": "紐西蘭",
    "country_iso_code": "NZ",
    "timezone": "Pacific/Auckland",
    "latitude": -43.45,
    "longitude": 169.88333
  },
  {
    "city": "Waikopua",
    "city_zh": "Waikopua",
    "country": "New Zealand",
    "country_zh": "紐西蘭",
    "country_iso_code": "NZ",
    "timezone": "Pacific/Auckland",
    "latitude": -36.91667,
    "longitude": 174.98333
  },
  {
    "city": "Waikokopu",
    "city_zh": "Waikokopu",
    "country": "New Zealand",
    "country_zh": "紐西蘭",
    "country_iso_code": "NZ",
    "timezone": "Pacific/Auckland",
    "latitude": -39.07294,
    "longitude": 177.82509
  },
  {
    "city": "Waikoikoi",
    "city_zh": "Waikoikoi",
    "country": "New Zealand",
    "country_zh": "紐西蘭",
    "country_iso_code": "NZ",
    "timezone": "Pacific/Auckland",
    "latitude": -46.01667,
    "longitude": 169.15
  },
  {
    "city": "Waikohu",
    "city_zh": "Waikohu",
    "country": "New Zealand",
    "country_zh": "紐西蘭",
    "country_iso_code": "NZ",
    "timezone": "Pacific/Auckland",
    "latitude": -38.4,
    "longitude": 177.78333
  },
  {
    "city": "Waikiwi",
    "city_zh": "Waikiwi",
    "country": "New Zealand",
    "country_zh": "紐西蘭",
    "country_iso_code": "NZ",
    "timezone": "Pacific/Auckland",
    "latitude": -46.38333,
    "longitude": 168.33333
  },
  {
    "city": "Waikino",
    "city_zh": "Waikino",
    "country": "New Zealand",
    "country_zh": "紐西蘭",
    "country_iso_code": "NZ",
    "timezone": "Pacific/Auckland",
    "latitude": -37.41667,
    "longitude": 175.76667
  },
  {
    "city": "Waikiekie",
    "city_zh": "Waikiekie",
    "country": "New Zealand",
    "country_zh": "紐西蘭",
    "country_iso_code": "NZ",
    "timezone": "Pacific/Auckland",
    "latitude": -35.95,
    "longitude": 174.23333
  },
  {
    "city": "Waikawau",
    "city_zh": "Waikawau",
    "country": "New Zealand",
    "country_zh": "紐西蘭",
    "country_iso_code": "NZ",
    "timezone": "Pacific/Auckland",
    "latitude": -38.46667,
    "longitude": 174.66667
  },
  {
    "city": "Waikawa",
    "city_zh": "Waikawa",
    "country": "New Zealand",
    "country_zh": "紐西蘭",
    "country_iso_code": "NZ",
    "timezone": "Pacific/Auckland",
    "latitude": -46.63333,
    "longitude": 169.13333
  },
  {
    "city": "Waikawa",
    "city_zh": "Waikawa",
    "country": "New Zealand",
    "country_zh": "紐西蘭",
    "country_iso_code": "NZ",
    "timezone": "Pacific/Auckland",
    "latitude": -41.26667,
    "longitude": 174.05
  },
  {
    "city": "Waikarua",
    "city_zh": "Waikarua",
    "country": "New Zealand",
    "country_zh": "紐西蘭",
    "country_iso_code": "NZ",
    "timezone": "Pacific/Auckland",
    "latitude": -44.03333,
    "longitude": 170.88333
  },
  {
    "city": "Waikari",
    "city_zh": "Waikari",
    "country": "New Zealand",
    "country_zh": "紐西蘭",
    "country_iso_code": "NZ",
    "timezone": "Pacific/Auckland",
    "latitude": -42.96667,
    "longitude": 172.68333
  },
  {
    "city": "Waikaremoana",
    "city_zh": "Waikaremoana",
    "country": "New Zealand",
    "country_zh": "紐西蘭",
    "country_iso_code": "NZ",
    "timezone": "Pacific/Auckland",
    "latitude": -38.8,
    "longitude": 177.11667
  },
  {
    "city": "Waikare",
    "city_zh": "Waikare",
    "country": "New Zealand",
    "country_zh": "紐西蘭",
    "country_iso_code": "NZ",
    "timezone": "Pacific/Auckland",
    "latitude": -35.33333,
    "longitude": 174.25
  },
  {
    "city": "Waikanae",
    "city_zh": "Waikanae",
    "country": "New Zealand",
    "country_zh": "紐西蘭",
    "country_iso_code": "NZ",
    "timezone": "Pacific/Auckland",
    "latitude": -40.88333,
    "longitude": 175.06667
  },
  {
    "city": "Waikakaho",
    "city_zh": "Waikakaho",
    "country": "New Zealand",
    "country_zh": "紐西蘭",
    "country_iso_code": "NZ",
    "timezone": "Pacific/Auckland",
    "latitude": -41.43333,
    "longitude": 173.9
  },
  {
    "city": "Waikaka",
    "city_zh": "Waikaka",
    "country": "New Zealand",
    "country_zh": "紐西蘭",
    "country_iso_code": "NZ",
    "timezone": "Pacific/Auckland",
    "latitude": -45.91667,
    "longitude": 169.01667
  },
  {
    "city": "Waikaia",
    "city_zh": "Waikaia",
    "country": "New Zealand",
    "country_zh": "紐西蘭",
    "country_iso_code": "NZ",
    "timezone": "Pacific/Auckland",
    "latitude": -45.73333,
    "longitude": 168.85
  },
  {
    "city": "Wai-iti",
    "city_zh": "Wai-iti",
    "country": "New Zealand",
    "country_zh": "紐西蘭",
    "country_iso_code": "NZ",
    "timezone": "Pacific/Auckland",
    "latitude": -41.43333,
    "longitude": 173.0
  },
  {
    "city": "Waihou",
    "city_zh": "Waihou",
    "country": "New Zealand",
    "country_zh": "紐西蘭",
    "country_iso_code": "NZ",
    "timezone": "Pacific/Auckland",
    "latitude": -37.58333,
    "longitude": 175.66667
  },
  {
    "city": "Waihopo",
    "city_zh": "Waihopo",
    "country": "New Zealand",
    "country_zh": "紐西蘭",
    "country_iso_code": "NZ",
    "timezone": "Pacific/Auckland",
    "latitude": -34.76667,
    "longitude": 173.08333
  },
  {
    "city": "Waihopai",
    "city_zh": "Waihopai",
    "country": "New Zealand",
    "country_zh": "紐西蘭",
    "country_iso_code": "NZ",
    "timezone": "Pacific/Auckland",
    "latitude": -41.53333,
    "longitude": 173.73333
  },
  {
    "city": "Waihola",
    "city_zh": "Waihola",
    "country": "New Zealand",
    "country_zh": "紐西蘭",
    "country_iso_code": "NZ",
    "timezone": "Pacific/Auckland",
    "latitude": -46.03333,
    "longitude": 170.1
  },
  {
    "city": "Waihoaka",
    "city_zh": "Waihoaka",
    "country": "New Zealand",
    "country_zh": "紐西蘭",
    "country_iso_code": "NZ",
    "timezone": "Pacific/Auckland",
    "latitude": -46.23333,
    "longitude": 167.7
  },
  {
    "city": "Waihi Beach",
    "city_zh": "Waihi Beach",
    "country": "New Zealand",
    "country_zh": "紐西蘭",
    "country_iso_code": "NZ",
    "timezone": "Pacific/Auckland",
    "latitude": -37.4,
    "longitude": 175.93333
  },
  {
    "city": "Waihemo",
    "city_zh": "Waihemo",
    "country": "New Zealand",
    "country_zh": "紐西蘭",
    "country_iso_code": "NZ",
    "timezone": "Pacific/Auckland",
    "latitude": -45.3243,
    "longitude": 170.56957
  },
  {
    "city": "Waihau Bay",
    "city_zh": "Waihau Bay",
    "country": "New Zealand",
    "country_zh": "紐西蘭",
    "country_iso_code": "NZ",
    "timezone": "Pacific/Auckland",
    "latitude": -37.61821,
    "longitude": 177.90878
  },
  {
    "city": "Waiharera",
    "city_zh": "Waiharera",
    "country": "New Zealand",
    "country_zh": "紐西蘭",
    "country_iso_code": "NZ",
    "timezone": "Pacific/Auckland",
    "latitude": -34.93333,
    "longitude": 173.21667
  },
  {
    "city": "Waihapai",
    "city_zh": "Waihapai",
    "country": "New Zealand",
    "country_zh": "紐西蘭",
    "country_iso_code": "NZ",
    "timezone": "Pacific/Auckland",
    "latitude": -39.65,
    "longitude": 175.06667
  },
  {
    "city": "Waihaorunga",
    "city_zh": "Waihaorunga",
    "country": "New Zealand",
    "country_zh": "紐西蘭",
    "country_iso_code": "NZ",
    "timezone": "Pacific/Auckland",
    "latitude": -44.75,
    "longitude": 170.81667
  },
  {
    "city": "Waihao Downs",
    "city_zh": "Waihao Downs",
    "country": "New Zealand",
    "country_zh": "紐西蘭",
    "country_iso_code": "NZ",
    "timezone": "Pacific/Auckland",
    "latitude": -44.8,
    "longitude": 170.91667
  },
  {
    "city": "Waihao Forks",
    "city_zh": "Waihao Forks",
    "country": "New Zealand",
    "country_zh": "紐西蘭",
    "country_iso_code": "NZ",
    "timezone": "Pacific/Auckland",
    "latitude": -44.8,
    "longitude": 170.93333
  },
  {
    "city": "Waihaha",
    "city_zh": "Waihaha",
    "country": "New Zealand",
    "country_zh": "紐西蘭",
    "country_iso_code": "NZ",
    "timezone": "Pacific/Auckland",
    "latitude": -35.33333,
    "longitude": 174.23333
  },
  {
    "city": "Waiau Pa",
    "city_zh": "Waiau Pa",
    "country": "New Zealand",
    "country_zh": "紐西蘭",
    "country_iso_code": "NZ",
    "timezone": "Pacific/Auckland",
    "latitude": -37.13333,
    "longitude": 174.75
  },
  {
    "city": "Waiau",
    "city_zh": "Waiau",
    "country": "New Zealand",
    "country_zh": "紐西蘭",
    "country_iso_code": "NZ",
    "timezone": "Pacific/Auckland",
    "latitude": -42.65,
    "longitude": 173.05
  },
  {
    "city": "Waiatoto",
    "city_zh": "Waiatoto",
    "country": "New Zealand",
    "country_zh": "紐西蘭",
    "country_iso_code": "NZ",
    "timezone": "Pacific/Auckland",
    "latitude": -43.98333,
    "longitude": 168.76667
  },
  {
    "city": "Waiatarua",
    "city_zh": "Waiatarua",
    "country": "New Zealand",
    "country_zh": "紐西蘭",
    "country_iso_code": "NZ",
    "timezone": "Pacific/Auckland",
    "latitude": -36.93333,
    "longitude": 174.58333
  },
  {
    "city": "Waiariari",
    "city_zh": "Waiariari",
    "country": "New Zealand",
    "country_zh": "紐西蘭",
    "country_iso_code": "NZ",
    "timezone": "Pacific/Auckland",
    "latitude": -44.68333,
    "longitude": 171.08333
  },
  {
    "city": "Waiareka Junction",
    "city_zh": "Waiareka Junction",
    "country": "New Zealand",
    "country_zh": "紐西蘭",
    "country_iso_code": "NZ",
    "timezone": "Pacific/Auckland",
    "latitude": -45.1,
    "longitude": 170.93333
  },
  {
    "city": "Waianiwa",
    "city_zh": "Waianiwa",
    "country": "New Zealand",
    "country_zh": "紐西蘭",
    "country_iso_code": "NZ",
    "timezone": "Pacific/Auckland",
    "latitude": -46.3,
    "longitude": 168.26667
  },
  {
    "city": "Waianakarua",
    "city_zh": "Waianakarua",
    "country": "New Zealand",
    "country_zh": "紐西蘭",
    "country_iso_code": "NZ",
    "timezone": "Pacific/Auckland",
    "latitude": -45.26667,
    "longitude": 170.8
  },
  {
    "city": "Waharoa",
    "city_zh": "Waharoa",
    "country": "New Zealand",
    "country_zh": "紐西蘭",
    "country_iso_code": "NZ",
    "timezone": "Pacific/Auckland",
    "latitude": -37.76667,
    "longitude": 175.76667
  },
  {
    "city": "Waerengaokuri",
    "city_zh": "Waerengaokuri",
    "country": "New Zealand",
    "country_zh": "紐西蘭",
    "country_iso_code": "NZ",
    "timezone": "Pacific/Auckland",
    "latitude": -38.68333,
    "longitude": 177.76667
  },
  {
    "city": "Waerengaahika",
    "city_zh": "Waerengaahika",
    "country": "New Zealand",
    "country_zh": "紐西蘭",
    "country_iso_code": "NZ",
    "timezone": "Pacific/Auckland",
    "latitude": -38.6,
    "longitude": 177.93333
  },
  {
    "city": "Waerenga",
    "city_zh": "Waerenga",
    "country": "New Zealand",
    "country_zh": "紐西蘭",
    "country_iso_code": "NZ",
    "timezone": "Pacific/Auckland",
    "latitude": -37.36667,
    "longitude": 175.23333
  },
  {
    "city": "Wadestown",
    "city_zh": "Wadestown",
    "country": "New Zealand",
    "country_zh": "紐西蘭",
    "country_iso_code": "NZ",
    "timezone": "Pacific/Auckland",
    "latitude": -41.26667,
    "longitude": 174.76667
  },
  {
    "city": "Waddington",
    "city_zh": "Waddington",
    "country": "New Zealand",
    "country_zh": "紐西蘭",
    "country_iso_code": "NZ",
    "timezone": "Pacific/Auckland",
    "latitude": -43.4,
    "longitude": 172.03333
  },
  {
    "city": "Victoria Valley",
    "city_zh": "Victoria Valley",
    "country": "New Zealand",
    "country_zh": "紐西蘭",
    "country_iso_code": "NZ",
    "timezone": "Pacific/Auckland",
    "latitude": -35.15,
    "longitude": 173.41667
  },
  {
    "city": "Venlaw",
    "city_zh": "Venlaw",
    "country": "New Zealand",
    "country_zh": "紐西蘭",
    "country_iso_code": "NZ",
    "timezone": "Pacific/Auckland",
    "latitude": -46.3,
    "longitude": 169.03333
  },
  {
    "city": "Valetta",
    "city_zh": "Valetta",
    "country": "New Zealand",
    "country_zh": "紐西蘭",
    "country_iso_code": "NZ",
    "timezone": "Pacific/Auckland",
    "latitude": -43.76667,
    "longitude": 171.48333
  },
  {
    "city": "Uxbridge",
    "city_zh": "Uxbridge",
    "country": "New Zealand",
    "country_zh": "紐西蘭",
    "country_iso_code": "NZ",
    "timezone": "Pacific/Auckland",
    "latitude": -44.91667,
    "longitude": 170.88333
  },
  {
    "city": "Utuwai",
    "city_zh": "Utuwai",
    "country": "New Zealand",
    "country_zh": "紐西蘭",
    "country_iso_code": "NZ",
    "timezone": "Pacific/Auckland",
    "latitude": -40.01667,
    "longitude": 175.93333
  },
  {
    "city": "Utiku",
    "city_zh": "Utiku",
    "country": "New Zealand",
    "country_zh": "紐西蘭",
    "country_iso_code": "NZ",
    "timezone": "Pacific/Auckland",
    "latitude": -39.73343,
    "longitude": 175.84378
  },
  {
    "city": "Utakura",
    "city_zh": "Utakura",
    "country": "New Zealand",
    "country_zh": "紐西蘭",
    "country_iso_code": "NZ",
    "timezone": "Pacific/Auckland",
    "latitude": -35.35,
    "longitude": 173.68333
  },
  {
    "city": "Uruwhenua",
    "city_zh": "Uruwhenua",
    "country": "New Zealand",
    "country_zh": "紐西蘭",
    "country_iso_code": "NZ",
    "timezone": "Pacific/Auckland",
    "latitude": -40.98333,
    "longitude": 172.81667
  },
  {
    "city": "Uruti",
    "city_zh": "Uruti",
    "country": "New Zealand",
    "country_zh": "紐西蘭",
    "country_iso_code": "NZ",
    "timezone": "Pacific/Auckland",
    "latitude": -38.95,
    "longitude": 174.53333
  },
  {
    "city": "Ururua",
    "city_zh": "Ururua",
    "country": "New Zealand",
    "country_zh": "紐西蘭",
    "country_iso_code": "NZ",
    "timezone": "Pacific/Auckland",
    "latitude": -46.08333,
    "longitude": 169.7
  },
  {
    "city": "Urrall",
    "city_zh": "Urrall",
    "country": "New Zealand",
    "country_zh": "紐西蘭",
    "country_iso_code": "NZ",
    "timezone": "Pacific/Auckland",
    "latitude": -43.71667,
    "longitude": 171.75
  },
  {
    "city": "Urenui",
    "city_zh": "Urenui",
    "country": "New Zealand",
    "country_zh": "紐西蘭",
    "country_iso_code": "NZ",
    "timezone": "Pacific/Auckland",
    "latitude": -39.0,
    "longitude": 174.38333
  },
  {
    "city": "Upper Waiwera",
    "city_zh": "Upper Waiwera",
    "country": "New Zealand",
    "country_zh": "紐西蘭",
    "country_iso_code": "NZ",
    "timezone": "Pacific/Auckland",
    "latitude": -36.55,
    "longitude": 174.66667
  },
  {
    "city": "Upper Waiawa",
    "city_zh": "Upper Waiawa",
    "country": "New Zealand",
    "country_zh": "紐西蘭",
    "country_iso_code": "NZ",
    "timezone": "Pacific/Auckland",
    "latitude": -38.05,
    "longitude": 177.45
  },
  {
    "city": "Upper Takaka",
    "city_zh": "Upper Takaka",
    "country": "New Zealand",
    "country_zh": "紐西蘭",
    "country_iso_code": "NZ",
    "timezone": "Pacific/Auckland",
    "latitude": -41.03333,
    "longitude": 172.83333
  },
  {
    "city": "Upper Shotover",
    "city_zh": "Upper Shotover",
    "country": "New Zealand",
    "country_zh": "紐西蘭",
    "country_iso_code": "NZ",
    "timezone": "Pacific/Auckland",
    "latitude": -44.83333,
    "longitude": 168.71667
  },
  {
    "city": "Upper Ruatiti",
    "city_zh": "Upper Ruatiti",
    "country": "New Zealand",
    "country_zh": "紐西蘭",
    "country_iso_code": "NZ",
    "timezone": "Pacific/Auckland",
    "latitude": -39.2,
    "longitude": 175.2
  },
  {
    "city": "Upper Rewanui",
    "city_zh": "Upper Rewanui",
    "country": "New Zealand",
    "country_zh": "紐西蘭",
    "country_iso_code": "NZ",
    "timezone": "Pacific/Auckland",
    "latitude": -42.36667,
    "longitude": 171.31667
  },
  {
    "city": "Upper Papamoa",
    "city_zh": "Upper Papamoa",
    "country": "New Zealand",
    "country_zh": "紐西蘭",
    "country_iso_code": "NZ",
    "timezone": "Pacific/Auckland",
    "latitude": -37.76667,
    "longitude": 176.25
  },
  {
    "city": "Upper Moutere",
    "city_zh": "Upper Moutere",
    "country": "New Zealand",
    "country_zh": "紐西蘭",
    "country_iso_code": "NZ",
    "timezone": "Pacific/Auckland",
    "latitude": -41.26667,
    "longitude": 173.0
  },
  {
    "city": "Upper Kahui",
    "city_zh": "Upper Kahui",
    "country": "New Zealand",
    "country_zh": "紐西蘭",
    "country_iso_code": "NZ",
    "timezone": "Pacific/Auckland",
    "latitude": -39.31667,
    "longitude": 173.88333
  },
  {
    "city": "Upokopoito",
    "city_zh": "Upokopoito",
    "country": "New Zealand",
    "country_zh": "紐西蘭",
    "country_iso_code": "NZ",
    "timezone": "Pacific/Auckland",
    "latitude": -39.75,
    "longitude": 175.15
  },
  {
    "city": "Upokonui",
    "city_zh": "Upokonui",
    "country": "New Zealand",
    "country_zh": "紐西蘭",
    "country_iso_code": "NZ",
    "timezone": "Pacific/Auckland",
    "latitude": -39.78333,
    "longitude": 175.21667
  },
  {
    "city": "Upokongaro",
    "city_zh": "Upokongaro",
    "country": "New Zealand",
    "country_zh": "紐西蘭",
    "country_iso_code": "NZ",
    "timezone": "Pacific/Auckland",
    "latitude": -39.8657,
    "longitude": 175.1154
  },
  {
    "city": "Upcot",
    "city_zh": "Upcot",
    "country": "New Zealand",
    "country_zh": "紐西蘭",
    "country_iso_code": "NZ",
    "timezone": "Pacific/Auckland",
    "latitude": -41.9,
    "longitude": 173.58333
  },
  {
    "city": "Umutoi",
    "city_zh": "Umutoi",
    "country": "New Zealand",
    "country_zh": "紐西蘭",
    "country_iso_code": "NZ",
    "timezone": "Pacific/Auckland",
    "latitude": -40.0,
    "longitude": 175.96667
  },
  {
    "city": "Umukuri",
    "city_zh": "Umukuri",
    "country": "New Zealand",
    "country_zh": "紐西蘭",
    "country_iso_code": "NZ",
    "timezone": "Pacific/Auckland",
    "latitude": -41.08333,
    "longitude": 172.96667
  },
  {
    "city": "Umawera",
    "city_zh": "Umawera",
    "country": "New Zealand",
    "country_zh": "紐西蘭",
    "country_iso_code": "NZ",
    "timezone": "Pacific/Auckland",
    "latitude": -35.28333,
    "longitude": 173.58333
  },
  {
    "city": "Tututawa",
    "city_zh": "Tututawa",
    "country": "New Zealand",
    "country_zh": "紐西蘭",
    "country_iso_code": "NZ",
    "timezone": "Pacific/Auckland",
    "latitude": -39.31667,
    "longitude": 174.53333
  },
  {
    "city": "Tuturau",
    "city_zh": "Tuturau",
    "country": "New Zealand",
    "country_zh": "紐西蘭",
    "country_iso_code": "NZ",
    "timezone": "Pacific/Auckland",
    "latitude": -46.26667,
    "longitude": 168.83333
  },
  {
    "city": "Tutukaka",
    "city_zh": "Tutukaka",
    "country": "New Zealand",
    "country_zh": "紐西蘭",
    "country_iso_code": "NZ",
    "timezone": "Pacific/Auckland",
    "latitude": -35.6,
    "longitude": 174.53333
  },
  {
    "city": "Tutira",
    "city_zh": "Tutira",
    "country": "New Zealand",
    "country_zh": "紐西蘭",
    "country_iso_code": "NZ",
    "timezone": "Pacific/Auckland",
    "latitude": -39.2,
    "longitude": 176.86667
  },
  {
    "city": "Tutekehua",
    "city_zh": "Tutekehua",
    "country": "New Zealand",
    "country_zh": "紐西蘭",
    "country_iso_code": "NZ",
    "timezone": "Pacific/Auckland",
    "latitude": -35.26667,
    "longitude": 173.51667
  },
  {
    "city": "Tutamoe",
    "city_zh": "Tutamoe",
    "country": "New Zealand",
    "country_zh": "紐西蘭",
    "country_iso_code": "NZ",
    "timezone": "Pacific/Auckland",
    "latitude": -35.65,
    "longitude": 173.65
  },
  {
    "city": "Tutaki",
    "city_zh": "Tutaki",
    "country": "New Zealand",
    "country_zh": "紐西蘭",
    "country_iso_code": "NZ",
    "timezone": "Pacific/Auckland",
    "latitude": -41.81667,
    "longitude": 172.46667
  },
  {
    "city": "Tussock Creek",
    "city_zh": "Tussock Creek",
    "country": "New Zealand",
    "country_zh": "紐西蘭",
    "country_iso_code": "NZ",
    "timezone": "Pacific/Auckland",
    "latitude": -46.25,
    "longitude": 168.41667
  },
  {
    "city": "Turua",
    "city_zh": "Turua",
    "country": "New Zealand",
    "country_zh": "紐西蘭",
    "country_iso_code": "NZ",
    "timezone": "Pacific/Auckland",
    "latitude": -37.23333,
    "longitude": 175.56667
  },
  {
    "city": "Turiwhate",
    "city_zh": "Turiwhate",
    "country": "New Zealand",
    "country_zh": "紐西蘭",
    "country_iso_code": "NZ",
    "timezone": "Pacific/Auckland",
    "latitude": -42.73333,
    "longitude": 171.3
  },
  {
    "city": "Turiroa",
    "city_zh": "Turiroa",
    "country": "New Zealand",
    "country_zh": "紐西蘭",
    "country_iso_code": "NZ",
    "timezone": "Pacific/Auckland",
    "latitude": -39.01667,
    "longitude": 177.41667
  },
  {
    "city": "Turiapua",
    "city_zh": "Turiapua",
    "country": "New Zealand",
    "country_zh": "紐西蘭",
    "country_iso_code": "NZ",
    "timezone": "Pacific/Auckland",
    "latitude": -35.76667,
    "longitude": 174.45
  },
  {
    "city": "Turangi",
    "city_zh": "Turangi",
    "country": "New Zealand",
    "country_zh": "紐西蘭",
    "country_iso_code": "NZ",
    "timezone": "Pacific/Auckland",
    "latitude": -38.99037,
    "longitude": 175.80837
  },
  {
    "city": "Turakina South",
    "city_zh": "Turakina South",
    "country": "New Zealand",
    "country_zh": "紐西蘭",
    "country_iso_code": "NZ",
    "timezone": "Pacific/Auckland",
    "latitude": -40.05147,
    "longitude": 175.21876
  },
  {
    "city": "Turakina",
    "city_zh": "Turakina",
    "country": "New Zealand",
    "country_zh": "紐西蘭",
    "country_iso_code": "NZ",
    "timezone": "Pacific/Auckland",
    "latitude": -40.04703,
    "longitude": 175.21472
  },
  {
    "city": "Tuparoa",
    "city_zh": "Tuparoa",
    "country": "New Zealand",
    "country_zh": "紐西蘭",
    "country_iso_code": "NZ",
    "timezone": "Pacific/Auckland",
    "latitude": -37.91688,
    "longitude": 178.38655
  },
  {
    "city": "Tuna",
    "city_zh": "Tuna",
    "country": "New Zealand",
    "country_zh": "紐西蘭",
    "country_iso_code": "NZ",
    "timezone": "Pacific/Auckland",
    "latitude": -39.26795,
    "longitude": 174.29814
  },
  {
    "city": "Tumahu",
    "city_zh": "Tumahu",
    "country": "New Zealand",
    "country_zh": "紐西蘭",
    "country_iso_code": "NZ",
    "timezone": "Pacific/Auckland",
    "latitude": -39.25,
    "longitude": 173.91667
  },
  {
    "city": "Tui",
    "city_zh": "Tui",
    "country": "New Zealand",
    "country_zh": "紐西蘭",
    "country_iso_code": "NZ",
    "timezone": "Pacific/Auckland",
    "latitude": -41.53333,
    "longitude": 172.73333
  },
  {
    "city": "Tuhua",
    "city_zh": "Tuhua",
    "country": "New Zealand",
    "country_zh": "紐西蘭",
    "country_iso_code": "NZ",
    "timezone": "Pacific/Auckland",
    "latitude": -38.75,
    "longitude": 175.16667
  },
  {
    "city": "Tuhipa",
    "city_zh": "Tuhipa",
    "country": "New Zealand",
    "country_zh": "紐西蘭",
    "country_iso_code": "NZ",
    "timezone": "Pacific/Auckland",
    "latitude": -35.4,
    "longitude": 173.95
  },
  {
    "city": "Tuhara",
    "city_zh": "Tuhara",
    "country": "New Zealand",
    "country_zh": "紐西蘭",
    "country_iso_code": "NZ",
    "timezone": "Pacific/Auckland",
    "latitude": -39.03333,
    "longitude": 177.51667
  },
  {
    "city": "Tuatara",
    "city_zh": "Tuatara",
    "country": "New Zealand",
    "country_zh": "紐西蘭",
    "country_iso_code": "NZ",
    "timezone": "Pacific/Auckland",
    "latitude": -46.25,
    "longitude": 169.86667
  },
  {
    "city": "Tuatapere",
    "city_zh": "Tuatapere",
    "country": "New Zealand",
    "country_zh": "紐西蘭",
    "country_iso_code": "NZ",
    "timezone": "Pacific/Auckland",
    "latitude": -46.13333,
    "longitude": 167.68333
  },
  {
    "city": "Tuapeka West",
    "city_zh": "Tuapeka West",
    "country": "New Zealand",
    "country_zh": "紐西蘭",
    "country_iso_code": "NZ",
    "timezone": "Pacific/Auckland",
    "latitude": -45.93623,
    "longitude": 169.55149
  },
  {
    "city": "Tuapeka Mouth",
    "city_zh": "Tuapeka Mouth",
    "country": "New Zealand",
    "country_zh": "紐西蘭",
    "country_iso_code": "NZ",
    "timezone": "Pacific/Auckland",
    "latitude": -46.01667,
    "longitude": 169.51667
  },
  {
    "city": "Tuamarina",
    "city_zh": "Tuamarina",
    "country": "New Zealand",
    "country_zh": "紐西蘭",
    "country_iso_code": "NZ",
    "timezone": "Pacific/Auckland",
    "latitude": -41.43333,
    "longitude": 173.95
  },
  {
    "city": "Tuakau",
    "city_zh": "Tuakau",
    "country": "New Zealand",
    "country_zh": "紐西蘭",
    "country_iso_code": "NZ",
    "timezone": "Pacific/Auckland",
    "latitude": -37.27047,
    "longitude": 174.94384
  },
  {
    "city": "Tuai",
    "city_zh": "Tuai",
    "country": "New Zealand",
    "country_zh": "紐西蘭",
    "country_iso_code": "NZ",
    "timezone": "Pacific/Auckland",
    "latitude": -38.81667,
    "longitude": 177.16667
  },
  {
    "city": "Tuahiwi",
    "city_zh": "Tuahiwi",
    "country": "New Zealand",
    "country_zh": "紐西蘭",
    "country_iso_code": "NZ",
    "timezone": "Pacific/Auckland",
    "latitude": -43.33333,
    "longitude": 172.65
  },
  {
    "city": "Tryphena",
    "city_zh": "Tryphena",
    "country": "New Zealand",
    "country_zh": "紐西蘭",
    "country_iso_code": "NZ",
    "timezone": "Pacific/Auckland",
    "latitude": -36.30143,
    "longitude": 175.48934
  },
  {
    "city": "Trentham",
    "city_zh": "Trentham",
    "country": "New Zealand",
    "country_zh": "紐西蘭",
    "country_iso_code": "NZ",
    "timezone": "Pacific/Auckland",
    "latitude": -41.13333,
    "longitude": 175.03333
  },
  {
    "city": "Traquair",
    "city_zh": "Traquair",
    "country": "New Zealand",
    "country_zh": "紐西蘭",
    "country_iso_code": "NZ",
    "timezone": "Pacific/Auckland",
    "latitude": -45.81667,
    "longitude": 170.15
  },
  {
    "city": "Towai",
    "city_zh": "Towai",
    "country": "New Zealand",
    "country_zh": "紐西蘭",
    "country_iso_code": "NZ",
    "timezone": "Pacific/Auckland",
    "latitude": -35.48333,
    "longitude": 174.13333
  },
  {
    "city": "Totaranui",
    "city_zh": "Totaranui",
    "country": "New Zealand",
    "country_zh": "紐西蘭",
    "country_iso_code": "NZ",
    "timezone": "Pacific/Auckland",
    "latitude": -40.81667,
    "longitude": 173.0
  },
  {
    "city": "Totara North",
    "city_zh": "Totara North",
    "country": "New Zealand",
    "country_zh": "紐西蘭",
    "country_iso_code": "NZ",
    "timezone": "Pacific/Auckland",
    "latitude": -35.03333,
    "longitude": 173.71667
  },
  {
    "city": "Totara Flat",
    "city_zh": "Totara Flat",
    "country": "New Zealand",
    "country_zh": "紐西蘭",
    "country_iso_code": "NZ",
    "timezone": "Pacific/Auckland",
    "latitude": -42.3,
    "longitude": 171.61667
  },
  {
    "city": "Totara",
    "city_zh": "Totara",
    "country": "New Zealand",
    "country_zh": "紐西蘭",
    "country_iso_code": "NZ",
    "timezone": "Pacific/Auckland",
    "latitude": -45.13333,
    "longitude": 170.86667
  },
  {
    "city": "Tormore",
    "city_zh": "Tormore",
    "country": "New Zealand",
    "country_zh": "紐西蘭",
    "country_iso_code": "NZ",
    "timezone": "Pacific/Auckland",
    "latitude": -42.9,
    "longitude": 173.13333
  },
  {
    "city": "Torere",
    "city_zh": "Torere",
    "country": "New Zealand",
    "country_zh": "紐西蘭",
    "country_iso_code": "NZ",
    "timezone": "Pacific/Auckland",
    "latitude": -37.95,
    "longitude": 177.5
  },
  {
    "city": "Torehape",
    "city_zh": "Torehape",
    "country": "New Zealand",
    "country_zh": "紐西蘭",
    "country_iso_code": "NZ",
    "timezone": "Pacific/Auckland",
    "latitude": -37.35,
    "longitude": 175.41667
  },
  {
    "city": "Torbay",
    "city_zh": "Torbay",
    "country": "New Zealand",
    "country_zh": "紐西蘭",
    "country_iso_code": "NZ",
    "timezone": "Pacific/Auckland",
    "latitude": -36.69595,
    "longitude": 174.75124
  },
  {
    "city": "Topuni",
    "city_zh": "Topuni",
    "country": "New Zealand",
    "country_zh": "紐西蘭",
    "country_iso_code": "NZ",
    "timezone": "Pacific/Auckland",
    "latitude": -36.21667,
    "longitude": 174.46667
  },
  {
    "city": "Tongariro",
    "city_zh": "Tongariro",
    "country": "New Zealand",
    "country_zh": "紐西蘭",
    "country_iso_code": "NZ",
    "timezone": "Pacific/Auckland",
    "latitude": -39.03333,
    "longitude": 175.65
  },
  {
    "city": "Tongaporutu",
    "city_zh": "Tongaporutu",
    "country": "New Zealand",
    "country_zh": "紐西蘭",
    "country_iso_code": "NZ",
    "timezone": "Pacific/Auckland",
    "latitude": -38.8,
    "longitude": 174.6
  },
  {
    "city": "Tomoana",
    "city_zh": "Tomoana",
    "country": "New Zealand",
    "country_zh": "紐西蘭",
    "country_iso_code": "NZ",
    "timezone": "Pacific/Auckland",
    "latitude": -39.63333,
    "longitude": 176.86667
  },
  {
    "city": "Tolaga Bay",
    "city_zh": "Tolaga Bay",
    "country": "New Zealand",
    "country_zh": "紐西蘭",
    "country_iso_code": "NZ",
    "timezone": "Pacific/Auckland",
    "latitude": -38.36667,
    "longitude": 178.3
  },
  {
    "city": "Tokoroa",
    "city_zh": "Tokoroa",
    "country": "New Zealand",
    "country_zh": "紐西蘭",
    "country_iso_code": "NZ",
    "timezone": "Pacific/Auckland",
    "latitude": -38.23333,
    "longitude": 175.86667
  },
  {
    "city": "Tokomaru",
    "city_zh": "Tokomaru",
    "country": "New Zealand",
    "country_zh": "紐西蘭",
    "country_iso_code": "NZ",
    "timezone": "Pacific/Auckland",
    "latitude": -40.473,
    "longitude": 175.50934
  },
  {
    "city": "Tokomaru",
    "city_zh": "Tokomaru",
    "country": "New Zealand",
    "country_zh": "紐西蘭",
    "country_iso_code": "NZ",
    "timezone": "Pacific/Auckland",
    "latitude": -38.13333,
    "longitude": 178.3
  },
  {
    "city": "Tokoiti",
    "city_zh": "Tokoiti",
    "country": "New Zealand",
    "country_zh": "紐西蘭",
    "country_iso_code": "NZ",
    "timezone": "Pacific/Auckland",
    "latitude": -46.13333,
    "longitude": 170.0
  },
  {
    "city": "Toko",
    "city_zh": "Toko",
    "country": "New Zealand",
    "country_zh": "紐西蘭",
    "country_iso_code": "NZ",
    "timezone": "Pacific/Auckland",
    "latitude": -39.33333,
    "longitude": 174.4
  },
  {
    "city": "Tokirima",
    "city_zh": "Tokirima",
    "country": "New Zealand",
    "country_zh": "紐西蘭",
    "country_iso_code": "NZ",
    "timezone": "Pacific/Auckland",
    "latitude": -38.93333,
    "longitude": 175.01667
  },
  {
    "city": "Tokatoka",
    "city_zh": "Tokatoka",
    "country": "New Zealand",
    "country_zh": "紐西蘭",
    "country_iso_code": "NZ",
    "timezone": "Pacific/Auckland",
    "latitude": -36.05,
    "longitude": 173.96667
  },
  {
    "city": "Tokarahi",
    "city_zh": "Tokarahi",
    "country": "New Zealand",
    "country_zh": "紐西蘭",
    "country_iso_code": "NZ",
    "timezone": "Pacific/Auckland",
    "latitude": -44.95,
    "longitude": 170.65
  },
  {
    "city": "Tokanui",
    "city_zh": "Tokanui",
    "country": "New Zealand",
    "country_zh": "紐西蘭",
    "country_iso_code": "NZ",
    "timezone": "Pacific/Auckland",
    "latitude": -46.56667,
    "longitude": 168.93333
  },
  {
    "city": "Tokaanu",
    "city_zh": "Tokaanu",
    "country": "New Zealand",
    "country_zh": "紐西蘭",
    "country_iso_code": "NZ",
    "timezone": "Pacific/Auckland",
    "latitude": -38.96667,
    "longitude": 175.76667
  },
  {
    "city": "Toiro",
    "city_zh": "Toiro",
    "country": "New Zealand",
    "country_zh": "紐西蘭",
    "country_iso_code": "NZ",
    "timezone": "Pacific/Auckland",
    "latitude": -46.26667,
    "longitude": 169.65
  },
  {
    "city": "Toatoa",
    "city_zh": "Toatoa",
    "country": "New Zealand",
    "country_zh": "紐西蘭",
    "country_iso_code": "NZ",
    "timezone": "Pacific/Auckland",
    "latitude": -38.13333,
    "longitude": 177.5
  },
  {
    "city": "Toa",
    "city_zh": "Toa",
    "country": "New Zealand",
    "country_zh": "紐西蘭",
    "country_iso_code": "NZ",
    "timezone": "Pacific/Auckland",
    "latitude": -46.4,
    "longitude": 168.51667
  },
  {
    "city": "Titoki",
    "city_zh": "Titoki",
    "country": "New Zealand",
    "country_zh": "紐西蘭",
    "country_iso_code": "NZ",
    "timezone": "Pacific/Auckland",
    "latitude": -35.73333,
    "longitude": 174.05
  },
  {
    "city": "Titiroa",
    "city_zh": "Titiroa",
    "country": "New Zealand",
    "country_zh": "紐西蘭",
    "country_iso_code": "NZ",
    "timezone": "Pacific/Auckland",
    "latitude": -46.48333,
    "longitude": 168.76667
  },
  {
    "city": "Titirangi North",
    "city_zh": "Titirangi North",
    "country": "New Zealand",
    "country_zh": "紐西蘭",
    "country_iso_code": "NZ",
    "timezone": "Pacific/Auckland",
    "latitude": -36.92519,
    "longitude": 174.66279
  },
  {
    "city": "Titahi Bay",
    "city_zh": "Titahi Bay",
    "country": "New Zealand",
    "country_zh": "紐西蘭",
    "country_iso_code": "NZ",
    "timezone": "Pacific/Auckland",
    "latitude": -41.1,
    "longitude": 174.83333
  },
  {
    "city": "Tisbury",
    "city_zh": "Tisbury",
    "country": "New Zealand",
    "country_zh": "紐西蘭",
    "country_iso_code": "NZ",
    "timezone": "Pacific/Auckland",
    "latitude": -46.45,
    "longitude": 168.4
  },
  {
    "city": "Tiroroa",
    "city_zh": "Tiroroa",
    "country": "New Zealand",
    "country_zh": "紐西蘭",
    "country_iso_code": "NZ",
    "timezone": "Pacific/Auckland",
    "latitude": -41.83333,
    "longitude": 171.75
  },
  {
    "city": "Tiromoana",
    "city_zh": "Tiromoana",
    "country": "New Zealand",
    "country_zh": "紐西蘭",
    "country_iso_code": "NZ",
    "timezone": "Pacific/Auckland",
    "latitude": -42.03333,
    "longitude": 171.38333
  },
  {
    "city": "Tiromaunga",
    "city_zh": "Tiromaunga",
    "country": "New Zealand",
    "country_zh": "紐西蘭",
    "country_iso_code": "NZ",
    "timezone": "Pacific/Auckland",
    "latitude": -45.85,
    "longitude": 168.15
  },
  {
    "city": "Tirohia",
    "city_zh": "Tirohia",
    "country": "New Zealand",
    "country_zh": "紐西蘭",
    "country_iso_code": "NZ",
    "timezone": "Pacific/Auckland",
    "latitude": -37.43333,
    "longitude": 175.65
  },
  {
    "city": "Tiraumea",
    "city_zh": "Tiraumea",
    "country": "New Zealand",
    "country_zh": "紐西蘭",
    "country_iso_code": "NZ",
    "timezone": "Pacific/Auckland",
    "latitude": -40.63333,
    "longitude": 176.04557
  },
  {
    "city": "Tirau",
    "city_zh": "Tirau",
    "country": "New Zealand",
    "country_zh": "紐西蘭",
    "country_iso_code": "NZ",
    "timezone": "Pacific/Auckland",
    "latitude": -37.98333,
    "longitude": 175.75
  },
  {
    "city": "Tira-ora",
    "city_zh": "Tira-ora",
    "country": "New Zealand",
    "country_zh": "紐西蘭",
    "country_iso_code": "NZ",
    "timezone": "Pacific/Auckland",
    "latitude": -41.08333,
    "longitude": 173.86667
  },
  {
    "city": "Tinwald",
    "city_zh": "Tinwald",
    "country": "New Zealand",
    "country_zh": "紐西蘭",
    "country_iso_code": "NZ",
    "timezone": "Pacific/Auckland",
    "latitude": -43.91667,
    "longitude": 171.71667
  },
  {
    "city": "Tinui",
    "city_zh": "Tinui",
    "country": "New Zealand",
    "country_zh": "紐西蘭",
    "country_iso_code": "NZ",
    "timezone": "Pacific/Auckland",
    "latitude": -40.88333,
    "longitude": 176.06667
  },
  {
    "city": "Tinopai",
    "city_zh": "Tinopai",
    "country": "New Zealand",
    "country_zh": "紐西蘭",
    "country_iso_code": "NZ",
    "timezone": "Pacific/Auckland",
    "latitude": -36.25441,
    "longitude": 174.24608
  },
  {
    "city": "Tinline",
    "city_zh": "Tinline",
    "country": "New Zealand",
    "country_zh": "紐西蘭",
    "country_iso_code": "NZ",
    "timezone": "Pacific/Auckland",
    "latitude": -41.26667,
    "longitude": 173.5
  },
  {
    "city": "Tiniroto",
    "city_zh": "Tiniroto",
    "country": "New Zealand",
    "country_zh": "紐西蘭",
    "country_iso_code": "NZ",
    "timezone": "Pacific/Auckland",
    "latitude": -38.76667,
    "longitude": 177.56667
  },
  {
    "city": "Timaru",
    "city_zh": "提馬魯",
    "country": "New Zealand",
    "country_zh": "紐西蘭",
    "country_iso_code": "NZ",
    "timezone": "Pacific/Auckland",
    "latitude": -44.39672,
    "longitude": 171.25364
  },
  {
    "city": "Tikorangi",
    "city_zh": "Tikorangi",
    "country": "New Zealand",
    "country_zh": "紐西蘭",
    "country_iso_code": "NZ",
    "timezone": "Pacific/Auckland",
    "latitude": -39.03333,
    "longitude": 174.28333
  },
  {
    "city": "Tikokino",
    "city_zh": "Tikokino",
    "country": "New Zealand",
    "country_zh": "紐西蘭",
    "country_iso_code": "NZ",
    "timezone": "Pacific/Auckland",
    "latitude": -39.81667,
    "longitude": 176.45
  },
  {
    "city": "Tikitere",
    "city_zh": "Tikitere",
    "country": "New Zealand",
    "country_zh": "紐西蘭",
    "country_iso_code": "NZ",
    "timezone": "Pacific/Auckland",
    "latitude": -38.06667,
    "longitude": 176.36667
  },
  {
    "city": "Tikinui",
    "city_zh": "Tikinui",
    "country": "New Zealand",
    "country_zh": "紐西蘭",
    "country_iso_code": "NZ",
    "timezone": "Pacific/Auckland",
    "latitude": -36.13333,
    "longitude": 173.96667
  },
  {
    "city": "Tihaka",
    "city_zh": "Tihaka",
    "country": "New Zealand",
    "country_zh": "紐西蘭",
    "country_iso_code": "NZ",
    "timezone": "Pacific/Auckland",
    "latitude": -46.35439,
    "longitude": 167.93246
  },
  {
    "city": "Tiakitahuna",
    "city_zh": "Tiakitahuna",
    "country": "New Zealand",
    "country_zh": "紐西蘭",
    "country_iso_code": "NZ",
    "timezone": "Pacific/Auckland",
    "latitude": -40.4,
    "longitude": 175.5
  },
  {
    "city": "Ti Tree Point",
    "city_zh": "Ti Tree Point",
    "country": "New Zealand",
    "country_zh": "紐西蘭",
    "country_iso_code": "NZ",
    "timezone": "Pacific/Auckland",
    "latitude": -40.43699,
    "longitude": 176.40541
  },
  {
    "city": "Thorpe",
    "city_zh": "Thorpe",
    "country": "New Zealand",
    "country_zh": "紐西蘭",
    "country_iso_code": "NZ",
    "timezone": "Pacific/Auckland",
    "latitude": -41.28333,
    "longitude": 172.86667
  },
  {
    "city": "Thornton",
    "city_zh": "Thornton",
    "country": "New Zealand",
    "country_zh": "紐西蘭",
    "country_iso_code": "NZ",
    "timezone": "Pacific/Auckland",
    "latitude": -37.91667,
    "longitude": 176.86667
  },
  {
    "city": "Thornbury",
    "city_zh": "Thornbury",
    "country": "New Zealand",
    "country_zh": "紐西蘭",
    "country_iso_code": "NZ",
    "timezone": "Pacific/Auckland",
    "latitude": -46.28333,
    "longitude": 168.1
  },
  {
    "city": "The Reefs",
    "city_zh": "The Reefs",
    "country": "New Zealand",
    "country_zh": "紐西蘭",
    "country_iso_code": "NZ",
    "timezone": "Pacific/Auckland",
    "latitude": -45.63333,
    "longitude": 170.25
  },
  {
    "city": "The Key",
    "city_zh": "The Key",
    "country": "New Zealand",
    "country_zh": "紐西蘭",
    "country_iso_code": "NZ",
    "timezone": "Pacific/Auckland",
    "latitude": -45.55,
    "longitude": 167.9
  },
  {
    "city": "Te Whetu",
    "city_zh": "Te Whetu",
    "country": "New Zealand",
    "country_zh": "紐西蘭",
    "country_iso_code": "NZ",
    "timezone": "Pacific/Auckland",
    "latitude": -38.16667,
    "longitude": 175.95
  },
  {
    "city": "Te Whanga",
    "city_zh": "Te Whanga",
    "country": "New Zealand",
    "country_zh": "紐西蘭",
    "country_iso_code": "NZ",
    "timezone": "Pacific/Auckland",
    "latitude": -36.6,
    "longitude": 174.83333
  },
  {
    "city": "Te Whaiti",
    "city_zh": "Te Whaiti",
    "country": "New Zealand",
    "country_zh": "紐西蘭",
    "country_iso_code": "NZ",
    "timezone": "Pacific/Auckland",
    "latitude": -38.58333,
    "longitude": 176.78333
  },
  {
    "city": "Te Wera",
    "city_zh": "Te Wera",
    "country": "New Zealand",
    "country_zh": "紐西蘭",
    "country_iso_code": "NZ",
    "timezone": "Pacific/Auckland",
    "latitude": -39.239,
    "longitude": 174.58404
  },
  {
    "city": "Te Weka",
    "city_zh": "Te Weka",
    "country": "New Zealand",
    "country_zh": "紐西蘭",
    "country_iso_code": "NZ",
    "timezone": "Pacific/Auckland",
    "latitude": -41.25,
    "longitude": 174.2
  },
  {
    "city": "Te Waotu",
    "city_zh": "Te Waotu",
    "country": "New Zealand",
    "country_zh": "紐西蘭",
    "country_iso_code": "NZ",
    "timezone": "Pacific/Auckland",
    "latitude": -38.15,
    "longitude": 175.7
  },
  {
    "city": "Te Waitere",
    "city_zh": "Te Waitere",
    "country": "New Zealand",
    "country_zh": "紐西蘭",
    "country_iso_code": "NZ",
    "timezone": "Pacific/Auckland",
    "latitude": -38.13776,
    "longitude": 174.82205
  },
  {
    "city": "Te Waewae",
    "city_zh": "Te Waewae",
    "country": "New Zealand",
    "country_zh": "紐西蘭",
    "country_iso_code": "NZ",
    "timezone": "Pacific/Auckland",
    "latitude": -46.2,
    "longitude": 167.66667
  },
  {
    "city": "Te Uku",
    "city_zh": "Te Uku",
    "country": "New Zealand",
    "country_zh": "紐西蘭",
    "country_iso_code": "NZ",
    "timezone": "Pacific/Auckland",
    "latitude": -37.83333,
    "longitude": 174.96667
  },
  {
    "city": "Te Tua",
    "city_zh": "Te Tua",
    "country": "New Zealand",
    "country_zh": "紐西蘭",
    "country_iso_code": "NZ",
    "timezone": "Pacific/Auckland",
    "latitude": -46.16667,
    "longitude": 167.68333
  },
  {
    "city": "Te Tawa",
    "city_zh": "Te Tawa",
    "country": "New Zealand",
    "country_zh": "紐西蘭",
    "country_iso_code": "NZ",
    "timezone": "Pacific/Auckland",
    "latitude": -39.18333,
    "longitude": 174.21667
  },
  {
    "city": "Te Taho",
    "city_zh": "Te Taho",
    "country": "New Zealand",
    "country_zh": "紐西蘭",
    "country_iso_code": "NZ",
    "timezone": "Pacific/Auckland",
    "latitude": -43.21667,
    "longitude": 170.43333
  },
  {
    "city": "Te Rou",
    "city_zh": "Te Rou",
    "country": "New Zealand",
    "country_zh": "紐西蘭",
    "country_iso_code": "NZ",
    "timezone": "Pacific/Auckland",
    "latitude": -41.56667,
    "longitude": 173.46667
  },
  {
    "city": "Te Roti",
    "city_zh": "Te Roti",
    "country": "New Zealand",
    "country_zh": "紐西蘭",
    "country_iso_code": "NZ",
    "timezone": "Pacific/Auckland",
    "latitude": -39.48333,
    "longitude": 174.26667
  },
  {
    "city": "Te Rerenga",
    "city_zh": "Te Rerenga",
    "country": "New Zealand",
    "country_zh": "紐西蘭",
    "country_iso_code": "NZ",
    "timezone": "Pacific/Auckland",
    "latitude": -36.75,
    "longitude": 175.6
  },
  {
    "city": "Te Rehunga",
    "city_zh": "Te Rehunga",
    "country": "New Zealand",
    "country_zh": "紐西蘭",
    "country_iso_code": "NZ",
    "timezone": "Pacific/Auckland",
    "latitude": -40.22011,
    "longitude": 176.01293
  },
  {
    "city": "Te Rawa",
    "city_zh": "Te Rawa",
    "country": "New Zealand",
    "country_zh": "紐西蘭",
    "country_iso_code": "NZ",
    "timezone": "Pacific/Auckland",
    "latitude": -41.06667,
    "longitude": 173.9
  },
  {
    "city": "Te Rauamoa",
    "city_zh": "Te Rauamoa",
    "country": "New Zealand",
    "country_zh": "紐西蘭",
    "country_iso_code": "NZ",
    "timezone": "Pacific/Auckland",
    "latitude": -38.08333,
    "longitude": 175.05
  },
  {
    "city": "Te Rapa",
    "city_zh": "Te Rapa",
    "country": "New Zealand",
    "country_zh": "紐西蘭",
    "country_iso_code": "NZ",
    "timezone": "Pacific/Auckland",
    "latitude": -37.75,
    "longitude": 175.21667
  },
  {
    "city": "Te Ranga",
    "city_zh": "Te Ranga",
    "country": "New Zealand",
    "country_zh": "紐西蘭",
    "country_iso_code": "NZ",
    "timezone": "Pacific/Auckland",
    "latitude": -39.3,
    "longitude": 175.2
  },