[
  {
    "city": "Zoutinga",
    "city_zh": "Zoutinga",
    "country": "Central African Republic",
    "country_zh": "中非共和國",
    "country_iso_code": "CF",
    "timezone": "Africa/Bangui",
    "latitude": 5.44235,
    "longitude": 20.86636
  },
  {
    "city": "Zourou",
    "city_zh": "Zourou",
    "country": "Central African Republic",
    "country_zh": "中非共和國",
    "country_iso_code": "CF",
    "timezone": "Africa/Bangui",
    "latitude": 6.27691,
    "longitude": 20.00928
  },
  {
    "city": "Zouniaka",
    "city_zh": "Zouniaka",
    "country": "Central African Republic",
    "country_zh": "中非共和國",
    "country_iso_code": "CF",
    "timezone": "Africa/Bangui",
    "latitude": 5.43341,
    "longitude": 20.09098
  },
  {
    "city": "Zoungouyassi",
    "city_zh": "Zoungouyassi",
    "country": "Central African Republic",
    "country_zh": "中非共和國",
    "country_iso_code": "CF",
    "timezone": "Africa/Bangui",
    "latitude": 5.59969,
    "longitude": 20.05489
  },
  {
    "city": "Zoungakpio",
    "city_zh": "Zoungakpio",
    "country": "Central African Republic",
    "country_zh": "中非共和國",
    "country_iso_code": "CF",
    "timezone": "Africa/Bangui",
    "latitude": 5.21309,
    "longitude": 26.65993
  },
  {
    "city": "Zounga",
    "city_zh": "Zounga",
    "country": "Central African Republic",
    "country_zh": "中非共和國",
    "country_iso_code": "CF",
    "timezone": "Africa/Bangui",
    "latitude": 6.00831,
    "longitude": 25.73404
  },
  {
    "city": "Zoundouli",
    "city_zh": "Zoundouli",
    "country": "Central African Republic",
    "country_zh": "中非共和國",
    "country_iso_code": "CF",
    "timezone": "Africa/Bangui",
    "latitude": 5.06454,
    "longitude": 22.44946
  },
  {
    "city": "Zoumangwa",
    "city_zh": "Zoumangwa",
    "country": "Central African Republic",
    "country_zh": "中非共和國",
    "country_iso_code": "CF",
    "timezone": "Africa/Bangui",
    "latitude": 4.41667,
    "longitude": 21.26667
  },
  {
    "city": "Zoumanga",
    "city_zh": "Zoumanga",
    "country": "Central African Republic",
    "country_zh": "中非共和國",
    "country_iso_code": "CF",
    "timezone": "Africa/Bangui",
    "latitude": 4.53333,
    "longitude": 21.4
  },
  {
    "city": "Zoumako",
    "city_zh": "Zoumako",
    "country": "Central African Republic",
    "country_zh": "中非共和國",
    "country_iso_code": "CF",
    "timezone": "Africa/Bangui",
    "latitude": 6.01667,
    "longitude": 21.4
  },
  {
    "city": "Zoulouma",
    "city_zh": "Zoulouma",
    "country": "Central African Republic",
    "country_zh": "中非共和國",
    "country_iso_code": "CF",
    "timezone": "Africa/Bangui",
    "latitude": 5.39545,
    "longitude": 20.9982
  },
  {
    "city": "Zoula",
    "city_zh": "Zoula",
    "country": "Central African Republic",
    "country_zh": "中非共和國",
    "country_iso_code": "CF",
    "timezone": "Africa/Bangui",
    "latitude": 5.18333,
    "longitude": 21.78333
  },
  {
    "city": "Zoula",
    "city_zh": "Zoula",
    "country": "Central African Republic",
    "country_zh": "中非共和國",
    "country_iso_code": "CF",
    "timezone": "Africa/Bangui",
    "latitude": 5.10016,
    "longitude": 21.77426
  },
  {
    "city": "Zoula",
    "city_zh": "Zoula",
    "country": "Central African Republic",
    "country_zh": "中非共和國",
    "country_iso_code": "CF",
    "timezone": "Africa/Bangui",
    "latitude": 4.49443,
    "longitude": 20.91592
  },
  {
    "city": "Zoukoutoumiala",
    "city_zh": "Zoukoutoumiala",
    "country": "Central African Republic",
    "country_zh": "中非共和國",
    "country_iso_code": "CF",
    "timezone": "Africa/Bangui",
    "latitude": 8.54956,
    "longitude": 20.61214
  },
  {
    "city": "Zouhouli",
    "city_zh": "Zouhouli",
    "country": "Central African Republic",
    "country_zh": "中非共和國",
    "country_iso_code": "CF",
    "timezone": "Africa/Bangui",
    "latitude": 4.53333,
    "longitude": 21.38333
  },
  {
    "city": "Zouhou",
    "city_zh": "Zouhou",
    "country": "Central African Republic",
    "country_zh": "中非共和國",
    "country_iso_code": "CF",
    "timezone": "Africa/Bangui",
    "latitude": 4.97651,
    "longitude": 20.06338
  },
  {
    "city": "Zougo",
    "city_zh": "Zougo",
    "country": "Central African Republic",
    "country_zh": "中非共和國",
    "country_iso_code": "CF",
    "timezone": "Africa/Bangui",
    "latitude": 5.3,
    "longitude": 26.55
  },
  {
    "city": "Zouginindja",
    "city_zh": "Zouginindja",
    "country": "Central African Republic",
    "country_zh": "中非共和國",
    "country_iso_code": "CF",
    "timezone": "Africa/Bangui",
    "latitude": 5.40536,
    "longitude": 21.67491
  },
  {
    "city": "Zougao",
    "city_zh": "Zougao",
    "country": "Central African Republic",
    "country_zh": "中非共和國",
    "country_iso_code": "CF",
    "timezone": "Africa/Bangui",
    "latitude": 5.10071,
    "longitude": 21.07706
  },
  {
    "city": "Zoubingui",
    "city_zh": "Zoubingui",
    "country": "Central African Republic",
    "country_zh": "中非共和國",
    "country_iso_code": "CF",
    "timezone": "Africa/Bangui",
    "latitude": 6.18333,
    "longitude": 21.26667
  },
  {
    "city": "Zouasa",
    "city_zh": "Zouasa",
    "country": "Central African Republic",
    "country_zh": "中非共和國",
    "country_iso_code": "CF",
    "timezone": "Africa/Bangui",
    "latitude": 5.41667,
    "longitude": 26.46667
  },
  {
    "city": "Zongo",
    "city_zh": "Zongo",
    "country": "Central African Republic",
    "country_zh": "中非共和國",
    "country_iso_code": "CF",
    "timezone": "Africa/Bangui",
    "latitude": 5.11093,
    "longitude": 22.77904
  },
  {
    "city": "Zobé",
    "city_zh": "Zobé",
    "country": "Central African Republic",
    "country_zh": "中非共和國",
    "country_iso_code": "CF",
    "timezone": "Africa/Bangui",
    "latitude": 5.35,
    "longitude": 23.55
  },
  {
    "city": "Zipo",
    "city_zh": "Zipo",
    "country": "Central African Republic",
    "country_zh": "中非共和國",
    "country_iso_code": "CF",
    "timezone": "Africa/Bangui",
    "latitude": 4.82586,
    "longitude": 22.75351
  },
  {
    "city": "Zingo Dwete",
    "city_zh": "Zingo Dwete",
    "country": "Central African Republic",
    "country_zh": "中非共和國",
    "country_iso_code": "CF",
    "timezone": "Africa/Bangui",
    "latitude": 5.36667,
    "longitude": 26.96667
  },
  {
    "city": "Zinga",
    "city_zh": "Zinga",
    "country": "Central African Republic",
    "country_zh": "中非共和國",
    "country_iso_code": "CF",
    "timezone": "Africa/Bangui",
    "latitude": 5.36667,
    "longitude": 27.0
  },
  {
    "city": "Zinda",
    "city_zh": "Zinda",
    "country": "Central African Republic",
    "country_zh": "中非共和國",
    "country_iso_code": "CF",
    "timezone": "Africa/Bangui",
    "latitude": 5.16667,
    "longitude": 21.78333
  },
  {
    "city": "Zinda",
    "city_zh": "Zinda",
    "country": "Central African Republic",
    "country_zh": "中非共和國",
    "country_iso_code": "CF",
    "timezone": "Africa/Bangui",
    "latitude": 4.57831,
    "longitude": 21.28447
  },
  {
    "city": "Zimé",
    "city_zh": "Zimé",
    "country": "Central African Republic",
    "country_zh": "中非共和國",
    "country_iso_code": "CF",
    "timezone": "Africa/Bangui",
    "latitude": 5.68839,
    "longitude": 22.84685
  },
  {
    "city": "Zimé",
    "city_zh": "Zimé",
    "country": "Central African Republic",
    "country_zh": "中非共和國",
    "country_iso_code": "CF",
    "timezone": "Africa/Bangui",
    "latitude": 4.68639,
    "longitude": 23.24323
  },
  {
    "city": "Zimbia",
    "city_zh": "Zimbia",
    "country": "Central African Republic",
    "country_zh": "中非共和國",
    "country_iso_code": "CF",
    "timezone": "Africa/Bangui",
    "latitude": 6.81667,
    "longitude": 20.61667
  },
  {
    "city": "Ziko",
    "city_zh": "Ziko",
    "country": "Central African Republic",
    "country_zh": "中非共和國",
    "country_iso_code": "CF",
    "timezone": "Africa/Bangui",
    "latitude": 4.2654,
    "longitude": 22.02356
  },
  {
    "city": "Zenie",
    "city_zh": "Zenie",
    "country": "Central African Republic",
    "country_zh": "中非共和國",
    "country_iso_code": "CF",
    "timezone": "Africa/Bangui",
    "latitude": 4.36667,
    "longitude": 21.15
  },
  {
    "city": "Zenia",
    "city_zh": "Zenia",
    "country": "Central African Republic",
    "country_zh": "中非共和國",
    "country_iso_code": "CF",
    "timezone": "Africa/Bangui",
    "latitude": 4.45,
    "longitude": 21.13333
  },
  {
    "city": "Zemio",
    "city_zh": "Zemio",
    "country": "Central African Republic",
    "country_zh": "中非共和國",
    "country_iso_code": "CF",
    "timezone": "Africa/Bangui",
    "latitude": 5.03144,
    "longitude": 25.13614
  },
  {
    "city": "Zazigba",
    "city_zh": "Zazigba",
    "country": "Central African Republic",
    "country_zh": "中非共和國",
    "country_iso_code": "CF",
    "timezone": "Africa/Bangui",
    "latitude": 5.89271,
    "longitude": 21.11905
  },
  {
    "city": "Zaoka",
    "city_zh": "Zaoka",
    "country": "Central African Republic",
    "country_zh": "中非共和國",
    "country_iso_code": "CF",
    "timezone": "Africa/Bangui",
    "latitude": 5.69789,
    "longitude": 21.60698
  },
  {
    "city": "Zangba",
    "city_zh": "Zangba",
    "country": "Central African Republic",
    "country_zh": "中非共和國",
    "country_iso_code": "CF",
    "timezone": "Africa/Bangui",
    "latitude": 4.448,
    "longitude": 20.98703
  },
  {
    "city": "Zangandou",
    "city_zh": "Zangandou",
    "country": "Central African Republic",
    "country_zh": "中非共和國",
    "country_iso_code": "CF",
    "timezone": "Africa/Bangui",
    "latitude": 4.76735,
    "longitude": 22.85134
  },
  {
    "city": "Zanbour",
    "city_zh": "Zanbour",
    "country": "Central African Republic",
    "country_zh": "中非共和國",
    "country_iso_code": "CF",
    "timezone": "Africa/Bangui",
    "latitude": 5.91667,
    "longitude": 25.0
  },
  {
    "city": "Zambourou",
    "city_zh": "Zambourou",
    "country": "Central African Republic",
    "country_zh": "中非共和國",
    "country_iso_code": "CF",
    "timezone": "Africa/Bangui",
    "latitude": 6.05,
    "longitude": 24.75
  },
  {
    "city": "Zambé",
    "city_zh": "Zambé",
    "country": "Central African Republic",
    "country_zh": "中非共和國",
    "country_iso_code": "CF",
    "timezone": "Africa/Bangui",
    "latitude": 5.58333,
    "longitude": 22.01667
  },
  {
    "city": "Zamba",
    "city_zh": "Zamba",
    "country": "Central African Republic",
    "country_zh": "中非共和國",
    "country_iso_code": "CF",
    "timezone": "Africa/Bangui",
    "latitude": 4.48333,
    "longitude": 20.93333
  },
  {
    "city": "Zamahou",
    "city_zh": "Zamahou",
    "country": "Central African Republic",
    "country_zh": "中非共和國",
    "country_iso_code": "CF",
    "timezone": "Africa/Bangui",
    "latitude": 5.8983,
    "longitude": 21.12626
  },
  {
    "city": "Zalo",
    "city_zh": "Zalo",
    "country": "Central African Republic",
    "country_zh": "中非共和國",
    "country_iso_code": "CF",
    "timezone": "Africa/Bangui",
    "latitude": 4.24957,
    "longitude": 22.53617
  },
  {
    "city": "Zakoza",
    "city_zh": "Zakoza",
    "country": "Central African Republic",
    "country_zh": "中非共和國",
    "country_iso_code": "CF",
    "timezone": "Africa/Bangui",
    "latitude": 5.6,
    "longitude": 20.05
  },
  {
    "city": "Zagoua",
    "city_zh": "Zagoua",
    "country": "Central African Republic",
    "country_zh": "中非共和國",
    "country_iso_code": "CF",
    "timezone": "Africa/Bangui",
    "latitude": 5.76797,
    "longitude": 20.14236
  },
  {
    "city": "Zabé",
    "city_zh": "Zabé",
    "country": "Central African Republic",
    "country_zh": "中非共和國",
    "country_iso_code": "CF",
    "timezone": "Africa/Bangui",
    "latitude": 5.86233,
    "longitude": 22.22062
  },
  {
    "city": "Younga",
    "city_zh": "Younga",
    "country": "Central African Republic",
    "country_zh": "中非共和國",
    "country_iso_code": "CF",
    "timezone": "Africa/Bangui",
    "latitude": 4.53328,
    "longitude": 20.86207
  },
  {
    "city": "Youkou",
    "city_zh": "Youkou",
    "country": "Central African Republic",
    "country_zh": "中非共和國",
    "country_iso_code": "CF",
    "timezone": "Africa/Bangui",
    "latitude": 4.93333,
    "longitude": 21.15
  },
  {
    "city": "Youhamba",
    "city_zh": "Youhamba",
    "country": "Central African Republic",
    "country_zh": "中非共和國",
    "country_iso_code": "CF",
    "timezone": "Africa/Bangui",
    "latitude": 7.23333,
    "longitude": 20.95
  },
  {
    "city": "Yota",
    "city_zh": "Yota",
    "country": "Central African Republic",
    "country_zh": "中非共和國",
    "country_iso_code": "CF",
    "timezone": "Africa/Bangui",
    "latitude": 4.83492,
    "longitude": 21.34543
  },
  {
    "city": "Yongofongo",
    "city_zh": "Yongofongo",
    "country": "Central African Republic",
    "country_zh": "中非共和國",
    "country_iso_code": "CF",
    "timezone": "Africa/Bangui",
    "latitude": 4.84726,
    "longitude": 22.97674
  },
  {
    "city": "Yongo Bereke",
    "city_zh": "Yongo Bereke",
    "country": "Central African Republic",
    "country_zh": "中非共和國",
    "country_iso_code": "CF",
    "timezone": "Africa/Bangui",
    "latitude": 5.43055,
    "longitude": 23.29765
  },
  {
    "city": "Yombo Bac",
    "city_zh": "Yombo Bac",
    "country": "Central African Republic",
    "country_zh": "中非共和國",
    "country_iso_code": "CF",
    "timezone": "Africa/Bangui",
    "latitude": 7.19305,
    "longitude": 20.00597
  },
  {
    "city": "Yetomane",
    "city_zh": "Yetomane",
    "country": "Central African Republic",
    "country_zh": "中非共和國",
    "country_iso_code": "CF",
    "timezone": "Africa/Bangui",
    "latitude": 6.2758,
    "longitude": 21.18643
  },
  {
    "city": "Yeré",
    "city_zh": "Yeré",
    "country": "Central African Republic",
    "country_zh": "中非共和國",
    "country_iso_code": "CF",
    "timezone": "Africa/Bangui",
    "latitude": 4.55333,
    "longitude": 20.60004
  },
  {
    "city": "Yéoua",
    "city_zh": "Yéoua",
    "country": "Central African Republic",
    "country_zh": "中非共和國",
    "country_iso_code": "CF",
    "timezone": "Africa/Bangui",
    "latitude": 4.33333,
    "longitude": 21.68333
  },
  {
    "city": "Yenguere",
    "city_zh": "Yenguere",
    "country": "Central African Republic",
    "country_zh": "中非共和國",
    "country_iso_code": "CF",
    "timezone": "Africa/Bangui",
    "latitude": 4.3,
    "longitude": 21.95
  },
  {
    "city": "Yengué",
    "city_zh": "Yengué",
    "country": "Central African Republic",
    "country_zh": "中非共和國",
    "country_iso_code": "CF",
    "timezone": "Africa/Bangui",
    "latitude": 4.64212,
    "longitude": 21.95166
  },
  {
    "city": "Yedingué",
    "city_zh": "Yedingué",
    "country": "Central African Republic",
    "country_zh": "中非共和國",
    "country_iso_code": "CF",
    "timezone": "Africa/Bangui",
    "latitude": 5.36667,
    "longitude": 20.13333
  },
  {
    "city": "Yawada",
    "city_zh": "Yawada",
    "country": "Central African Republic",
    "country_zh": "中非共和國",
    "country_iso_code": "CF",
    "timezone": "Africa/Bangui",
    "latitude": 6.03333,
    "longitude": 25.18333
  },
  {
    "city": "Yatigandza",
    "city_zh": "Yatigandza",
    "country": "Central African Republic",
    "country_zh": "中非共和國",
    "country_iso_code": "CF",
    "timezone": "Africa/Bangui",
    "latitude": 5.44747,
    "longitude": 20.33091
  },
  {
    "city": "Yatchi",
    "city_zh": "Yatchi",
    "country": "Central African Republic",
    "country_zh": "中非共和國",
    "country_iso_code": "CF",
    "timezone": "Africa/Bangui",
    "latitude": 4.33333,
    "longitude": 21.68333
  },
  {
    "city": "Yatagba",
    "city_zh": "Yatagba",
    "country": "Central African Republic",
    "country_zh": "中非共和國",
    "country_iso_code": "CF",
    "timezone": "Africa/Bangui",
    "latitude": 5.48333,
    "longitude": 21.91667
  },
  {
    "city": "Yassibazanga",
    "city_zh": "Yassibazanga",
    "country": "Central African Republic",
    "country_zh": "中非共和國",
    "country_iso_code": "CF",
    "timezone": "Africa/Bangui",
    "latitude": 6.2,
    "longitude": 20.31667
  },
  {
    "city": "Yassezo II",
    "city_zh": "Yassezo II",
    "country": "Central African Republic",
    "country_zh": "中非共和國",
    "country_iso_code": "CF",
    "timezone": "Africa/Bangui",
    "latitude": 6.44268,
    "longitude": 21.99454
  },
  {
    "city": "Yaraoua",
    "city_zh": "Yaraoua",
    "country": "Central African Republic",
    "country_zh": "中非共和國",
    "country_iso_code": "CF",
    "timezone": "Africa/Bangui",
    "latitude": 5.99457,
    "longitude": 20.73975
  },
  {
    "city": "Yapiya",
    "city_zh": "Yapiya",
    "country": "Central African Republic",
    "country_zh": "中非共和國",
    "country_iso_code": "CF",
    "timezone": "Africa/Bangui",
    "latitude": 5.60883,
    "longitude": 21.6474
  },
  {
    "city": "Yapassira",
    "city_zh": "Yapassira",
    "country": "Central African Republic",
    "country_zh": "中非共和國",
    "country_iso_code": "CF",
    "timezone": "Africa/Bangui",
    "latitude": 5.16667,
    "longitude": 26.53333
  },
  {
    "city": "Yaoudda",
    "city_zh": "Yaoudda",
    "country": "Central African Republic",
    "country_zh": "中非共和國",
    "country_iso_code": "CF",
    "timezone": "Africa/Bangui",
    "latitude": 6.46667,
    "longitude": 25.35
  },
  {
    "city": "Yao",
    "city_zh": "Yao",
    "country": "Central African Republic",
    "country_zh": "中非共和國",
    "country_iso_code": "CF",
    "timezone": "Africa/Bangui",
    "latitude": 4.68333,
    "longitude": 21.0
  },
  {
    "city": "Yangouvé",
    "city_zh": "Yangouvé",
    "country": "Central African Republic",
    "country_zh": "中非共和國",
    "country_iso_code": "CF",
    "timezone": "Africa/Bangui",
    "latitude": 7.16667,
    "longitude": 20.0
  },
  {
    "city": "Yangoumia",
    "city_zh": "Yangoumia",
    "country": "Central African Republic",
    "country_zh": "中非共和國",
    "country_iso_code": "CF",
    "timezone": "Africa/Bangui",
    "latitude": 6.48333,
    "longitude": 22.7
  },
  {
    "city": "Yangoumara",
    "city_zh": "Yangoumara",
    "country": "Central African Republic",
    "country_zh": "中非共和國",
    "country_iso_code": "CF",
    "timezone": "Africa/Bangui",
    "latitude": 5.65,
    "longitude": 20.5
  },
  {
    "city": "Yangoumandji",
    "city_zh": "Yangoumandji",
    "country": "Central African Republic",
    "country_zh": "中非共和國",
    "country_iso_code": "CF",
    "timezone": "Africa/Bangui",
    "latitude": 5.9274,
    "longitude": 20.13612
  },
  {
    "city": "Yangouléka",
    "city_zh": "Yangouléka",
    "country": "Central African Republic",
    "country_zh": "中非共和國",
    "country_iso_code": "CF",
    "timezone": "Africa/Bangui",
    "latitude": 7.30553,
    "longitude": 20.13544
  },
  {
    "city": "Yangoulando",
    "city_zh": "Yangoulando",
    "country": "Central African Republic",
    "country_zh": "中非共和國",
    "country_iso_code": "CF",
    "timezone": "Africa/Bangui",
    "latitude": 6.78333,
    "longitude": 22.21667
  },
  {
    "city": "Yangou Kono",
    "city_zh": "Yangou Kono",
    "country": "Central African Republic",
    "country_zh": "中非共和國",
    "country_iso_code": "CF",
    "timezone": "Africa/Bangui",
    "latitude": 5.95,
    "longitude": 22.86667
  },
  {
    "city": "Yangou Gongo",
    "city_zh": "Yangou Gongo",
    "country": "Central African Republic",
    "country_zh": "中非共和國",
    "country_iso_code": "CF",
    "timezone": "Africa/Bangui",
    "latitude": 7.43333,
    "longitude": 20.18333
  },
  {
    "city": "Yangou Gala",
    "city_zh": "Yangou Gala",
    "country": "Central African Republic",
    "country_zh": "中非共和國",
    "country_iso_code": "CF",
    "timezone": "Africa/Bangui",
    "latitude": 7.4,
    "longitude": 20.18333
  },
  {
    "city": "Yangou Ndarsa",
    "city_zh": "Yangou Ndarsa",
    "country": "Central African Republic",
    "country_zh": "中非共和國",
    "country_iso_code": "CF",
    "timezone": "Africa/Bangui",
    "latitude": 8.44995,
    "longitude": 20.56975
  },
  {
    "city": "Yangou Birolo",
    "city_zh": "Yangou Birolo",
    "country": "Central African Republic",
    "country_zh": "中非共和國",
    "country_iso_code": "CF",
    "timezone": "Africa/Bangui",
    "latitude": 7.3,
    "longitude": 20.13333
  },
  {
    "city": "Yangoa",
    "city_zh": "Yangoa",
    "country": "Central African Republic",
    "country_zh": "中非共和國",
    "country_iso_code": "CF",
    "timezone": "Africa/Bangui",
    "latitude": 6.2,
    "longitude": 20.45
  },
  {
    "city": "Yango",
    "city_zh": "Yango",
    "country": "Central African Republic",
    "country_zh": "中非共和國",
    "country_iso_code": "CF",
    "timezone": "Africa/Bangui",
    "latitude": 6.6,
    "longitude": 20.51667
  },
  {
    "city": "Yangao",
    "city_zh": "Yangao",
    "country": "Central African Republic",
    "country_zh": "中非共和國",
    "country_iso_code": "CF",
    "timezone": "Africa/Bangui",
    "latitude": 5.38333,
    "longitude": 20.08333
  },
  {
    "city": "Yangalia",
    "city_zh": "Yangalia",
    "country": "Central African Republic",
    "country_zh": "中非共和國",
    "country_iso_code": "CF",
    "timezone": "Africa/Bangui",
    "latitude": 6.97477,
    "longitude": 21.02723
  },
  {
    "city": "Yananguéré",
    "city_zh": "Yananguéré",
    "country": "Central African Republic",
    "country_zh": "中非共和國",
    "country_iso_code": "CF",
    "timezone": "Africa/Bangui",
    "latitude": 6.18333,
    "longitude": 20.78333
  },
  {
    "city": "Yamindou",
    "city_zh": "Yamindou",
    "country": "Central African Republic",
    "country_zh": "中非共和國",
    "country_iso_code": "CF",
    "timezone": "Africa/Bangui",
    "latitude": 6.19912,
    "longitude": 20.46021
  },
  {
    "city": "Yamendé",
    "city_zh": "Yamendé",
    "country": "Central African Republic",
    "country_zh": "中非共和國",
    "country_iso_code": "CF",
    "timezone": "Africa/Bangui",
    "latitude": 5.66667,
    "longitude": 20.71667
  },
  {
    "city": "Yambassa",
    "city_zh": "Yambassa",
    "country": "Central African Republic",
    "country_zh": "中非共和國",
    "country_iso_code": "CF",
    "timezone": "Africa/Bangui",
    "latitude": 6.30476,
    "longitude": 21.33206
  },
  {
    "city": "Yambassa",
    "city_zh": "Yambassa",
    "country": "Central African Republic",
    "country_zh": "中非共和國",
    "country_iso_code": "CF",
    "timezone": "Africa/Bangui",
    "latitude": 6.19944,
    "longitude": 20.22098
  },
  {
    "city": "Yambala Koudouvélé",
    "city_zh": "Yambala Koudouvélé",
    "country": "Central African Republic",
    "country_zh": "中非共和國",
    "country_iso_code": "CF",
    "timezone": "Africa/Bangui",
    "latitude": 7.23755,
    "longitude": 20.04941
  },
  {
    "city": "Yambala Magonda",
    "city_zh": "Yambala Magonda",
    "country": "Central African Republic",
    "country_zh": "中非共和國",
    "country_iso_code": "CF",
    "timezone": "Africa/Bangui",
    "latitude": 7.76743,
    "longitude": 20.22014
  },
  {
    "city": "Yamali",
    "city_zh": "Yamali",
    "country": "Central African Republic",
    "country_zh": "中非共和國",
    "country_iso_code": "CF",
    "timezone": "Africa/Bangui",
    "latitude": 5.96547,
    "longitude": 20.53104
  },
  {
    "city": "Yama",
    "city_zh": "Yama",
    "country": "Central African Republic",
    "country_zh": "中非共和國",
    "country_iso_code": "CF",
    "timezone": "Africa/Bangui",
    "latitude": 4.39058,
    "longitude": 21.12839
  },
  {
    "city": "Yalongo",
    "city_zh": "Yalongo",
    "country": "Central African Republic",
    "country_zh": "中非共和國",
    "country_iso_code": "CF",
    "timezone": "Africa/Bangui",
    "latitude": 6.95028,
    "longitude": 22.99529
  },
  {
    "city": "Yalingou",
    "city_zh": "Yalingou",
    "country": "Central African Republic",
    "country_zh": "中非共和國",
    "country_iso_code": "CF",
    "timezone": "Africa/Bangui",
    "latitude": 5.93895,
    "longitude": 20.5504
  },
  {
    "city": "Yalinga",
    "city_zh": "Yalinga",
    "country": "Central African Republic",
    "country_zh": "中非共和國",
    "country_iso_code": "CF",
    "timezone": "Africa/Bangui",
    "latitude": 6.50133,
    "longitude": 23.26583
  },
  {
    "city": "Yalégo",
    "city_zh": "Yalégo",
    "country": "Central African Republic",
    "country_zh": "中非共和國",
    "country_iso_code": "CF",
    "timezone": "Africa/Bangui",
    "latitude": 5.91667,
    "longitude": 20.13333
  },
  {
    "city": "Yalara",
    "city_zh": "Yalara",
    "country": "Central African Republic",
    "country_zh": "中非共和國",
    "country_iso_code": "CF",
    "timezone": "Africa/Bangui",
    "latitude": 6.55,
    "longitude": 21.98333
  },
  {
    "city": "Yakpa",
    "city_zh": "Yakpa",
    "country": "Central African Republic",
    "country_zh": "中非共和國",
    "country_iso_code": "CF",
    "timezone": "Africa/Bangui",
    "latitude": 4.43106,
    "longitude": 21.12938
  },
  {
    "city": "Yakpa",
    "city_zh": "Yakpa",
    "country": "Central African Republic",
    "country_zh": "中非共和國",
    "country_iso_code": "CF",
    "timezone": "Africa/Bangui",
    "latitude": 4.43333,
    "longitude": 21.11667
  },
  {
    "city": "Yakotoko",
    "city_zh": "Yakotoko",
    "country": "Central African Republic",
    "country_zh": "中非共和國",
    "country_iso_code": "CF",
    "timezone": "Africa/Bangui",
    "latitude": 5.32153,
    "longitude": 25.32464
  },
  {
    "city": "Yakota",
    "city_zh": "Yakota",
    "country": "Central African Republic",
    "country_zh": "中非共和國",
    "country_iso_code": "CF",
    "timezone": "Africa/Bangui",
    "latitude": 5.77944,
    "longitude": 20.16534
  },
  {
    "city": "Yakossi",
    "city_zh": "Yakossi",
    "country": "Central African Republic",
    "country_zh": "中非共和國",
    "country_iso_code": "CF",
    "timezone": "Africa/Bangui",
    "latitude": 5.60988,
    "longitude": 23.31036
  },
  {
    "city": "Yakoma",
    "city_zh": "Yakoma",
    "country": "Central African Republic",
    "country_zh": "中非共和國",
    "country_iso_code": "CF",
    "timezone": "Africa/Bangui",
    "latitude": 6.03045,
    "longitude": 25.65796
  },
  {
    "city": "Yakoamba",
    "city_zh": "Yakoamba",
    "country": "Central African Republic",
    "country_zh": "中非共和國",
    "country_iso_code": "CF",
    "timezone": "Africa/Bangui",
    "latitude": 5.60897,
    "longitude": 20.49255
  },
  {
    "city": "Yakidji",
    "city_zh": "Yakidji",
    "country": "Central African Republic",
    "country_zh": "中非共和國",
    "country_iso_code": "CF",
    "timezone": "Africa/Bangui",
    "latitude": 5.5,
    "longitude": 21.93333
  },
  {
    "city": "Yakétché",
    "city_zh": "Yakétché",
    "country": "Central African Republic",
    "country_zh": "中非共和國",
    "country_iso_code": "CF",
    "timezone": "Africa/Bangui",
    "latitude": 5.81095,
    "longitude": 20.29057
  },
  {
    "city": "Yakania",
    "city_zh": "Yakania",
    "country": "Central African Republic",
    "country_zh": "中非共和國",
    "country_iso_code": "CF",
    "timezone": "Africa/Bangui",
    "latitude": 6.25,
    "longitude": 21.21667
  },
  {
    "city": "Yakamalé",
    "city_zh": "Yakamalé",
    "country": "Central African Republic",
    "country_zh": "中非共和國",
    "country_iso_code": "CF",
    "timezone": "Africa/Bangui",
    "latitude": 6.5,
    "longitude": 23.18333
  },
  {
    "city": "Yahié",
    "city_zh": "Yahié",
    "country": "Central African Republic",
    "country_zh": "中非共和國",
    "country_iso_code": "CF",
    "timezone": "Africa/Bangui",
    "latitude": 5.63333,
    "longitude": 25.03333
  },
  {
    "city": "Yagboro",
    "city_zh": "Yagboro",
    "country": "Central African Republic",
    "country_zh": "中非共和國",
    "country_iso_code": "CF",
    "timezone": "Africa/Bangui",
    "latitude": 4.56667,
    "longitude": 21.68333
  },
  {
    "city": "Yaffo",
    "city_zh": "Yaffo",
    "country": "Central African Republic",
    "country_zh": "中非共和國",
    "country_iso_code": "CF",
    "timezone": "Africa/Bangui",
    "latitude": 8.23631,
    "longitude": 20.7238
  },
  {
    "city": "Yacpa",
    "city_zh": "Yacpa",
    "country": "Central African Republic",
    "country_zh": "中非共和國",
    "country_iso_code": "CF",
    "timezone": "Africa/Bangui",
    "latitude": 5.32234,
    "longitude": 21.75397
  },
  {
    "city": "Yabougoua",
    "city_zh": "Yabougoua",
    "country": "Central African Republic",
    "country_zh": "中非共和國",
    "country_iso_code": "CF",
    "timezone": "Africa/Bangui",
    "latitude": 5.68333,
    "longitude": 20.56667
  },
  {
    "city": "Yaboro",
    "city_zh": "Yaboro",
    "country": "Central African Republic",
    "country_zh": "中非共和國",
    "country_iso_code": "CF",
    "timezone": "Africa/Bangui",
    "latitude": 4.5144,
    "longitude": 21.13196
  },
  {
    "city": "Yaboko",
    "city_zh": "Yaboko",
    "country": "Central African Republic",
    "country_zh": "中非共和國",
    "country_iso_code": "CF",
    "timezone": "Africa/Bangui",
    "latitude": 5.90499,
    "longitude": 21.65016
  },
  {
    "city": "Yabita",
    "city_zh": "Yabita",
    "country": "Central African Republic",
    "country_zh": "中非共和國",
    "country_iso_code": "CF",
    "timezone": "Africa/Bangui",
    "latitude": 5.9037,
    "longitude": 20.12626
  },
  {
    "city": "Yabango",
    "city_zh": "Yabango",
    "country": "Central African Republic",
    "country_zh": "中非共和國",
    "country_iso_code": "CF",
    "timezone": "Africa/Bangui",
    "latitude": 4.46667,
    "longitude": 21.75
  },
  {
    "city": "Yabada Siguigui",
    "city_zh": "Yabada Siguigui",
    "country": "Central African Republic",
    "country_zh": "中非共和國",
    "country_iso_code": "CF",
    "timezone": "Africa/Bangui",
    "latitude": 5.7211,
    "longitude": 20.01215
  },
  {
    "city": "Wazoua",
    "city_zh": "Wazoua",
    "country": "Central African Republic",
    "country_zh": "中非共和國",
    "country_iso_code": "CF",
    "timezone": "Africa/Bangui",
    "latitude": 4.26363,
    "longitude": 22.40815
  },
  {
    "city": "Waraga",
    "city_zh": "Waraga",
    "country": "Central African Republic",
    "country_zh": "中非共和國",
    "country_iso_code": "CF",
    "timezone": "Africa/Bangui",
    "latitude": 5.6757,
    "longitude": 22.8798
  },
  {
    "city": "Wapali",
    "city_zh": "Wapali",
    "country": "Central African Republic",
    "country_zh": "中非共和國",
    "country_iso_code": "CF",
    "timezone": "Africa/Bangui",
    "latitude": 4.31667,
    "longitude": 21.23333
  },
  {
    "city": "Wango Kota",
    "city_zh": "Wango Kota",
    "country": "Central African Republic",
    "country_zh": "中非共和國",
    "country_iso_code": "CF",
    "timezone": "Africa/Bangui",
    "latitude": 4.32028,
    "longitude": 22.50284
  },
  {
    "city": "Wango Bangowili",
    "city_zh": "Wango Bangowili",
    "country": "Central African Republic",
    "country_zh": "中非共和國",
    "country_iso_code": "CF",
    "timezone": "Africa/Bangui",
    "latitude": 5.18506,
    "longitude": 22.83481
  },
  {
    "city": "Wali Louka",
    "city_zh": "Wali Louka",
    "country": "Central African Republic",
    "country_zh": "中非共和國",
    "country_iso_code": "CF",
    "timezone": "Africa/Bangui",
    "latitude": 4.53333,
    "longitude": 20.8
  },
  {
    "city": "Wali-Boykota",
    "city_zh": "Wali-Boykota",
    "country": "Central African Republic",
    "country_zh": "中非共和國",
    "country_iso_code": "CF",
    "timezone": "Africa/Bangui",
    "latitude": 4.98032,
    "longitude": 20.54657
  },
  {
    "city": "Wakpo",
    "city_zh": "Wakpo",
    "country": "Central African Republic",
    "country_zh": "中非共和國",
    "country_iso_code": "CF",
    "timezone": "Africa/Bangui",
    "latitude": 6.43333,
    "longitude": 22.28333
  },
  {
    "city": "Wagandja",
    "city_zh": "Wagandja",
    "country": "Central African Republic",
    "country_zh": "中非共和國",
    "country_iso_code": "CF",
    "timezone": "Africa/Bangui",
    "latitude": 5.76667,
    "longitude": 22.46667
  },
  {
    "city": "Voundja",
    "city_zh": "Voundja",
    "country": "Central African Republic",
    "country_zh": "中非共和國",
    "country_iso_code": "CF",
    "timezone": "Africa/Bangui",
    "latitude": 4.76667,
    "longitude": 20.83333
  },
  {
    "city": "Voumou",
    "city_zh": "Voumou",
    "country": "Central African Republic",
    "country_zh": "中非共和國",
    "country_iso_code": "CF",
    "timezone": "Africa/Bangui",
    "latitude": 4.46964,
    "longitude": 20.98648
  },
  {
    "city": "Vouloungba",
    "city_zh": "Vouloungba",
    "country": "Central African Republic",
    "country_zh": "中非共和國",
    "country_iso_code": "CF",
    "timezone": "Africa/Bangui",
    "latitude": 4.59957,
    "longitude": 22.16508
  },
  {
    "city": "Voulou",
    "city_zh": "Voulou",
    "country": "Central African Republic",
    "country_zh": "中非共和國",
    "country_iso_code": "CF",
    "timezone": "Africa/Bangui",
    "latitude": 8.55,
    "longitude": 22.6
  },
  {
    "city": "Voulazi",
    "city_zh": "Voulazi",
    "country": "Central African Republic",
    "country_zh": "中非共和國",
    "country_iso_code": "CF",
    "timezone": "Africa/Bangui",
    "latitude": 4.78333,
    "longitude": 21.75
  },
  {
    "city": "Voulapa",
    "city_zh": "Voulapa",
    "country": "Central African Republic",
    "country_zh": "中非共和國",
    "country_iso_code": "CF",
    "timezone": "Africa/Bangui",
    "latitude": 4.58333,
    "longitude": 20.56667
  },
  {
    "city": "Voula",
    "city_zh": "Voula",
    "country": "Central African Republic",
    "country_zh": "中非共和國",
    "country_iso_code": "CF",
    "timezone": "Africa/Bangui",
    "latitude": 4.58333,
    "longitude": 21.3
  },
  {
    "city": "Voula",
    "city_zh": "Voula",
    "country": "Central African Republic",
    "country_zh": "中非共和國",
    "country_iso_code": "CF",
    "timezone": "Africa/Bangui",
    "latitude": 4.45936,
    "longitude": 21.13397
  },
  {
    "city": "Voula",
    "city_zh": "Voula",
    "country": "Central African Republic",
    "country_zh": "中非共和國",
    "country_iso_code": "CF",
    "timezone": "Africa/Bangui",
    "latitude": 4.42729,
    "longitude": 21.12673
  },
  {
    "city": "Vougba",
    "city_zh": "Vougba",
    "country": "Central African Republic",
    "country_zh": "中非共和國",
    "country_iso_code": "CF",
    "timezone": "Africa/Bangui",
    "latitude": 8.23333,
    "longitude": 20.68333
  },
  {
    "city": "Vougba",
    "city_zh": "Vougba",
    "country": "Central African Republic",
    "country_zh": "中非共和國",
    "country_iso_code": "CF",
    "timezone": "Africa/Bangui",
    "latitude": 5.08781,
    "longitude": 23.01006
  },
  {
    "city": "Vili",
    "city_zh": "Vili",
    "country": "Central African Republic",
    "country_zh": "中非共和國",
    "country_iso_code": "CF",
    "timezone": "Africa/Bangui",
    "latitude": 4.9889,
    "longitude": 20.42816
  },
  {
    "city": "Vilao",
    "city_zh": "Vilao",
    "country": "Central African Republic",
    "country_zh": "中非共和國",
    "country_iso_code": "CF",
    "timezone": "Africa/Bangui",
    "latitude": 7.03308,
    "longitude": 21.56112
  },
  {
    "city": "Vianda",
    "city_zh": "Vianda",
    "country": "Central African Republic",
    "country_zh": "中非共和國",
    "country_iso_code": "CF",
    "timezone": "Africa/Bangui",
    "latitude": 4.35,
    "longitude": 21.26667
  },
  {
    "city": "Vevré",
    "city_zh": "Vevré",
    "country": "Central African Republic",
    "country_zh": "中非共和國",
    "country_iso_code": "CF",
    "timezone": "Africa/Bangui",
    "latitude": 7.66667,
    "longitude": 21.16667
  },
  {
    "city": "Vata",
    "city_zh": "Vata",
    "country": "Central African Republic",
    "country_zh": "中非共和國",
    "country_iso_code": "CF",
    "timezone": "Africa/Bangui",
    "latitude": 7.70047,
    "longitude": 20.19766
  },
  {
    "city": "Trouapou",
    "city_zh": "Trouapou",
    "country": "Central African Republic",
    "country_zh": "中非共和國",
    "country_iso_code": "CF",
    "timezone": "Africa/Bangui",
    "latitude": 6.74938,
    "longitude": 21.7782
  },
  {
    "city": "Trogoadé",
    "city_zh": "Trogoadé",
    "country": "Central African Republic",
    "country_zh": "中非共和國",
    "country_iso_code": "CF",
    "timezone": "Africa/Bangui",
    "latitude": 5.94151,
    "longitude": 21.19836
  },
  {
    "city": "Toumo",
    "city_zh": "Toumo",
    "country": "Central African Republic",
    "country_zh": "中非共和國",
    "country_iso_code": "CF",
    "timezone": "Africa/Bangui",
    "latitude": 10.30785,
    "longitude": 22.77215
  },
  {
    "city": "Toumba",
    "city_zh": "Toumba",
    "country": "Central African Republic",
    "country_zh": "中非共和國",
    "country_iso_code": "CF",
    "timezone": "Africa/Bangui",
    "latitude": 5.25947,
    "longitude": 20.68386
  },
  {
    "city": "Toumba",
    "city_zh": "Toumba",
    "country": "Central African Republic",
    "country_zh": "中非共和國",
    "country_iso_code": "CF",
    "timezone": "Africa/Bangui",
    "latitude": 4.38333,
    "longitude": 21.46667
  },
  {
    "city": "Touloumbou",
    "city_zh": "Touloumbou",
    "country": "Central African Republic",
    "country_zh": "中非共和國",
    "country_iso_code": "CF",
    "timezone": "Africa/Bangui",
    "latitude": 6.2,
    "longitude": 25.31667
  },
  {
    "city": "Tougomalé",
    "city_zh": "Tougomalé",
    "country": "Central African Republic",
    "country_zh": "中非共和國",
    "country_iso_code": "CF",
    "timezone": "Africa/Bangui",
    "latitude": 5.24945,
    "longitude": 20.68238
  },
  {
    "city": "Touga",
    "city_zh": "Touga",
    "country": "Central African Republic",
    "country_zh": "中非共和國",
    "country_iso_code": "CF",
    "timezone": "Africa/Bangui",
    "latitude": 4.23694,
    "longitude": 22.0381
  },
  {
    "city": "Touako",
    "city_zh": "Touako",
    "country": "Central African Republic",
    "country_zh": "中非共和國",
    "country_iso_code": "CF",
    "timezone": "Africa/Bangui",
    "latitude": 4.48348,
    "longitude": 22.21508
  },
  {
    "city": "Tongouyassi",
    "city_zh": "Tongouyassi",
    "country": "Central African Republic",
    "country_zh": "中非共和國",
    "country_iso_code": "CF",
    "timezone": "Africa/Bangui",
    "latitude": 6.01033,
    "longitude": 20.43293
  },
  {
    "city": "Tombola",
    "city_zh": "Tombola",
    "country": "Central African Republic",
    "country_zh": "中非共和國",
    "country_iso_code": "CF",
    "timezone": "Africa/Bangui",
    "latitude": 4.43333,
    "longitude": 21.61667
  },
  {
    "city": "Tombo",
    "city_zh": "Tombo",
    "country": "Central African Republic",
    "country_zh": "中非共和國",
    "country_iso_code": "CF",
    "timezone": "Africa/Bangui",
    "latitude": 4.53333,
    "longitude": 20.75
  },
  {
    "city": "Tomba",
    "city_zh": "Tomba",
    "country": "Central African Republic",
    "country_zh": "中非共和國",
    "country_iso_code": "CF",
    "timezone": "Africa/Bangui",
    "latitude": 4.95435,
    "longitude": 21.31736
  },
  {
    "city": "Tomba",
    "city_zh": "Tomba",
    "country": "Central African Republic",
    "country_zh": "中非共和國",
    "country_iso_code": "CF",
    "timezone": "Africa/Bangui",
    "latitude": 4.83333,
    "longitude": 21.76667
  },
  {
    "city": "Tolisso",
    "city_zh": "Tolisso",
    "country": "Central African Republic",
    "country_zh": "中非共和國",
    "country_iso_code": "CF",
    "timezone": "Africa/Bangui",
    "latitude": 8.17213,
    "longitude": 20.74428
  },
  {
    "city": "Tokoyo",
    "city_zh": "Tokoyo",
    "country": "Central African Republic",
    "country_zh": "中非共和國",
    "country_iso_code": "CF",
    "timezone": "Africa/Bangui",
    "latitude": 4.73597,
    "longitude": 22.84124
  },
  {
    "city": "Tokomondji",
    "city_zh": "Tokomondji",
    "country": "Central African Republic",
    "country_zh": "中非共和國",
    "country_iso_code": "CF",
    "timezone": "Africa/Bangui",
    "latitude": 5.61114,
    "longitude": 20.79042
  },
  {
    "city": "Tokolo",
    "city_zh": "Tokolo",
    "country": "Central African Republic",
    "country_zh": "中非共和國",
    "country_iso_code": "CF",
    "timezone": "Africa/Bangui",
    "latitude": 4.35057,
    "longitude": 22.0332
  },
  {
    "city": "Toki",
    "city_zh": "Toki",
    "country": "Central African Republic",
    "country_zh": "中非共和國",
    "country_iso_code": "CF",
    "timezone": "Africa/Bangui",
    "latitude": 4.25788,
    "longitude": 22.53455
  },
  {
    "city": "Togo",
    "city_zh": "Togo",
    "country": "Central African Republic",
    "country_zh": "中非共和國",
    "country_iso_code": "CF",
    "timezone": "Africa/Bangui",
    "latitude": 5.8795,
    "longitude": 20.57206
  },
  {
    "city": "Togo",
    "city_zh": "Togo",
    "country": "Central African Republic",
    "country_zh": "中非共和國",
    "country_iso_code": "CF",
    "timezone": "Africa/Bangui",
    "latitude": 5.5,
    "longitude": 21.71667
  },
  {
    "city": "Togbo",
    "city_zh": "Togbo",
    "country": "Central African Republic",
    "country_zh": "中非共和國",
    "country_iso_code": "CF",
    "timezone": "Africa/Bangui",
    "latitude": 5.2,
    "longitude": 21.8
  },
  {
    "city": "Togbo",
    "city_zh": "Togbo",
    "country": "Central African Republic",
    "country_zh": "中非共和國",
    "country_iso_code": "CF",
    "timezone": "Africa/Bangui",
    "latitude": 5.09551,
    "longitude": 21.6762
  },
  {
    "city": "Togbo",
    "city_zh": "Togbo",
    "country": "Central African Republic",
    "country_zh": "中非共和國",
    "country_iso_code": "CF",
    "timezone": "Africa/Bangui",
    "latitude": 4.71355,
    "longitude": 21.01428
  },
  {
    "city": "Togbo",
    "city_zh": "Togbo",
    "country": "Central African Republic",
    "country_zh": "中非共和國",
    "country_iso_code": "CF",
    "timezone": "Africa/Bangui",
    "latitude": 4.5357,
    "longitude": 20.93345
  },
  {
    "city": "Tizi",
    "city_zh": "Tizi",
    "country": "Central African Republic",
    "country_zh": "中非共和國",
    "country_iso_code": "CF",
    "timezone": "Africa/Bangui",
    "latitude": 6.40312,
    "longitude": 21.56077
  },
  {
    "city": "Tizaramba",
    "city_zh": "Tizaramba",
    "country": "Central African Republic",
    "country_zh": "中非共和國",
    "country_iso_code": "CF",
    "timezone": "Africa/Bangui",
    "latitude": 5.75135,
    "longitude": 22.05698
  },
  {
    "city": "Tiroungoulou",
    "city_zh": "Tiroungoulou",
    "country": "Central African Republic",
    "country_zh": "中非共和國",
    "country_iso_code": "CF",
    "timezone": "Africa/Bangui",
    "latitude": 9.55995,
    "longitude": 22.13387
  },
  {
    "city": "Tiri",
    "city_zh": "Tiri",
    "country": "Central African Republic",
    "country_zh": "中非共和國",
    "country_iso_code": "CF",
    "timezone": "Africa/Bangui",
    "latitude": 8.74377,
    "longitude": 20.01518
  },
  {
    "city": "Tinguéré Mbi",
    "city_zh": "Tinguéré Mbi",
    "country": "Central African Republic",
    "country_zh": "中非共和國",
    "country_iso_code": "CF",
    "timezone": "Africa/Bangui",
    "latitude": 5.74351,
    "longitude": 20.07445
  },
  {
    "city": "Timanda",
    "city_zh": "Timanda",
    "country": "Central African Republic",
    "country_zh": "中非共和國",
    "country_iso_code": "CF",
    "timezone": "Africa/Bangui",
    "latitude": 4.5,
    "longitude": 21.75
  },
  {
    "city": "Tikembé",
    "city_zh": "Tikembé",
    "country": "Central African Republic",
    "country_zh": "中非共和國",
    "country_iso_code": "CF",
    "timezone": "Africa/Bangui",
    "latitude": 4.21333,
    "longitude": 22.52828
  },
  {
    "city": "Tikaya",
    "city_zh": "Tikaya",
    "country": "Central African Republic",
    "country_zh": "中非共和國",
    "country_iso_code": "CF",
    "timezone": "Africa/Bangui",
    "latitude": 5.63333,
    "longitude": 22.76667
  },
  {
    "city": "Tihimba",
    "city_zh": "Tihimba",
    "country": "Central African Republic",
    "country_zh": "中非共和國",
    "country_iso_code": "CF",
    "timezone": "Africa/Bangui",
    "latitude": 4.73533,
    "longitude": 20.38457
  },
  {
    "city": "Tiessou",
    "city_zh": "Tiessou",
    "country": "Central African Republic",
    "country_zh": "中非共和國",
    "country_iso_code": "CF",
    "timezone": "Africa/Bangui",
    "latitude": 4.51667,
    "longitude": 21.45
  },
  {
    "city": "Tiangbi",
    "city_zh": "Tiangbi",
    "country": "Central African Republic",
    "country_zh": "中非共和國",
    "country_iso_code": "CF",
    "timezone": "Africa/Bangui",
    "latitude": 6.0,
    "longitude": 21.13333
  },
  {
    "city": "Teou",
    "city_zh": "Teou",
    "country": "Central African Republic",
    "country_zh": "中非共和國",
    "country_iso_code": "CF",
    "timezone": "Africa/Bangui",
    "latitude": 5.55,
    "longitude": 21.25
  },
  {
    "city": "Tengua",
    "city_zh": "Tengua",
    "country": "Central African Republic",
    "country_zh": "中非共和國",
    "country_iso_code": "CF",
    "timezone": "Africa/Bangui",
    "latitude": 4.38333,
    "longitude": 21.15
  },
  {
    "city": "Tchoubaga",
    "city_zh": "Tchoubaga",
    "country": "Central African Republic",
    "country_zh": "中非共和國",
    "country_iso_code": "CF",
    "timezone": "Africa/Bangui",
    "latitude": 5.23333,
    "longitude": 21.4
  },
  {
    "city": "Tchoko",
    "city_zh": "Tchoko",
    "country": "Central African Republic",
    "country_zh": "中非共和國",
    "country_iso_code": "CF",
    "timezone": "Africa/Bangui",
    "latitude": 4.53982,
    "longitude": 21.2739
  },
  {
    "city": "Tchingoto",
    "city_zh": "Tchingoto",
    "country": "Central African Republic",
    "country_zh": "中非共和國",
    "country_iso_code": "CF",
    "timezone": "Africa/Bangui",
    "latitude": 4.85018,
    "longitude": 21.22629
  },
  {
    "city": "Tchinda",
    "city_zh": "Tchinda",
    "country": "Central African Republic",
    "country_zh": "中非共和國",
    "country_iso_code": "CF",
    "timezone": "Africa/Bangui",
    "latitude": 4.76667,
    "longitude": 21.16667
  },
  {
    "city": "Tchanga",
    "city_zh": "Tchanga",
    "country": "Central African Republic",
    "country_zh": "中非共和國",
    "country_iso_code": "CF",
    "timezone": "Africa/Bangui",
    "latitude": 7.96667,
    "longitude": 21.9
  },
  {
    "city": "Tchakoussou",
    "city_zh": "Tchakoussou",
    "country": "Central African Republic",
    "country_zh": "中非共和國",
    "country_iso_code": "CF",
    "timezone": "Africa/Bangui",
    "latitude": 4.53333,
    "longitude": 21.3
  },
  {
    "city": "Tanoyo",
    "city_zh": "Tanoyo",
    "country": "Central African Republic",
    "country_zh": "中非共和國",
    "country_iso_code": "CF",
    "timezone": "Africa/Bangui",
    "latitude": 10.27771,
    "longitude": 22.47605
  },
  {
    "city": "Tangounda",
    "city_zh": "Tangounda",
    "country": "Central African Republic",
    "country_zh": "中非共和國",
    "country_iso_code": "CF",
    "timezone": "Africa/Bangui",
    "latitude": 6.86667,
    "longitude": 21.43333
  },
  {
    "city": "Tangi",
    "city_zh": "Tangi",
    "country": "Central African Republic",
    "country_zh": "中非共和國",
    "country_iso_code": "CF",
    "timezone": "Africa/Bangui",
    "latitude": 4.23828,
    "longitude": 22.04765
  },
  {
    "city": "Tanget",
    "city_zh": "Tanget",
    "country": "Central African Republic",
    "country_zh": "中非共和國",
    "country_iso_code": "CF",
    "timezone": "Africa/Bangui",
    "latitude": 10.22108,
    "longitude": 22.44392
  },
  {
    "city": "Tangara",
    "city_zh": "Tangara",
    "country": "Central African Republic",
    "country_zh": "中非共和國",
    "country_iso_code": "CF",
    "timezone": "Africa/Bangui",
    "latitude": 10.30578,
    "longitude": 22.49072
  },
  {
    "city": "Tandomazouma",
    "city_zh": "Tandomazouma",
    "country": "Central African Republic",
    "country_zh": "中非共和國",
    "country_iso_code": "CF",
    "timezone": "Africa/Bangui",
    "latitude": 4.17469,
    "longitude": 22.4966
  },
  {
    "city": "Tamingui",
    "city_zh": "Tamingui",
    "country": "Central African Republic",
    "country_zh": "中非共和國",
    "country_iso_code": "CF",
    "timezone": "Africa/Bangui",
    "latitude": 4.4,
    "longitude": 21.71667
  },
  {
    "city": "Tambourah",
    "city_zh": "Tambourah",
    "country": "Central African Republic",
    "country_zh": "中非共和國",
    "country_iso_code": "CF",
    "timezone": "Africa/Bangui",
    "latitude": 5.17193,
    "longitude": 25.20126
  },
  {
    "city": "Tamali",
    "city_zh": "Tamali",
    "country": "Central African Republic",
    "country_zh": "中非共和國",
    "country_iso_code": "CF",
    "timezone": "Africa/Bangui",
    "latitude": 5.84815,
    "longitude": 20.73013
  },
  {
    "city": "Tala",
    "city_zh": "Tala",
    "country": "Central African Republic",
    "country_zh": "中非共和國",
    "country_iso_code": "CF",
    "timezone": "Africa/Bangui",
    "latitude": 9.50803,
    "longitude": 22.67366
  },
  {
    "city": "Takou",
    "city_zh": "Takou",
    "country": "Central African Republic",
    "country_zh": "中非共和國",
    "country_iso_code": "CF",
    "timezone": "Africa/Bangui",
    "latitude": 4.31519,
    "longitude": 22.07868
  },
  {
    "city": "Takobanda",
    "city_zh": "Takobanda",
    "country": "Central African Republic",
    "country_zh": "中非共和國",
    "country_iso_code": "CF",
    "timezone": "Africa/Bangui",
    "latitude": 6.43333,
    "longitude": 20.45
  },
  {
    "city": "Takobanda",
    "city_zh": "Takobanda",
    "country": "Central African Republic",
    "country_zh": "中非共和國",
    "country_iso_code": "CF",
    "timezone": "Africa/Bangui",
    "latitude": 5.98281,
    "longitude": 20.1779
  },
  {
    "city": "Takipandi",
    "city_zh": "Takipandi",
    "country": "Central African Republic",
    "country_zh": "中非共和國",
    "country_iso_code": "CF",
    "timezone": "Africa/Bangui",
    "latitude": 5.78495,
    "longitude": 25.33193
  },
  {
    "city": "Takara",
    "city_zh": "Takara",
    "country": "Central African Republic",
    "country_zh": "中非共和國",
    "country_iso_code": "CF",
    "timezone": "Africa/Bangui",
    "latitude": 8.33296,
    "longitude": 20.73848
  },
  {
    "city": "Takalama",
    "city_zh": "Takalama",
    "country": "Central African Republic",
    "country_zh": "中非共和國",
    "country_iso_code": "CF",
    "timezone": "Africa/Bangui",
    "latitude": 10.23503,
    "longitude": 22.45927
  },
  {
    "city": "Takadja",
    "city_zh": "Takadja",
    "country": "Central African Republic",
    "country_zh": "中非共和國",
    "country_iso_code": "CF",
    "timezone": "Africa/Bangui",
    "latitude": 10.17747,
    "longitude": 22.41506
  },
  {
    "city": "Tagoua",
    "city_zh": "Tagoua",
    "country": "Central African Republic",
    "country_zh": "中非共和國",
    "country_iso_code": "CF",
    "timezone": "Africa/Bangui",
    "latitude": 4.95,
    "longitude": 21.38333
  },
  {
    "city": "Tagia",
    "city_zh": "Tagia",
    "country": "Central African Republic",
    "country_zh": "中非共和國",
    "country_iso_code": "CF",
    "timezone": "Africa/Bangui",
    "latitude": 5.53333,
    "longitude": 25.23333
  },
  {
    "city": "Tagbara",
    "city_zh": "Tagbara",
    "country": "Central African Republic",
    "country_zh": "中非共和國",
    "country_iso_code": "CF",
    "timezone": "Africa/Bangui",
    "latitude": 5.91667,
    "longitude": 21.15
  },
  {
    "city": "Tagbale",
    "city_zh": "Tagbale",
    "country": "Central African Republic",
    "country_zh": "中非共和國",
    "country_iso_code": "CF",
    "timezone": "Africa/Bangui",
    "latitude": 4.97004,
    "longitude": 21.3131
  },
  {
    "city": "Tagba",
    "city_zh": "Tagba",
    "country": "Central African Republic",
    "country_zh": "中非共和國",
    "country_iso_code": "CF",
    "timezone": "Africa/Bangui",
    "latitude": 6.05,
    "longitude": 25.05
  },
  {
    "city": "Tabane",
    "city_zh": "Tabane",
    "country": "Central African Republic",
    "country_zh": "中非共和國",
    "country_iso_code": "CF",
    "timezone": "Africa/Bangui",
    "latitude": 5.08333,
    "longitude": 24.95
  },
  {
    "city": "Soulémaka",
    "city_zh": "Soulémaka",
    "country": "Central African Republic",
    "country_zh": "中非共和國",
    "country_iso_code": "CF",
    "timezone": "Africa/Bangui",
    "latitude": 8.82116,
    "longitude": 22.70987
  },
  {
    "city": "Sozo",
    "city_zh": "Sozo",
    "country": "Central African Republic",
    "country_zh": "中非共和國",
    "country_iso_code": "CF",
    "timezone": "Africa/Bangui",
    "latitude": 5.16667,
    "longitude": 20.7
  },
  {
    "city": "Sourmane",
    "city_zh": "Sourmane",
    "country": "Central African Republic",
    "country_zh": "中非共和國",
    "country_iso_code": "CF",
    "timezone": "Africa/Bangui",
    "latitude": 6.65,
    "longitude": 24.81667
  },
  {
    "city": "Sounda",
    "city_zh": "Sounda",
    "country": "Central African Republic",
    "country_zh": "中非共和國",
    "country_iso_code": "CF",
    "timezone": "Africa/Bangui",
    "latitude": 4.71352,
    "longitude": 21.18745
  },
  {
    "city": "Sounba",
    "city_zh": "Sounba",
    "country": "Central African Republic",
    "country_zh": "中非共和國",
    "country_iso_code": "CF",
    "timezone": "Africa/Bangui",
    "latitude": 5.09253,
    "longitude": 22.77168
  },
  {
    "city": "Soumouyassi",
    "city_zh": "Soumouyassi",
    "country": "Central African Republic",
    "country_zh": "中非共和國",
    "country_iso_code": "CF",
    "timezone": "Africa/Bangui",
    "latitude": 5.45,
    "longitude": 20.35
  },
  {
    "city": "Soumousou",
    "city_zh": "Soumousou",
    "country": "Central African Republic",
    "country_zh": "中非共和國",
    "country_iso_code": "CF",
    "timezone": "Africa/Bangui",
    "latitude": 5.20905,
    "longitude": 22.84185
  },
  {
    "city": "Souma",
    "city_zh": "Souma",
    "country": "Central African Republic",
    "country_zh": "中非共和國",
    "country_iso_code": "CF",
    "timezone": "Africa/Bangui",
    "latitude": 5.15,
    "longitude": 20.16667
  },
  {
    "city": "Soulié",
    "city_zh": "Soulié",
    "country": "Central African Republic",
    "country_zh": "中非共和國",
    "country_iso_code": "CF",
    "timezone": "Africa/Bangui",
    "latitude": 4.87509,
    "longitude": 22.93319
  },
  {
    "city": "Souko",
    "city_zh": "Souko",
    "country": "Central African Republic",
    "country_zh": "中非共和國",
    "country_iso_code": "CF",
    "timezone": "Africa/Bangui",
    "latitude": 4.55,
    "longitude": 20.58333
  },
  {
    "city": "Sotio",
    "city_zh": "Sotio",
    "country": "Central African Republic",
    "country_zh": "中非共和國",
    "country_iso_code": "CF",
    "timezone": "Africa/Bangui",
    "latitude": 5.46667,
    "longitude": 24.7
  },
  {
    "city": "Songopaï",
    "city_zh": "Songopaï",
    "country": "Central African Republic",
    "country_zh": "中非共和國",
    "country_iso_code": "CF",
    "timezone": "Africa/Bangui",
    "latitude": 5.91667,
    "longitude": 24.28333
  },
  {
    "city": "Songo",
    "city_zh": "Songo",
    "country": "Central African Republic",
    "country_zh": "中非共和國",
    "country_iso_code": "CF",
    "timezone": "Africa/Bangui",
    "latitude": 4.51183,
    "longitude": 21.25935
  },
  {
    "city": "Sombo",
    "city_zh": "Sombo",
    "country": "Central African Republic",
    "country_zh": "中非共和國",
    "country_iso_code": "CF",
    "timezone": "Africa/Bangui",
    "latitude": 6.18927,
    "longitude": 20.57136
  },
  {
    "city": "Somajénou",
    "city_zh": "Somajénou",
    "country": "Central African Republic",
    "country_zh": "中非共和國",
    "country_iso_code": "CF",
    "timezone": "Africa/Bangui",
    "latitude": 5.00455,
    "longitude": 22.95927
  },
  {
    "city": "Sokoyo",
    "city_zh": "Sokoyo",
    "country": "Central African Republic",
    "country_zh": "中非共和國",
    "country_iso_code": "CF",
    "timezone": "Africa/Bangui",
    "latitude": 6.03433,
    "longitude": 25.65758
  },
  {
    "city": "Sokoumba",
    "city_zh": "Sokoumba",
    "country": "Central African Republic",
    "country_zh": "中非共和國",
    "country_iso_code": "CF",
    "timezone": "Africa/Bangui",
    "latitude": 8.73519,
    "longitude": 20.67018
  },
  {
    "city": "Sodi",
    "city_zh": "Sodi",
    "country": "Central African Republic",
    "country_zh": "中非共和國",
    "country_iso_code": "CF",
    "timezone": "Africa/Bangui",
    "latitude": 5.30035,
    "longitude": 26.03628
  },
  {
    "city": "Soboko",
    "city_zh": "Soboko",
    "country": "Central African Republic",
    "country_zh": "中非共和國",
    "country_iso_code": "CF",
    "timezone": "Africa/Bangui",
    "latitude": 6.81667,
    "longitude": 24.83333
  },
  {
    "city": "Slimane",
    "city_zh": "Slimane",
    "country": "Central African Republic",
    "country_zh": "中非共和國",
    "country_iso_code": "CF",
    "timezone": "Africa/Bangui",
    "latitude": 5.75,
    "longitude": 24.33333
  },
  {
    "city": "Sirobanga",
    "city_zh": "Sirobanga",
    "country": "Central African Republic",
    "country_zh": "中非共和國",
    "country_iso_code": "CF",
    "timezone": "Africa/Bangui",
    "latitude": 5.52348,
    "longitude": 25.22074
  },
  {
    "city": "Siri",
    "city_zh": "Siri",
    "country": "Central African Republic",
    "country_zh": "中非共和國",
    "country_iso_code": "CF",
    "timezone": "Africa/Bangui",
    "latitude": 5.4,
    "longitude": 22.8
  },
  {
    "city": "Sioumba",
    "city_zh": "Sioumba",
    "country": "Central African Republic",
    "country_zh": "中非共和國",
    "country_iso_code": "CF",
    "timezone": "Africa/Bangui",
    "latitude": 4.5,
    "longitude": 21.33333
  },
  {
    "city": "Siou",
    "city_zh": "Siou",
    "country": "Central African Republic",
    "country_zh": "中非共和國",
    "country_iso_code": "CF",
    "timezone": "Africa/Bangui",
    "latitude": 5.82555,
    "longitude": 20.57855
  },
  {
    "city": "Singuélé",
    "city_zh": "Singuélé",
    "country": "Central African Republic",
    "country_zh": "中非共和國",
    "country_iso_code": "CF",
    "timezone": "Africa/Bangui",
    "latitude": 5.85491,
    "longitude": 20.50301
  },
  {
    "city": "Singa",
    "city_zh": "Singa",
    "country": "Central African Republic",
    "country_zh": "中非共和國",
    "country_iso_code": "CF",
    "timezone": "Africa/Bangui",
    "latitude": 5.09488,
    "longitude": 20.40814
  },
  {
    "city": "Sinda",
    "city_zh": "Sinda",
    "country": "Central African Republic",
    "country_zh": "中非共和國",
    "country_iso_code": "CF",
    "timezone": "Africa/Bangui",
    "latitude": 5.01586,
    "longitude": 21.80918
  },
  {
    "city": "Sinbidi",
    "city_zh": "Sinbidi",
    "country": "Central African Republic",
    "country_zh": "中非共和國",
    "country_iso_code": "CF",
    "timezone": "Africa/Bangui",
    "latitude": 5.3593,
    "longitude": 25.73502
  },
  {
    "city": "Simindou",
    "city_zh": "Simindou",
    "country": "Central African Republic",
    "country_zh": "中非共和國",
    "country_iso_code": "CF",
    "timezone": "Africa/Bangui",
    "latitude": 6.75401,
    "longitude": 23.16678
  },
  {
    "city": "Simbakbé",
    "city_zh": "Simbakbé",
    "country": "Central African Republic",
    "country_zh": "中非共和國",
    "country_iso_code": "CF",
    "timezone": "Africa/Bangui",
    "latitude": 4.96324,
    "longitude": 23.94491
  },
  {
    "city": "Simango",
    "city_zh": "Simango",
    "country": "Central African Republic",
    "country_zh": "中非共和國",
    "country_iso_code": "CF",
    "timezone": "Africa/Bangui",
    "latitude": 5.81449,
    "longitude": 25.33277
  },
  {
    "city": "Sikoua",
    "city_zh": "Sikoua",
    "country": "Central African Republic",
    "country_zh": "中非共和國",
    "country_iso_code": "CF",
    "timezone": "Africa/Bangui",
    "latitude": 4.55,
    "longitude": 20.81667
  },
  {
    "city": "Sierama",
    "city_zh": "Sierama",
    "country": "Central African Republic",
    "country_zh": "中非共和國",
    "country_iso_code": "CF",
    "timezone": "Africa/Bangui",
    "latitude": 4.68333,
    "longitude": 21.5
  },
  {
    "city": "Siéma",
    "city_zh": "Siéma",
    "country": "Central African Republic",
    "country_zh": "中非共和國",
    "country_iso_code": "CF",
    "timezone": "Africa/Bangui",
    "latitude": 5.21667,
    "longitude": 20.18333
  },
  {
    "city": "Sida",
    "city_zh": "Sida",
    "country": "Central African Republic",
    "country_zh": "中非共和國",
    "country_iso_code": "CF",
    "timezone": "Africa/Bangui",
    "latitude": 4.416,
    "longitude": 21.12291
  },
  {
    "city": "Siaka",
    "city_zh": "Siaka",
    "country": "Central African Republic",
    "country_zh": "中非共和國",
    "country_iso_code": "CF",
    "timezone": "Africa/Bangui",
    "latitude": 5.11667,
    "longitude": 24.75
  },
  {
    "city": "Sergobo",
    "city_zh": "Sergobo",
    "country": "Central African Republic",
    "country_zh": "中非共和國",
    "country_iso_code": "CF",
    "timezone": "Africa/Bangui",
    "latitude": 9.64211,
    "longitude": 22.64087
  },
  {
    "city": "Sérébogbo",
    "city_zh": "Sérébogbo",
    "country": "Central African Republic",
    "country_zh": "中非共和國",
    "country_iso_code": "CF",
    "timezone": "Africa/Bangui",
    "latitude": 4.89676,
    "longitude": 22.63742
  },
  {
    "city": "Sépéré",
    "city_zh": "Sépéré",
    "country": "Central African Republic",
    "country_zh": "中非共和國",
    "country_iso_code": "CF",
    "timezone": "Africa/Bangui",
    "latitude": 4.3,
    "longitude": 21.41667
  },
  {
    "city": "Sélim",
    "city_zh": "Sélim",
    "country": "Central African Republic",
    "country_zh": "中非共和國",
    "country_iso_code": "CF",
    "timezone": "Africa/Bangui",
    "latitude": 5.32235,
    "longitude": 27.16366
  },
  {
    "city": "Sélim",
    "city_zh": "Sélim",
    "country": "Central African Republic",
    "country_zh": "中非共和國",
    "country_iso_code": "CF",
    "timezone": "Africa/Bangui",
    "latitude": 4.94187,
    "longitude": 23.65574
  },
  {
    "city": "Sekou",
    "city_zh": "Sekou",
    "country": "Central African Republic",
    "country_zh": "中非共和國",
    "country_iso_code": "CF",
    "timezone": "Africa/Bangui",
    "latitude": 6.4,
    "longitude": 22.01667
  },
  {
    "city": "Sayo",
    "city_zh": "Sayo",
    "country": "Central African Republic",
    "country_zh": "中非共和國",
    "country_iso_code": "CF",
    "timezone": "Africa/Bangui",
    "latitude": 4.76403,
    "longitude": 22.8206
  },
  {
    "city": "Satema",
    "city_zh": "Satema",
    "country": "Central African Republic",
    "country_zh": "中非共和國",
    "country_iso_code": "CF",
    "timezone": "Africa/Bangui",
    "latitude": 4.30455,
    "longitude": 21.68663
  },
  {
    "city": "Sarangadjia",
    "city_zh": "Sarangadjia",
    "country": "Central African Republic",
    "country_zh": "中非共和國",
    "country_iso_code": "CF",
    "timezone": "Africa/Bangui",
    "latitude": 5.66667,
    "longitude": 20.55
  },
  {
    "city": "Saoua",
    "city_zh": "Saoua",
    "country": "Central African Republic",
    "country_zh": "中非共和國",
    "country_iso_code": "CF",
    "timezone": "Africa/Bangui",
    "latitude": 4.58255,
    "longitude": 21.28631
  },
  {
    "city": "Sangouya",
    "city_zh": "Sangouya",
    "country": "Central African Republic",
    "country_zh": "中非共和國",
    "country_iso_code": "CF",
    "timezone": "Africa/Bangui",
    "latitude": 4.97695,
    "longitude": 23.96742
  },
  {
    "city": "Sanbanboli",
    "city_zh": "Sanbanboli",
    "country": "Central African Republic",
    "country_zh": "中非共和國",
    "country_iso_code": "CF",
    "timezone": "Africa/Bangui",
    "latitude": 5.3841,
    "longitude": 27.19916
  },
  {
    "city": "Samblé",
    "city_zh": "Samblé",
    "country": "Central African Republic",
    "country_zh": "中非共和國",
    "country_iso_code": "CF",
    "timezone": "Africa/Bangui",
    "latitude": 5.98462,
    "longitude": 20.47972
  },
  {
    "city": "Sambia",
    "city_zh": "Sambia",
    "country": "Central African Republic",
    "country_zh": "中非共和國",
    "country_iso_code": "CF",
    "timezone": "Africa/Bangui",
    "latitude": 5.78456,
    "longitude": 22.39446
  },
  {
    "city": "Sambi",
    "city_zh": "Sambi",
    "country": "Central African Republic",
    "country_zh": "中非共和國",
    "country_iso_code": "CF",
    "timezone": "Africa/Bangui",
    "latitude": 4.82593,
    "longitude": 23.07168
  },
  {
    "city": "Sambara",
    "city_zh": "Sambara",
    "country": "Central African Republic",
    "country_zh": "中非共和國",
    "country_iso_code": "CF",
    "timezone": "Africa/Bangui",
    "latitude": 4.95841,
    "longitude": 23.6688
  },
  {
    "city": "Samba-Koumba",
    "city_zh": "Samba-Koumba",
    "country": "Central African Republic",
    "country_zh": "中非共和國",
    "country_iso_code": "CF",
    "timezone": "Africa/Bangui",
    "latitude": 4.83575,
    "longitude": 23.19303
  },
  {
    "city": "Samba",
    "city_zh": "Samba",
    "country": "Central African Republic",
    "country_zh": "中非共和國",
    "country_iso_code": "CF",
    "timezone": "Africa/Bangui",
    "latitude": 5.57158,
    "longitude": 20.45722
  },
  {
    "city": "Samamouli",
    "city_zh": "Samamouli",
    "country": "Central African Republic",
    "country_zh": "中非共和國",
    "country_iso_code": "CF",
    "timezone": "Africa/Bangui",
    "latitude": 5.51667,
    "longitude": 27.01667
  },
  {
    "city": "Sala",
    "city_zh": "Sala",
    "country": "Central African Republic",
    "country_zh": "中非共和國",
    "country_iso_code": "CF",
    "timezone": "Africa/Bangui",
    "latitude": 6.05442,
    "longitude": 25.31025
  },
  {
    "city": "Sakoumba",
    "city_zh": "Sakoumba",
    "country": "Central African Republic",
    "country_zh": "中非共和國",
    "country_iso_code": "CF",
    "timezone": "Africa/Bangui",
    "latitude": 8.21437,
    "longitude": 20.55995
  },
  {
    "city": "Sakoua",
    "city_zh": "Sakoua",
    "country": "Central African Republic",
    "country_zh": "中非共和國",
    "country_iso_code": "CF",
    "timezone": "Africa/Bangui",
    "latitude": 4.93458,
    "longitude": 20.70126
  },
  {
    "city": "Sakoua",
    "city_zh": "Sakoua",
    "country": "Central African Republic",
    "country_zh": "中非共和國",
    "country_iso_code": "CF",
    "timezone": "Africa/Bangui",
    "latitude": 4.8037,
    "longitude": 20.81419
  },
  {
    "city": "Sakola",
    "city_zh": "Sakola",
    "country": "Central African Republic",
    "country_zh": "中非共和國",
    "country_iso_code": "CF",
    "timezone": "Africa/Bangui",
    "latitude": 4.41667,
    "longitude": 21.93333
  },
  {
    "city": "Sakéné",
    "city_zh": "Sakéné",
    "country": "Central African Republic",
    "country_zh": "中非共和國",
    "country_iso_code": "CF",
    "timezone": "Africa/Bangui",
    "latitude": 6.4,
    "longitude": 22.36667
  },
  {
    "city": "Sakarani",
    "city_zh": "Sakarani",
    "country": "Central African Republic",
    "country_zh": "中非共和國",
    "country_iso_code": "CF",
    "timezone": "Africa/Bangui",
    "latitude": 5.71667,
    "longitude": 23.7
  },
  {
    "city": "Sago",
    "city_zh": "Sago",
    "country": "Central African Republic",
    "country_zh": "中非共和國",
    "country_iso_code": "CF",
    "timezone": "Africa/Bangui",
    "latitude": 5.24364,
    "longitude": 21.40939
  },
  {
    "city": "Sadjer",
    "city_zh": "Sadjer",
    "country": "Central African Republic",
    "country_zh": "中非共和國",
    "country_iso_code": "CF",
    "timezone": "Africa/Bangui",
    "latitude": 10.1162,
    "longitude": 21.9534
  },
  {
    "city": "Sabone",
    "city_zh": "Sabone",
    "country": "Central African Republic",
    "country_zh": "中非共和國",
    "country_iso_code": "CF",
    "timezone": "Africa/Bangui",
    "latitude": 6.22134,
    "longitude": 20.21585
  },
  {
    "city": "Rouhou",
    "city_zh": "Rouhou",
    "country": "Central African Republic",
    "country_zh": "中非共和國",
    "country_iso_code": "CF",
    "timezone": "Africa/Bangui",
    "latitude": 5.46667,
    "longitude": 21.83333
  },
  {
    "city": "Roma",
    "city_zh": "Roma",
    "country": "Central African Republic",
    "country_zh": "中非共和國",
    "country_iso_code": "CF",
    "timezone": "Africa/Bangui",
    "latitude": 4.64444,
    "longitude": 20.48755
  },
  {
    "city": "Rokouzou",
    "city_zh": "Rokouzou",
    "country": "Central African Republic",
    "country_zh": "中非共和國",
    "country_iso_code": "CF",
    "timezone": "Africa/Bangui",
    "latitude": 5.13333,
    "longitude": 21.06667
  },
  {
    "city": "Rohondji",
    "city_zh": "Rohondji",
    "country": "Central African Republic",
    "country_zh": "中非共和國",
    "country_iso_code": "CF",
    "timezone": "Africa/Bangui",
    "latitude": 5.9648,
    "longitude": 21.14441
  },
  {
    "city": "Roandji",
    "city_zh": "Roandji",
    "country": "Central African Republic",
    "country_zh": "中非共和國",
    "country_iso_code": "CF",
    "timezone": "Africa/Bangui",
    "latitude": 6.18259,
    "longitude": 20.70246
  },
  {
    "city": "Ringui",
    "city_zh": "Ringui",
    "country": "Central African Republic",
    "country_zh": "中非共和國",
    "country_iso_code": "CF",
    "timezone": "Africa/Bangui",
    "latitude": 5.3,
    "longitude": 21.55
  },
  {
    "city": "Rhamadame",
    "city_zh": "Rhamadame",
    "country": "Central African Republic",
    "country_zh": "中非共和國",
    "country_iso_code": "CF",
    "timezone": "Africa/Bangui",
    "latitude": 6.23333,
    "longitude": 24.91667
  },
  {
    "city": "Renimou",
    "city_zh": "Renimou",
    "country": "Central African Republic",
    "country_zh": "中非共和國",
    "country_iso_code": "CF",
    "timezone": "Africa/Bangui",
    "latitude": 4.65,
    "longitude": 21.61667
  },
  {
    "city": "Rengandjia",
    "city_zh": "Rengandjia",
    "country": "Central African Republic",
    "country_zh": "中非共和國",
    "country_iso_code": "CF",
    "timezone": "Africa/Bangui",
    "latitude": 5.79995,
    "longitude": 21.38947
  },
  {
    "city": "Rendji",
    "city_zh": "Rendji",
    "country": "Central African Republic",
    "country_zh": "中非共和國",
    "country_iso_code": "CF",
    "timezone": "Africa/Bangui",
    "latitude": 5.15,
    "longitude": 25.18333
  },
  {
    "city": "Rekondji",
    "city_zh": "Rekondji",
    "country": "Central African Republic",
    "country_zh": "中非共和國",
    "country_iso_code": "CF",
    "timezone": "Africa/Bangui",
    "latitude": 5.65665,
    "longitude": 20.72188
  },
  {
    "city": "Rehou",
    "city_zh": "Rehou",
    "country": "Central African Republic",
    "country_zh": "中非共和國",
    "country_iso_code": "CF",
    "timezone": "Africa/Bangui",
    "latitude": 5.56665,
    "longitude": 21.63218
  },
  {
    "city": "Regbanda",
    "city_zh": "Regbanda",
    "country": "Central African Republic",
    "country_zh": "中非共和國",
    "country_iso_code": "CF",
    "timezone": "Africa/Bangui",
    "latitude": 6.56667,
    "longitude": 21.11667
  },
  {
    "city": "Rebalé",
    "city_zh": "Rebalé",
    "country": "Central African Republic",
    "country_zh": "中非共和國",
    "country_iso_code": "CF",
    "timezone": "Africa/Bangui",
    "latitude": 5.95,
    "longitude": 21.78333
  },
  {
    "city": "Ramadan",
    "city_zh": "Ramadan",
    "country": "Central African Republic",
    "country_zh": "中非共和國",
    "country_iso_code": "CF",
    "timezone": "Africa/Bangui",
    "latitude": 6.05,
    "longitude": 25.26667
  },
  {
    "city": "Rafaï",
    "city_zh": "Rafaï",
    "country": "Central African Republic",
    "country_zh": "中非共和國",
    "country_iso_code": "CF",
    "timezone": "Africa/Bangui",
    "latitude": 4.97307,
    "longitude": 23.93184
  },
  {
    "city": "Prokommandé",
    "city_zh": "Prokommandé",
    "country": "Central African Republic",
    "country_zh": "中非共和國",
    "country_iso_code": "CF",
    "timezone": "Africa/Bangui",
    "latitude": 5.96796,
    "longitude": 20.72752
  },
  {
    "city": "Prama",
    "city_zh": "Prama",
    "country": "Central African Republic",
    "country_zh": "中非共和國",
    "country_iso_code": "CF",
    "timezone": "Africa/Bangui",
    "latitude": 4.31667,
    "longitude": 21.35
  },
  {
    "city": "Pourou",
    "city_zh": "Pourou",
    "country": "Central African Republic",
    "country_zh": "中非共和國",
    "country_iso_code": "CF",
    "timezone": "Africa/Bangui",
    "latitude": 4.54488,
    "longitude": 20.82052
  },
  {
    "city": "Poupou",
    "city_zh": "Poupou",
    "country": "Central African Republic",
    "country_zh": "中非共和國",
    "country_iso_code": "CF",
    "timezone": "Africa/Bangui",
    "latitude": 5.35713,
    "longitude": 26.46709
  },
  {
    "city": "Pounouka",
    "city_zh": "Pounouka",
    "country": "Central African Republic",
    "country_zh": "中非共和國",
    "country_iso_code": "CF",
    "timezone": "Africa/Bangui",
    "latitude": 4.68333,
    "longitude": 21.55
  },
  {
    "city": "Pouningua",
    "city_zh": "Pouningua",
    "country": "Central African Republic",
    "country_zh": "中非共和國",
    "country_iso_code": "CF",
    "timezone": "Africa/Bangui",
    "latitude": 5.41667,
    "longitude": 20.95
  },
  {
    "city": "Poundo",
    "city_zh": "Poundo",
    "country": "Central African Republic",
    "country_zh": "中非共和國",
    "country_iso_code": "CF",
    "timezone": "Africa/Bangui",
    "latitude": 4.58484,
    "longitude": 21.50761
  },
  {
    "city": "Poumonga",
    "city_zh": "Poumonga",
    "country": "Central African Republic",
    "country_zh": "中非共和國",
    "country_iso_code": "CF",
    "timezone": "Africa/Bangui",
    "latitude": 4.35,
    "longitude": 22.06667
  },
  {
    "city": "Poumbé",
    "city_zh": "Poumbé",
    "country": "Central African Republic",
    "country_zh": "中非共和國",
    "country_iso_code": "CF",
    "timezone": "Africa/Bangui",
    "latitude": 4.41667,
    "longitude": 21.61667
  },
  {
    "city": "Poumbata",
    "city_zh": "Poumbata",
    "country": "Central African Republic",
    "country_zh": "中非共和國",
    "country_iso_code": "CF",
    "timezone": "Africa/Bangui",
    "latitude": 4.51979,
    "longitude": 21.10508
  },
  {
    "city": "Poumanga",
    "city_zh": "Poumanga",
    "country": "Central African Republic",
    "country_zh": "中非共和國",
    "country_iso_code": "CF",
    "timezone": "Africa/Bangui",
    "latitude": 5.75,
    "longitude": 21.43333
  },
  {
    "city": "Poumanga",
    "city_zh": "Poumanga",
    "country": "Central African Republic",
    "country_zh": "中非共和國",
    "country_iso_code": "CF",
    "timezone": "Africa/Bangui",
    "latitude": 5.58254,
    "longitude": 20.81923
  },
  {
    "city": "Poumandji",
    "city_zh": "Poumandji",
    "country": "Central African Republic",
    "country_zh": "中非共和國",
    "country_iso_code": "CF",
    "timezone": "Africa/Bangui",
    "latitude": 5.93326,
    "longitude": 22.1641
  },
  {
    "city": "Poumalé",
    "city_zh": "Poumalé",
    "country": "Central African Republic",
    "country_zh": "中非共和國",
    "country_iso_code": "CF",
    "timezone": "Africa/Bangui",
    "latitude": 4.93333,
    "longitude": 20.7
  },
  {
    "city": "Pouloubou",
    "city_zh": "Pouloubou",
    "country": "Central African Republic",
    "country_zh": "中非共和國",
    "country_iso_code": "CF",
    "timezone": "Africa/Bangui",
    "latitude": 5.12474,
    "longitude": 21.59756
  },
  {
    "city": "Poulingba",
    "city_zh": "Poulingba",
    "country": "Central African Republic",
    "country_zh": "中非共和國",
    "country_iso_code": "CF",
    "timezone": "Africa/Bangui",
    "latitude": 5.83333,
    "longitude": 21.01667
  },
  {
    "city": "Poukou",
    "city_zh": "Poukou",
    "country": "Central African Republic",
    "country_zh": "中非共和國",
    "country_iso_code": "CF",
    "timezone": "Africa/Bangui",
    "latitude": 5.45,
    "longitude": 20.35
  },
  {
    "city": "Poudjio",
    "city_zh": "Poudjio",
    "country": "Central African Republic",
    "country_zh": "中非共和國",
    "country_iso_code": "CF",
    "timezone": "Africa/Bangui",
    "latitude": 5.4,
    "longitude": 21.01667
  },
  {
    "city": "Poubangui",
    "city_zh": "Poubangui",
    "country": "Central African Republic",
    "country_zh": "中非共和國",
    "country_iso_code": "CF",
    "timezone": "Africa/Bangui",
    "latitude": 6.23714,
    "longitude": 20.19623
  },
  {
    "city": "Potopoto",
    "city_zh": "Potopoto",
    "country": "Central African Republic",
    "country_zh": "中非共和國",
    "country_iso_code": "CF",
    "timezone": "Africa/Bangui",
    "latitude": 7.48333,
    "longitude": 22.51667
  },
  {
    "city": "Poto",
    "city_zh": "Poto",
    "country": "Central African Republic",
    "country_zh": "中非共和國",
    "country_iso_code": "CF",
    "timezone": "Africa/Bangui",
    "latitude": 4.51667,
    "longitude": 21.28333
  },
  {
    "city": "Poro",
    "city_zh": "Poro",
    "country": "Central African Republic",
    "country_zh": "中非共和國",
    "country_iso_code": "CF",
    "timezone": "Africa/Bangui",
    "latitude": 5.75,
    "longitude": 20.05
  },
  {
    "city": "Pombolo",
    "city_zh": "Pombolo",
    "country": "Central African Republic",
    "country_zh": "中非共和國",
    "country_iso_code": "CF",
    "timezone": "Africa/Bangui",
    "latitude": 4.5,
    "longitude": 22.0
  },
  {
    "city": "Polisé",
    "city_zh": "Polisé",
    "country": "Central African Republic",
    "country_zh": "中非共和國",
    "country_iso_code": "CF",
    "timezone": "Africa/Bangui",
    "latitude": 4.62297,
    "longitude": 22.72963
  },
  {
    "city": "Polahi",
    "city_zh": "Polahi",
    "country": "Central African Republic",
    "country_zh": "中非共和國",
    "country_iso_code": "CF",
    "timezone": "Africa/Bangui",
    "latitude": 4.53333,
    "longitude": 21.3
  },
  {
    "city": "Pokinga",
    "city_zh": "Pokinga",
    "country": "Central African Republic",
    "country_zh": "中非共和國",
    "country_iso_code": "CF",
    "timezone": "Africa/Bangui",
    "latitude": 4.35,
    "longitude": 21.6
  },
  {
    "city": "Poima",
    "city_zh": "Poima",
    "country": "Central African Republic",
    "country_zh": "中非共和國",
    "country_iso_code": "CF",
    "timezone": "Africa/Bangui",
    "latitude": 4.33333,
    "longitude": 21.78333
  },
  {
    "city": "Pitou",
    "city_zh": "Pitou",
    "country": "Central African Republic",
    "country_zh": "中非共和國",
    "country_iso_code": "CF",
    "timezone": "Africa/Bangui",
    "latitude": 4.31667,
    "longitude": 21.4
  },
  {
    "city": "Pissara",
    "city_zh": "Pissara",
    "country": "Central African Republic",
    "country_zh": "中非共和國",
    "country_iso_code": "CF",
    "timezone": "Africa/Bangui",
    "latitude": 5.06667,
    "longitude": 25.05
  },
  {
    "city": "Pingo Pingo",
    "city_zh": "Pingo Pingo",
    "country": "Central African Republic",
    "country_zh": "中非共和國",
    "country_iso_code": "CF",
    "timezone": "Africa/Bangui",
    "latitude": 5.05327,
    "longitude": 22.76327
  },
  {
    "city": "Pingo Iangi",
    "city_zh": "Pingo Iangi",
    "country": "Central African Republic",
    "country_zh": "中非共和國",
    "country_iso_code": "CF",
    "timezone": "Africa/Bangui",
    "latitude": 5.20322,
    "longitude": 22.84283
  },
  {
    "city": "Piko",
    "city_zh": "Piko",
    "country": "Central African Republic",
    "country_zh": "中非共和國",
    "country_iso_code": "CF",
    "timezone": "Africa/Bangui",
    "latitude": 4.95,
    "longitude": 23.65
  },
  {
    "city": "Pikeyo",
    "city_zh": "Pikeyo",
    "country": "Central African Republic",
    "country_zh": "中非共和國",
    "country_iso_code": "CF",
    "timezone": "Africa/Bangui",
    "latitude": 6.36667,
    "longitude": 24.85
  },
  {
    "city": "Pikapou",
    "city_zh": "Pikapou",
    "country": "Central African Republic",
    "country_zh": "中非共和國",
    "country_iso_code": "CF",
    "timezone": "Africa/Bangui",
    "latitude": 4.35,
    "longitude": 21.7
  },
  {
    "city": "Pigala",
    "city_zh": "Pigala",
    "country": "Central African Republic",
    "country_zh": "中非共和國",
    "country_iso_code": "CF",
    "timezone": "Africa/Bangui",
    "latitude": 5.18333,
    "longitude": 21.08333
  },
  {
    "city": "Pierlat",
    "city_zh": "Pierlat",
    "country": "Central African Republic",
    "country_zh": "中非共和國",
    "country_iso_code": "CF",
    "timezone": "Africa/Bangui",
    "latitude": 5.14241,
    "longitude": 20.14232
  },
  {
    "city": "Pidimbaro",
    "city_zh": "Pidimbaro",
    "country": "Central African Republic",
    "country_zh": "中非共和國",
    "country_iso_code": "CF",
    "timezone": "Africa/Bangui",
    "latitude": 5.574,
    "longitude": 26.23544
  },
  {
    "city": "Pibi",
    "city_zh": "Pibi",
    "country": "Central African Republic",
    "country_zh": "中非共和國",
    "country_iso_code": "CF",
    "timezone": "Africa/Bangui",
    "latitude": 5.87208,
    "longitude": 22.21514
  },
  {
    "city": "Piangou",
    "city_zh": "Piangou",
    "country": "Central African Republic",
    "country_zh": "中非共和國",
    "country_iso_code": "CF",
    "timezone": "Africa/Bangui",
    "latitude": 6.19106,
    "longitude": 20.6511
  },
  {
    "city": "Pia Bogou",
    "city_zh": "Pia Bogou",
    "country": "Central African Republic",
    "country_zh": "中非共和國",
    "country_iso_code": "CF",
    "timezone": "Africa/Bangui",
    "latitude": 5.08333,
    "longitude": 23.4
  },
  {
    "city": "Pendé",
    "city_zh": "Pendé",
    "country": "Central African Republic",
    "country_zh": "中非共和國",
    "country_iso_code": "CF",
    "timezone": "Africa/Bangui",
    "latitude": 8.01667,
    "longitude": 21.85
  },
  {
    "city": "Pendé",
    "city_zh": "Pendé",
    "country": "Central African Republic",
    "country_zh": "中非共和國",
    "country_iso_code": "CF",
    "timezone": "Africa/Bangui",
    "latitude": 6.51599,
    "longitude": 21.98622
  },
  {
    "city": "Pendé",
    "city_zh": "Pendé",
    "country": "Central African Republic",
    "country_zh": "中非共和國",
    "country_iso_code": "CF",
    "timezone": "Africa/Bangui",
    "latitude": 6.32738,
    "longitude": 22.00441
  },
  {
    "city": "Pembio",
    "city_zh": "Pembio",
    "country": "Central African Republic",
    "country_zh": "中非共和國",
    "country_iso_code": "CF",
    "timezone": "Africa/Bangui",
    "latitude": 5.66667,
    "longitude": 27.06667
  },
  {
    "city": "Pela",
    "city_zh": "Pela",
    "country": "Central African Republic",
    "country_zh": "中非共和國",
    "country_iso_code": "CF",
    "timezone": "Africa/Bangui",
    "latitude": 4.56667,
    "longitude": 20.56667
  },
  {
    "city": "Pékéyo",
    "city_zh": "Pékéyo",
    "country": "Central African Republic",
    "country_zh": "中非共和國",
    "country_iso_code": "CF",
    "timezone": "Africa/Bangui",
    "latitude": 6.06173,
    "longitude": 25.27275
  },
  {
    "city": "Pazendji",
    "city_zh": "Pazendji",
    "country": "Central African Republic",
    "country_zh": "中非共和國",
    "country_iso_code": "CF",
    "timezone": "Africa/Bangui",
    "latitude": 5.71122,
    "longitude": 21.57352
  },
  {
    "city": "Payo",
    "city_zh": "Payo",
    "country": "Central African Republic",
    "country_zh": "中非共和國",
    "country_iso_code": "CF",
    "timezone": "Africa/Bangui",
    "latitude": 6.28333,
    "longitude": 21.26667
  },
  {
    "city": "Payazo",
    "city_zh": "Payazo",
    "country": "Central African Republic",
    "country_zh": "中非共和國",
    "country_iso_code": "CF",
    "timezone": "Africa/Bangui",
    "latitude": 5.77175,
    "longitude": 22.47467
  },
  {
    "city": "Pavondo",
    "city_zh": "Pavondo",
    "country": "Central African Republic",
    "country_zh": "中非共和國",
    "country_iso_code": "CF",
    "timezone": "Africa/Bangui",
    "latitude": 5.58333,
    "longitude": 25.25
  },
  {
    "city": "Patahinga",
    "city_zh": "Patahinga",
    "country": "Central African Republic",
    "country_zh": "中非共和國",
    "country_iso_code": "CF",
    "timezone": "Africa/Bangui",
    "latitude": 5.1,
    "longitude": 24.63333
  },
  {
    "city": "Pata",
    "city_zh": "Pata",
    "country": "Central African Republic",
    "country_zh": "中非共和國",
    "country_iso_code": "CF",
    "timezone": "Africa/Bangui",
    "latitude": 8.05517,
    "longitude": 21.39734
  },
  {
    "city": "Passourou",
    "city_zh": "Passourou",
    "country": "Central African Republic",
    "country_zh": "中非共和國",
    "country_iso_code": "CF",
    "timezone": "Africa/Bangui",
    "latitude": 4.76667,
    "longitude": 23.6
  },
  {
    "city": "Passoro",
    "city_zh": "Passoro",
    "country": "Central African Republic",
    "country_zh": "中非共和國",
    "country_iso_code": "CF",
    "timezone": "Africa/Bangui",
    "latitude": 6.51667,
    "longitude": 22.08333
  },
  {
    "city": "Pasiki",
    "city_zh": "Pasiki",
    "country": "Central African Republic",
    "country_zh": "中非共和國",
    "country_iso_code": "CF",
    "timezone": "Africa/Bangui",
    "latitude": 5.69289,
    "longitude": 22.78214
  },
  {
    "city": "Paratio",
    "city_zh": "Paratio",
    "country": "Central African Republic",
    "country_zh": "中非共和國",
    "country_iso_code": "CF",
    "timezone": "Africa/Bangui",
    "latitude": 6.01667,
    "longitude": 25.56667
  },
  {
    "city": "Parada",
    "city_zh": "Parada",
    "country": "Central African Republic",
    "country_zh": "中非共和國",
    "country_iso_code": "CF",
    "timezone": "Africa/Bangui",
    "latitude": 4.53797,
    "longitude": 20.62773
  },
  {
    "city": "Parabanda",
    "city_zh": "Parabanda",
    "country": "Central African Republic",
    "country_zh": "中非共和國",
    "country_iso_code": "CF",
    "timezone": "Africa/Bangui",
    "latitude": 5.36084,
    "longitude": 26.94611
  },
  {
    "city": "Paouara",
    "city_zh": "Paouara",
    "country": "Central African Republic",
    "country_zh": "中非共和國",
    "country_iso_code": "CF",
    "timezone": "Africa/Bangui",
    "latitude": 5.38723,
    "longitude": 23.03667
  },
  {
    "city": "Paoua",
    "city_zh": "Paoua",
    "country": "Central African Republic",
    "country_zh": "中非共和國",
    "country_iso_code": "CF",
    "timezone": "Africa/Bangui",
    "latitude": 4.53333,
    "longitude": 21.4
  },
  {
    "city": "Panzadounga",
    "city_zh": "Panzadounga",
    "country": "Central African Republic",
    "country_zh": "中非共和國",
    "country_iso_code": "CF",
    "timezone": "Africa/Bangui",
    "latitude": 5.02182,
    "longitude": 22.49735
  },
  {
    "city": "Panza",
    "city_zh": "Panza",
    "country": "Central African Republic",
    "country_zh": "中非共和國",
    "country_iso_code": "CF",
    "timezone": "Africa/Bangui",
    "latitude": 5.68333,
    "longitude": 26.8
  },
  {
    "city": "Panza",
    "city_zh": "Panza",
    "country": "Central African Republic",
    "country_zh": "中非共和國",
    "country_iso_code": "CF",
    "timezone": "Africa/Bangui",
    "latitude": 5.66667,
    "longitude": 24.76667
  },
  {
    "city": "Panza",
    "city_zh": "Panza",
    "country": "Central African Republic",
    "country_zh": "中非共和國",
    "country_iso_code": "CF",
    "timezone": "Africa/Bangui",
    "latitude": 4.92946,
    "longitude": 22.72324
  },
  {
    "city": "Pania",
    "city_zh": "Pania",
    "country": "Central African Republic",
    "country_zh": "中非共和國",
    "country_iso_code": "CF",
    "timezone": "Africa/Bangui",
    "latitude": 5.43333,
    "longitude": 26.41667
  },
  {
    "city": "Pangoula",
    "city_zh": "Pangoula",
    "country": "Central African Republic",
    "country_zh": "中非共和國",
    "country_iso_code": "CF",
    "timezone": "Africa/Bangui",
    "latitude": 6.07721,
    "longitude": 20.40214
  },
  {
    "city": "Pangba",
    "city_zh": "Pangba",
    "country": "Central African Republic",
    "country_zh": "中非共和國",
    "country_iso_code": "CF",
    "timezone": "Africa/Bangui",
    "latitude": 4.65238,
    "longitude": 21.14206
  },
  {
    "city": "Panga",
    "city_zh": "Panga",
    "country": "Central African Republic",
    "country_zh": "中非共和國",
    "country_iso_code": "CF",
    "timezone": "Africa/Bangui",
    "latitude": 5.23754,
    "longitude": 21.80406
  },
  {
    "city": "Panga",
    "city_zh": "Panga",
    "country": "Central African Republic",
    "country_zh": "中非共和國",
    "country_iso_code": "CF",
    "timezone": "Africa/Bangui",
    "latitude": 5.19326,
    "longitude": 21.79483
  },
  {
    "city": "Panga",
    "city_zh": "Panga",
    "country": "Central African Republic",
    "country_zh": "中非共和國",
    "country_iso_code": "CF",
    "timezone": "Africa/Bangui",
    "latitude": 5.16692,
    "longitude": 21.78685
  },
  {
    "city": "Panga",
    "city_zh": "Panga",
    "country": "Central African Republic",
    "country_zh": "中非共和國",
    "country_iso_code": "CF",
    "timezone": "Africa/Bangui",
    "latitude": 5.1475,
    "longitude": 21.7881
  },
  {
    "city": "Panga",
    "city_zh": "Panga",
    "country": "Central African Republic",
    "country_zh": "中非共和國",
    "country_iso_code": "CF",
    "timezone": "Africa/Bangui",
    "latitude": 5.0607,
    "longitude": 20.40255
  },
  {
    "city": "Panenga",
    "city_zh": "Panenga",
    "country": "Central African Republic",
    "country_zh": "中非共和國",
    "country_iso_code": "CF",
    "timezone": "Africa/Bangui",
    "latitude": 6.45,
    "longitude": 21.65
  },
  {
    "city": "Pandou",
    "city_zh": "Pandou",
    "country": "Central African Republic",
    "country_zh": "中非共和國",
    "country_iso_code": "CF",
    "timezone": "Africa/Bangui",
    "latitude": 5.50555,
    "longitude": 21.71915
  },
  {
    "city": "Pandoko",
    "city_zh": "Pandoko",
    "country": "Central African Republic",
    "country_zh": "中非共和國",
    "country_iso_code": "CF",
    "timezone": "Africa/Bangui",
    "latitude": 4.96667,
    "longitude": 21.31667
  },
  {
    "city": "Pandjimali",
    "city_zh": "Pandjimali",
    "country": "Central African Republic",
    "country_zh": "中非共和國",
    "country_iso_code": "CF",
    "timezone": "Africa/Bangui",
    "latitude": 5.43626,
    "longitude": 20.8835
  },
  {
    "city": "Panbolinbo",
    "city_zh": "Panbolinbo",
    "country": "Central African Republic",
    "country_zh": "中非共和國",
    "country_iso_code": "CF",
    "timezone": "Africa/Bangui",
    "latitude": 5.28333,
    "longitude": 26.13333
  },
  {
    "city": "Pamindou",
    "city_zh": "Pamindou",
    "country": "Central African Republic",
    "country_zh": "中非共和國",
    "country_iso_code": "CF",
    "timezone": "Africa/Bangui",
    "latitude": 4.43333,
    "longitude": 21.91667
  },
  {
    "city": "Pambara",
    "city_zh": "Pambara",
    "country": "Central African Republic",
    "country_zh": "中非共和國",
    "country_iso_code": "CF",
    "timezone": "Africa/Bangui",
    "latitude": 5.33333,
    "longitude": 24.73333
  },
  {
    "city": "Pama",
    "city_zh": "Pama",
    "country": "Central African Republic",
    "country_zh": "中非共和國",
    "country_iso_code": "CF",
    "timezone": "Africa/Bangui",
    "latitude": 5.07165,
    "longitude": 20.70668
  },
  {
    "city": "Palissio",
    "city_zh": "Palissio",
    "country": "Central African Republic",
    "country_zh": "中非共和國",
    "country_iso_code": "CF",
    "timezone": "Africa/Bangui",
    "latitude": 4.31667,
    "longitude": 21.96667
  },
  {
    "city": "Palinda",
    "city_zh": "Palinda",
    "country": "Central African Republic",
    "country_zh": "中非共和國",
    "country_iso_code": "CF",
    "timezone": "Africa/Bangui",
    "latitude": 6.1918,
    "longitude": 20.21974
  },
  {
    "city": "Pakpa",
    "city_zh": "Pakpa",
    "country": "Central African Republic",
    "country_zh": "中非共和國",
    "country_iso_code": "CF",
    "timezone": "Africa/Bangui",
    "latitude": 5.78333,
    "longitude": 20.03333
  },
  {
    "city": "Pagui",
    "city_zh": "Pagui",
    "country": "Central African Republic",
    "country_zh": "中非共和國",
    "country_iso_code": "CF",
    "timezone": "Africa/Bangui",
    "latitude": 5.09401,
    "longitude": 21.07842
  },
  {
    "city": "Pago",
    "city_zh": "Pago",
    "country": "Central African Republic",
    "country_zh": "中非共和國",
    "country_iso_code": "CF",
    "timezone": "Africa/Bangui",
    "latitude": 5.50319,
    "longitude": 21.74544
  },
  {
    "city": "Pagbingui",
    "city_zh": "Pagbingui",
    "country": "Central African Republic",
    "country_zh": "中非共和國",
    "country_iso_code": "CF",
    "timezone": "Africa/Bangui",
    "latitude": 5.65201,
    "longitude": 20.72346
  },
  {
    "city": "Pagbana",
    "city_zh": "Pagbana",
    "country": "Central African Republic",
    "country_zh": "中非共和國",
    "country_iso_code": "CF",
    "timezone": "Africa/Bangui",
    "latitude": 4.4,
    "longitude": 21.95
  },
  {
    "city": "Pagbama",
    "city_zh": "Pagbama",
    "country": "Central African Republic",
    "country_zh": "中非共和國",
    "country_iso_code": "CF",
    "timezone": "Africa/Bangui",
    "latitude": 4.58333,
    "longitude": 21.56667
  },
  {
    "city": "Padou",
    "city_zh": "Padou",
    "country": "Central African Republic",
    "country_zh": "中非共和國",
    "country_iso_code": "CF",
    "timezone": "Africa/Bangui",
    "latitude": 4.50989,
    "longitude": 21.26493
  },
  {
    "city": "Oyé",
    "city_zh": "Oyé",
    "country": "Central African Republic",
    "country_zh": "中非共和國",
    "country_iso_code": "CF",
    "timezone": "Africa/Bangui",
    "latitude": 4.38519,
    "longitude": 21.21042
  },
  {
    "city": "Owou",
    "city_zh": "Owou",
    "country": "Central African Republic",
    "country_zh": "中非共和國",
    "country_iso_code": "CF",
    "timezone": "Africa/Bangui",
    "latitude": 6.40932,
    "longitude": 22.98376
  },
  {
    "city": "Ouza",
    "city_zh": "Ouza",
    "country": "Central African Republic",
    "country_zh": "中非共和國",
    "country_iso_code": "CF",
    "timezone": "Africa/Bangui",
    "latitude": 4.96123,
    "longitude": 20.48302
  },
  {
    "city": "Ouza",
    "city_zh": "Ouza",
    "country": "Central African Republic",
    "country_zh": "中非共和國",
    "country_iso_code": "CF",
    "timezone": "Africa/Bangui",
    "latitude": 4.85275,
    "longitude": 20.38298
  },
  {
    "city": "Ouza",
    "city_zh": "Ouza",
    "country": "Central African Republic",
    "country_zh": "中非共和國",
    "country_iso_code": "CF",
    "timezone": "Africa/Bangui",
    "latitude": 4.55,
    "longitude": 20.68333
  },
  {
    "city": "Ouyé",
    "city_zh": "Ouyé",
    "country": "Central African Republic",
    "country_zh": "中非共和國",
    "country_iso_code": "CF",
    "timezone": "Africa/Bangui",
    "latitude": 4.55414,
    "longitude": 21.28588
  },
  {
    "city": "Ouyé",
    "city_zh": "Ouyé",
    "country": "Central African Republic",
    "country_zh": "中非共和國",
    "country_iso_code": "CF",
    "timezone": "Africa/Bangui",
    "latitude": 4.48497,
    "longitude": 21.27221
  },
  {
    "city": "Ouya",
    "city_zh": "Ouya",
    "country": "Central African Republic",
    "country_zh": "中非共和國",
    "country_iso_code": "CF",
    "timezone": "Africa/Bangui",
    "latitude": 6.18816,
    "longitude": 20.54938
  },
  {
    "city": "Outagba",
    "city_zh": "Outagba",
    "country": "Central African Republic",
    "country_zh": "中非共和國",
    "country_iso_code": "CF",
    "timezone": "Africa/Bangui",
    "latitude": 5.80051,
    "longitude": 20.21859
  },
  {
    "city": "Ouroupandé",
    "city_zh": "Ouroupandé",
    "country": "Central African Republic",
    "country_zh": "中非共和國",
    "country_iso_code": "CF",
    "timezone": "Africa/Bangui",
    "latitude": 5.43333,
    "longitude": 21.66667
  },
  {
    "city": "Ourouguia Pélé",
    "city_zh": "Ourouguia Pélé",
    "country": "Central African Republic",
    "country_zh": "中非共和國",
    "country_iso_code": "CF",
    "timezone": "Africa/Bangui",
    "latitude": 4.66667,
    "longitude": 21.66667
  },
  {
    "city": "Ouroudou",
    "city_zh": "Ouroudou",
    "country": "Central African Republic",
    "country_zh": "中非共和國",
    "country_iso_code": "CF",
    "timezone": "Africa/Bangui",
    "latitude": 6.43333,
    "longitude": 21.61667
  },
  {
    "city": "Ourou",
    "city_zh": "Ourou",
    "country": "Central African Republic",
    "country_zh": "中非共和國",
    "country_iso_code": "CF",
    "timezone": "Africa/Bangui",
    "latitude": 6.04099,
    "longitude": 25.35197
  },
  {
    "city": "Ourou",
    "city_zh": "Ourou",
    "country": "Central African Republic",
    "country_zh": "中非共和國",
    "country_iso_code": "CF",
    "timezone": "Africa/Bangui",
    "latitude": 5.11947,
    "longitude": 20.71329
  },
  {
    "city": "Ouré",
    "city_zh": "Ouré",
    "country": "Central African Republic",
    "country_zh": "中非共和國",
    "country_iso_code": "CF",
    "timezone": "Africa/Bangui",
    "latitude": 5.16667,
    "longitude": 24.21667
  },
  {
    "city": "Ouratonga",
    "city_zh": "Ouratonga",
    "country": "Central African Republic",
    "country_zh": "中非共和國",
    "country_iso_code": "CF",
    "timezone": "Africa/Bangui",
    "latitude": 5.218,
    "longitude": 25.23319
  },
  {
    "city": "Oumba",
    "city_zh": "Oumba",
    "country": "Central African Republic",
    "country_zh": "中非共和國",
    "country_iso_code": "CF",
    "timezone": "Africa/Bangui",
    "latitude": 4.96514,
    "longitude": 20.71559
  },
  {
    "city": "Oumba",
    "city_zh": "Oumba",
    "country": "Central African Republic",
    "country_zh": "中非共和國",
    "country_iso_code": "CF",
    "timezone": "Africa/Bangui",
    "latitude": 4.91202,
    "longitude": 20.23915
  },
  {
    "city": "Oumba",
    "city_zh": "Oumba",
    "country": "Central African Republic",
    "country_zh": "中非共和國",
    "country_iso_code": "CF",
    "timezone": "Africa/Bangui",
    "latitude": 4.69318,
    "longitude": 20.46721
  },
  {
    "city": "Oumara",
    "city_zh": "Oumara",
    "country": "Central African Republic",
    "country_zh": "中非共和國",
    "country_iso_code": "CF",
    "timezone": "Africa/Bangui",
    "latitude": 4.97007,
    "longitude": 23.97071
  },
  {
    "city": "Oulou",
    "city_zh": "Oulou",
    "country": "Central African Republic",
    "country_zh": "中非共和國",
    "country_iso_code": "CF",
    "timezone": "Africa/Bangui",
    "latitude": 9.9044,
    "longitude": 22.0184
  },
  {
    "city": "Oulou",
    "city_zh": "Oulou",
    "country": "Central African Republic",
    "country_zh": "中非共和國",
    "country_iso_code": "CF",
    "timezone": "Africa/Bangui",
    "latitude": 4.53333,
    "longitude": 20.73333
  },
  {
    "city": "Ouli",
    "city_zh": "Ouli",
    "country": "Central African Republic",
    "country_zh": "中非共和國",
    "country_iso_code": "CF",
    "timezone": "Africa/Bangui",
    "latitude": 4.83333,
    "longitude": 21.3
  },
  {
    "city": "Ouiya",
    "city_zh": "Ouiya",
    "country": "Central African Republic",
    "country_zh": "中非共和國",
    "country_iso_code": "CF",
    "timezone": "Africa/Bangui",
    "latitude": 4.7,
    "longitude": 20.46667
  },
  {
    "city": "Ouimba",
    "city_zh": "Ouimba",
    "country": "Central African Republic",
    "country_zh": "中非共和國",
    "country_iso_code": "CF",
    "timezone": "Africa/Bangui",
    "latitude": 6.09983,
    "longitude": 21.3142
  },
  {
    "city": "Ouihi-Goutehoko",
    "city_zh": "Ouihi-Goutehoko",
    "country": "Central African Republic",
    "country_zh": "中非共和國",
    "country_iso_code": "CF",
    "timezone": "Africa/Bangui",
    "latitude": 8.36667,
    "longitude": 20.7
  },
  {
    "city": "Ouihi",
    "city_zh": "Ouihi",
    "country": "Central African Republic",
    "country_zh": "中非共和國",
    "country_iso_code": "CF",
    "timezone": "Africa/Bangui",
    "latitude": 8.40111,
    "longitude": 20.69901
  },
  {
    "city": "Ouga",
    "city_zh": "Ouga",
    "country": "Central African Republic",
    "country_zh": "中非共和國",
    "country_iso_code": "CF",
    "timezone": "Africa/Bangui",
    "latitude": 5.84589,
    "longitude": 21.56157
  },
  {
    "city": "Ouenguélé",
    "city_zh": "Ouenguélé",
    "country": "Central African Republic",
    "country_zh": "中非共和國",
    "country_iso_code": "CF",
    "timezone": "Africa/Bangui",
    "latitude": 5.48333,
    "longitude": 21.25
  },
  {
    "city": "Ouenda",
    "city_zh": "Ouenda",
    "country": "Central African Republic",
    "country_zh": "中非共和國",
    "country_iso_code": "CF",
    "timezone": "Africa/Bangui",
    "latitude": 5.35509,
    "longitude": 23.0465
  },