[
  {
    "city": "Vele",
    "city_zh": "Vele",
    "country": "Wallis and Futuna",
    "country_zh": "Wallis and Futuna",
    "country_iso_code": "WF",
    "timezone": "Pacific/Wallis",
    "latitude": -14.31021,
    "longitude": -178.06538
  },
  {
    "city": "Vaitupu",
    "city_zh": "Vaitupu",
    "country": "Wallis and Futuna",
    "country_zh": "Wallis and Futuna",
    "country_iso_code": "WF",
    "timezone": "Pacific/Wallis",
    "latitude": -13.227,
    "longitude": -176.18834
  },
  {
    "city": "Vaimalau",
    "city_zh": "Vaimalau",
    "country": "Wallis and Futuna",
    "country_zh": "Wallis and Futuna",
    "country_iso_code": "WF",
    "timezone": "Pacific/Wallis",
    "latitude": -13.31322,
    "longitude": -176.24167
  },
  {
    "city": "Vailala",
    "city_zh": "Vailala",
    "country": "Wallis and Futuna",
    "country_zh": "Wallis and Futuna",
    "country_iso_code": "WF",
    "timezone": "Pacific/Wallis",
    "latitude": -13.22173,
    "longitude": -176.20551
  },
  {
    "city": "Utuloa",
    "city_zh": "Utuloa",
    "country": "Wallis and Futuna",
    "country_zh": "Wallis and Futuna",
    "country_iso_code": "WF",
    "timezone": "Pacific/Wallis",
    "latitude": -13.26667,
    "longitude": -176.18333
  },
  {
    "city": "Utufua",
    "city_zh": "Utufua",
    "country": "Wallis and Futuna",
    "country_zh": "Wallis and Futuna",
    "country_iso_code": "WF",
    "timezone": "Pacific/Wallis",
    "latitude": -13.34261,
    "longitude": -176.19435
  },
  {
    "city": "Tufuone",
    "city_zh": "Tufuone",
    "country": "Wallis and Futuna",
    "country_zh": "Wallis and Futuna",
    "country_iso_code": "WF",
    "timezone": "Pacific/Wallis",
    "latitude": -13.22449,
    "longitude": -176.21088
  },
  {
    "city": "Tepa",
    "city_zh": "Tepa",
    "country": "Wallis and Futuna",
    "country_zh": "Wallis and Futuna",
    "country_iso_code": "WF",
    "timezone": "Pacific/Wallis",
    "latitude": -13.32381,
    "longitude": -176.18826
  },
  {
    "city": "Teesi",
    "city_zh": "Teesi",
    "country": "Wallis and Futuna",
    "country_zh": "Wallis and Futuna",
    "country_iso_code": "WF",
    "timezone": "Pacific/Wallis",
    "latitude": -13.35096,
    "longitude": -176.20585
  },
  {
    "city": "Tavai",
    "city_zh": "Tavai",
    "country": "Wallis and Futuna",
    "country_zh": "Wallis and Futuna",
    "country_iso_code": "WF",
    "timezone": "Pacific/Wallis",
    "latitude": -14.24495,
    "longitude": -178.16902
  },
  {
    "city": "Leava",
    "city_zh": "Leava",
    "country": "Wallis and Futuna",
    "country_zh": "Wallis and Futuna",
    "country_iso_code": "WF",
    "timezone": "Pacific/Wallis",
    "latitude": -14.29333,
    "longitude": -178.15833
  },
  {
    "city": "Mua",
    "city_zh": "Mua",
    "country": "Wallis and Futuna",
    "country_zh": "Wallis and Futuna",
    "country_iso_code": "WF",
    "timezone": "Pacific/Wallis",
    "latitude": -14.32632,
    "longitude": -178.05688
  },
  {
    "city": "Mua",
    "city_zh": "Mua",
    "country": "Wallis and Futuna",
    "country_zh": "Wallis and Futuna",
    "country_iso_code": "WF",
    "timezone": "Pacific/Wallis",
    "latitude": -13.34169,
    "longitude": -176.18701
  },
  {
    "city": "Mata-Utu",
    "city_zh": "马塔乌图",
    "country": "Wallis and Futuna",
    "country_zh": "Wallis and Futuna",
    "country_iso_code": "WF",
    "timezone": "Pacific/Wallis",
    "latitude": -13.28163,
    "longitude": -176.17453
  },
  {
    "city": "Liku",
    "city_zh": "Liku",
    "country": "Wallis and Futuna",
    "country_zh": "Wallis and Futuna",
    "country_iso_code": "WF",
    "timezone": "Pacific/Wallis",
    "latitude": -13.26852,
    "longitude": -176.16586
  },
  {
    "city": "Lano",
    "city_zh": "Lano",
    "country": "Wallis and Futuna",
    "country_zh": "Wallis and Futuna",
    "country_iso_code": "WF",
    "timezone": "Pacific/Wallis",
    "latitude": -13.25632,
    "longitude": -176.16792
  },
  {
    "city": "Kolopopo",
    "city_zh": "Kolopopo",
    "country": "Wallis and Futuna",
    "country_zh": "Wallis and Futuna",
    "country_iso_code": "WF",
    "timezone": "Pacific/Wallis",
    "latitude": -13.34703,
    "longitude": -176.21512
  },
  {
    "city": "Kolia",
    "city_zh": "Kolia",
    "country": "Wallis and Futuna",
    "country_zh": "Wallis and Futuna",
    "country_iso_code": "WF",
    "timezone": "Pacific/Wallis",
    "latitude": -14.30751,
    "longitude": -178.09683
  },
  {
    "city": "Halamaitai",
    "city_zh": "Halamaitai",
    "country": "Wallis and Futuna",
    "country_zh": "Wallis and Futuna",
    "country_iso_code": "WF",
    "timezone": "Pacific/Wallis",
    "latitude": -13.28184,
    "longitude": -176.19045
  },
  {
    "city": "Halalo",
    "city_zh": "Halalo",
    "country": "Wallis and Futuna",
    "country_zh": "Wallis and Futuna",
    "country_iso_code": "WF",
    "timezone": "Pacific/Wallis",
    "latitude": -13.3454,
    "longitude": -176.21464
  },
  {
    "city": "Haatofo",
    "city_zh": "Haatofo",
    "country": "Wallis and Futuna",
    "country_zh": "Wallis and Futuna",
    "country_iso_code": "WF",
    "timezone": "Pacific/Wallis",
    "latitude": -13.32807,
    "longitude": -176.19058
  },
  {
    "city": "Haafusia",
    "city_zh": "Haafusia",
    "country": "Wallis and Futuna",
    "country_zh": "Wallis and Futuna",
    "country_iso_code": "WF",
    "timezone": "Pacific/Wallis",
    "latitude": -13.30034,
    "longitude": -176.18362
  },
  {
    "city": "Gamua",
    "city_zh": "Gamua",
    "country": "Wallis and Futuna",
    "country_zh": "Wallis and Futuna",
    "country_iso_code": "WF",
    "timezone": "Pacific/Wallis",
    "latitude": -13.24855,
    "longitude": -176.17813
  },
  {
    "city": "Gahi",
    "city_zh": "Gahi",
    "country": "Wallis and Futuna",
    "country_zh": "Wallis and Futuna",
    "country_iso_code": "WF",
    "timezone": "Pacific/Wallis",
    "latitude": -13.33793,
    "longitude": -176.18774
  },
  {
    "city": "Foi",
    "city_zh": "Foi",
    "country": "Wallis and Futuna",
    "country_zh": "Wallis and Futuna",
    "country_iso_code": "WF",
    "timezone": "Pacific/Wallis",
    "latitude": -14.29445,
    "longitude": -178.09289
  },
  {
    "city": "Fineveke",
    "city_zh": "Fineveke",
    "country": "Wallis and Futuna",
    "country_zh": "Wallis and Futuna",
    "country_iso_code": "WF",
    "timezone": "Pacific/Wallis",
    "latitude": -13.32624,
    "longitude": -176.2213
  },
  {
    "city": "Falaleu",
    "city_zh": "Falaleu",
    "country": "Wallis and Futuna",
    "country_zh": "Wallis and Futuna",
    "country_iso_code": "WF",
    "timezone": "Pacific/Wallis",
    "latitude": -13.29266,
    "longitude": -176.18328
  },
  {
    "city": "Fakauita",
    "city_zh": "Fakauita",
    "country": "Wallis and Futuna",
    "country_zh": "Wallis and Futuna",
    "country_iso_code": "WF",
    "timezone": "Pacific/Wallis",
    "latitude": -13.25,
    "longitude": -176.18333
  },
  {
    "city": "Alo",
    "city_zh": "Alo",
    "country": "Wallis and Futuna",
    "country_zh": "Wallis and Futuna",
    "country_iso_code": "WF",
    "timezone": "Pacific/Wallis",
    "latitude": -14.31096,
    "longitude": -178.11094
  },
  {
    "city": "Alele",
    "city_zh": "阿萊萊",
    "country": "Wallis and Futuna",
    "country_zh": "Wallis and Futuna",
    "country_iso_code": "WF",
    "timezone": "Pacific/Wallis",
    "latitude": -13.24667,
    "longitude": -176.18341
  },
  {
    "city": "Akaka",
    "city_zh": "Akaka",
    "country": "Wallis and Futuna",
    "country_zh": "Wallis and Futuna",
    "country_iso_code": "WF",
    "timezone": "Pacific/Wallis",
    "latitude": -13.27729,
    "longitude": -176.17066
  },
  {
    "city": "Ahoa",
    "city_zh": "Ahoa",
    "country": "Wallis and Futuna",
    "country_zh": "Wallis and Futuna",
    "country_iso_code": "WF",
    "timezone": "Pacific/Wallis",
    "latitude": -13.28745,
    "longitude": -176.23803
  },
  {
    "city": "Fakapepe",
    "city_zh": "Fakapepe",
    "country": "Wallis and Futuna",
    "country_zh": "Wallis and Futuna",
    "country_iso_code": "WF",
    "timezone": "Pacific/Wallis",
    "latitude": -13.22669,
    "longitude": -176.21218
  },
  {
    "city": "Mala'e",
    "city_zh": "Mala'e",
    "country": "Wallis and Futuna",
    "country_zh": "Wallis and Futuna",
    "country_iso_code": "WF",
    "timezone": "Pacific/Wallis",
    "latitude": -13.24435,
    "longitude": -176.19346
  },
  {
    "city": "Afala",
    "city_zh": "Afala",
    "country": "Wallis and Futuna",
    "country_zh": "Wallis and Futuna",
    "country_iso_code": "WF",
    "timezone": "Pacific/Wallis",
    "latitude": -13.26799,
    "longitude": -176.17921
  },
  {
    "city": "Malelapa",
    "city_zh": "Malelapa",
    "country": "Wallis and Futuna",
    "country_zh": "Wallis and Futuna",
    "country_iso_code": "WF",
    "timezone": "Pacific/Wallis",
    "latitude": -13.2353,
    "longitude": -176.18288
  },
  {
    "city": "Kaleva",
    "city_zh": "Kaleva",
    "country": "Wallis and Futuna",
    "country_zh": "Wallis and Futuna",
    "country_iso_code": "WF",
    "timezone": "Pacific/Wallis",
    "latitude": -13.24234,
    "longitude": -176.1808
  },
  {
    "city": "Siaina",
    "city_zh": "Siaina",
    "country": "Wallis and Futuna",
    "country_zh": "Wallis and Futuna",
    "country_iso_code": "WF",
    "timezone": "Pacific/Wallis",
    "latitude": -13.23144,
    "longitude": -176.18584
  },
  {
    "city": "Nefunefu",
    "city_zh": "Nefunefu",
    "country": "Wallis and Futuna",
    "country_zh": "Wallis and Futuna",
    "country_iso_code": "WF",
    "timezone": "Pacific/Wallis",
    "latitude": -13.22924,
    "longitude": -176.18557
  },
  {
    "city": "Fakavaka",
    "city_zh": "Fakavaka",
    "country": "Wallis and Futuna",
    "country_zh": "Wallis and Futuna",
    "country_iso_code": "WF",
    "timezone": "Pacific/Wallis",
    "latitude": -13.22665,
    "longitude": -176.18674
  },
  {
    "city": "Suva",
    "city_zh": "Suva",
    "country": "Wallis and Futuna",
    "country_zh": "Wallis and Futuna",
    "country_iso_code": "WF",
    "timezone": "Pacific/Wallis",
    "latitude": -13.22423,
    "longitude": -176.1915
  },
  {
    "city": "Polata",
    "city_zh": "Polata",
    "country": "Wallis and Futuna",
    "country_zh": "Wallis and Futuna",
    "country_iso_code": "WF",
    "timezone": "Pacific/Wallis",
    "latitude": -13.22211,
    "longitude": -176.19661
  },
  {
    "city": "Tutu'ila",
    "city_zh": "Tutu'ila",
    "country": "Wallis and Futuna",
    "country_zh": "Wallis and Futuna",
    "country_iso_code": "WF",
    "timezone": "Pacific/Wallis",
    "latitude": -13.34315,
    "longitude": -176.21751
  },
  {
    "city": "Lotoalahi",
    "city_zh": "Lotoalahi",
    "country": "Wallis and Futuna",
    "country_zh": "Wallis and Futuna",
    "country_iso_code": "WF",
    "timezone": "Pacific/Wallis",
    "latitude": -13.34089,
    "longitude": -176.20857
  },
  {
    "city": "Ha'apai",
    "city_zh": "Ha'apai",
    "country": "Wallis and Futuna",
    "country_zh": "Wallis and Futuna",
    "country_iso_code": "WF",
    "timezone": "Pacific/Wallis",
    "latitude": -13.34733,
    "longitude": -176.21172
  },
  {
    "city": "Mala'efo'ou",
    "city_zh": "Mala'efo'ou",
    "country": "Wallis and Futuna",
    "country_zh": "Wallis and Futuna",
    "country_iso_code": "WF",
    "timezone": "Pacific/Wallis",
    "latitude": -13.34544,
    "longitude": -176.2016
  },
  {
    "city": "Mala'etoli",
    "city_zh": "Mala'etoli",
    "country": "Wallis and Futuna",
    "country_zh": "Wallis and Futuna",
    "country_iso_code": "WF",
    "timezone": "Pacific/Wallis",
    "latitude": -13.31964,
    "longitude": -176.2289
  },
  {
    "city": "Lavegahau",
    "city_zh": "Lavegahau",
    "country": "Wallis and Futuna",
    "country_zh": "Wallis and Futuna",
    "country_iso_code": "WF",
    "timezone": "Pacific/Wallis",
    "latitude": -13.31367,
    "longitude": -176.18825
  },
  {
    "city": "Makeke",
    "city_zh": "Makeke",
    "country": "Wallis and Futuna",
    "country_zh": "Wallis and Futuna",
    "country_iso_code": "WF",
    "timezone": "Pacific/Wallis",
    "latitude": -13.30308,
    "longitude": -176.18898
  },
  {
    "city": "Taumata",
    "city_zh": "Taumata",
    "country": "Wallis and Futuna",
    "country_zh": "Wallis and Futuna",
    "country_iso_code": "WF",
    "timezone": "Pacific/Wallis",
    "latitude": -13.29347,
    "longitude": -176.18599
  },
  {
    "city": "Havelu",
    "city_zh": "Havelu",
    "country": "Wallis and Futuna",
    "country_zh": "Wallis and Futuna",
    "country_iso_code": "WF",
    "timezone": "Pacific/Wallis",
    "latitude": -13.28429,
    "longitude": -176.18298
  },
  {
    "city": "Kafika Tu'utahi",
    "city_zh": "Kafika Tu'utahi",
    "country": "Wallis and Futuna",
    "country_zh": "Wallis and Futuna",
    "country_iso_code": "WF",
    "timezone": "Pacific/Wallis",
    "latitude": -13.28231,
    "longitude": -176.19021
  },
  {
    "city": "Apaogo",
    "city_zh": "Apaogo",
    "country": "Wallis and Futuna",
    "country_zh": "Wallis and Futuna",
    "country_iso_code": "WF",
    "timezone": "Pacific/Wallis",
    "latitude": -13.27077,
    "longitude": -176.16591
  },
  {
    "city": "Tekolo",
    "city_zh": "Tekolo",
    "country": "Wallis and Futuna",
    "country_zh": "Wallis and Futuna",
    "country_iso_code": "WF",
    "timezone": "Pacific/Wallis",
    "latitude": -13.23061,
    "longitude": -176.19247
  },
  {
    "city": "Ala",
    "city_zh": "Ala",
    "country": "Wallis and Futuna",
    "country_zh": "Wallis and Futuna",
    "country_iso_code": "WF",
    "timezone": "Pacific/Wallis",
    "latitude": -13.24465,
    "longitude": -176.18024
  },
  {
    "city": "Tukifatu",
    "city_zh": "Tukifatu",
    "country": "Wallis and Futuna",
    "country_zh": "Wallis and Futuna",
    "country_iso_code": "WF",
    "timezone": "Pacific/Wallis",
    "latitude": -13.22775,
    "longitude": -176.18957
  },
  {
    "city": "Golf de Ololiki",
    "city_zh": "Golf de Ololiki",
    "country": "Wallis and Futuna",
    "country_zh": "Wallis and Futuna",
    "country_iso_code": "WF",
    "timezone": "Pacific/Wallis",
    "latitude": -13.25922,
    "longitude": -176.20562
  },
  {
    "city": "Taoa",
    "city_zh": "Taoa",
    "country": "Wallis and Futuna",
    "country_zh": "Wallis and Futuna",
    "country_iso_code": "WF",
    "timezone": "Pacific/Wallis",
    "latitude": -14.30871,
    "longitude": -178.12683
  },
  {
    "city": "Fuga Alo",
    "city_zh": "Fuga Alo",
    "country": "Wallis and Futuna",
    "country_zh": "Wallis and Futuna",
    "country_iso_code": "WF",
    "timezone": "Pacific/Wallis",
    "latitude": -14.30452,
    "longitude": -178.12422
  },
  {
    "city": "Kaleveleve",
    "city_zh": "Kaleveleve",
    "country": "Wallis and Futuna",
    "country_zh": "Wallis and Futuna",
    "country_iso_code": "WF",
    "timezone": "Pacific/Wallis",
    "latitude": -14.30817,
    "longitude": -178.13323
  },
  {
    "city": "Fiua",
    "city_zh": "Fiua",
    "country": "Wallis and Futuna",
    "country_zh": "Wallis and Futuna",
    "country_iso_code": "WF",
    "timezone": "Pacific/Wallis",
    "latitude": -14.27069,
    "longitude": -178.17378
  },
  {
    "city": "Vaisei",
    "city_zh": "Vaisei",
    "country": "Wallis and Futuna",
    "country_zh": "Wallis and Futuna",
    "country_iso_code": "WF",
    "timezone": "Pacific/Wallis",
    "latitude": -14.27772,
    "longitude": -178.17048
  },
  {
    "city": "Luanuku",
    "city_zh": "Luanuku",
    "country": "Wallis and Futuna",
    "country_zh": "Wallis and Futuna",
    "country_iso_code": "WF",
    "timezone": "Pacific/Wallis",
    "latitude": -14.30138,
    "longitude": -178.15689
  },
  {
    "city": "Vilamalia",
    "city_zh": "Vilamalia",
    "country": "Wallis and Futuna",
    "country_zh": "Wallis and Futuna",
    "country_iso_code": "WF",
    "timezone": "Pacific/Wallis",
    "latitude": -14.2984,
    "longitude": -178.1563
  },
  {
    "city": "Fakaki",
    "city_zh": "Fakaki",
    "country": "Wallis and Futuna",
    "country_zh": "Wallis and Futuna",
    "country_iso_code": "WF",
    "timezone": "Pacific/Wallis",
    "latitude": -14.29262,
    "longitude": -178.09573
  },
  {
    "city": "Tufu'one",
    "city_zh": "Tufu'one",
    "country": "Wallis and Futuna",
    "country_zh": "Wallis and Futuna",
    "country_iso_code": "WF",
    "timezone": "Pacific/Wallis",
    "latitude": -14.28702,
    "longitude": -178.1024
  },
  {
    "city": "Tamana",
    "city_zh": "Tamana",
    "country": "Wallis and Futuna",
    "country_zh": "Wallis and Futuna",
    "country_iso_code": "WF",
    "timezone": "Pacific/Wallis",
    "latitude": -14.28439,
    "longitude": -178.10431
  },
  {
    "city": "Olu",
    "city_zh": "Olu",
    "country": "Wallis and Futuna",
    "country_zh": "Wallis and Futuna",
    "country_iso_code": "WF",
    "timezone": "Pacific/Wallis",
    "latitude": -14.27848,
    "longitude": -178.11151
  },
  {
    "city": "Fikavi",
    "city_zh": "Fikavi",
    "country": "Wallis and Futuna",
    "country_zh": "Wallis and Futuna",
    "country_iso_code": "WF",
    "timezone": "Pacific/Wallis",
    "latitude": -14.27124,
    "longitude": -178.12006
  },
  {
    "city": "Kapau",
    "city_zh": "Kapau",
    "country": "Wallis and Futuna",
    "country_zh": "Wallis and Futuna",
    "country_iso_code": "WF",
    "timezone": "Pacific/Wallis",
    "latitude": -14.25598,
    "longitude": -178.14342
  },
  {
    "city": "Ogea",
    "city_zh": "Ogea",
    "country": "Wallis and Futuna",
    "country_zh": "Wallis and Futuna",
    "country_iso_code": "WF",
    "timezone": "Pacific/Wallis",
    "latitude": -14.25683,
    "longitude": -178.14128
  },
  {
    "city": "Afaga",
    "city_zh": "Afaga",
    "country": "Wallis and Futuna",
    "country_zh": "Wallis and Futuna",
    "country_iso_code": "WF",
    "timezone": "Pacific/Wallis",
    "latitude": -14.25939,
    "longitude": -178.13414
  },
  {
    "city": "Pouma",
    "city_zh": "Pouma",
    "country": "Wallis and Futuna",
    "country_zh": "Wallis and Futuna",
    "country_iso_code": "WF",
    "timezone": "Pacific/Wallis",
    "latitude": -14.26209,
    "longitude": -178.13086
  },
  {
    "city": "Suma",
    "city_zh": "Suma",
    "country": "Wallis and Futuna",
    "country_zh": "Wallis and Futuna",
    "country_iso_code": "WF",
    "timezone": "Pacific/Wallis",
    "latitude": -14.26862,
    "longitude": -178.12335
  },
  {
    "city": "Sisia",
    "city_zh": "Sisia",
    "country": "Wallis and Futuna",
    "country_zh": "Wallis and Futuna",
    "country_iso_code": "WF",
    "timezone": "Pacific/Wallis",
    "latitude": -14.30687,
    "longitude": -178.11367
  },
  {
    "city": "Kolopelu",
    "city_zh": "Kolopelu",
    "country": "Wallis and Futuna",
    "country_zh": "Wallis and Futuna",
    "country_iso_code": "WF",
    "timezone": "Pacific/Wallis",
    "latitude": -14.30902,
    "longitude": -178.11854
  },
  {
    "city": "Aletafa",
    "city_zh": "Aletafa",
    "country": "Wallis and Futuna",
    "country_zh": "Wallis and Futuna",
    "country_iso_code": "WF",
    "timezone": "Pacific/Wallis",
    "latitude": -14.30784,
    "longitude": -178.08997
  },
  {
    "city": "Muli",
    "city_zh": "Muli",
    "country": "Wallis and Futuna",
    "country_zh": "Wallis and Futuna",
    "country_iso_code": "WF",
    "timezone": "Pacific/Wallis",
    "latitude": -14.31162,
    "longitude": -178.08227
  },
  {
    "city": "Vaotea",
    "city_zh": "Vaotea",
    "country": "Wallis and Futuna",
    "country_zh": "Wallis and Futuna",
    "country_iso_code": "WF",
    "timezone": "Pacific/Wallis",
    "latitude": -14.31034,
    "longitude": -178.08439
  },
  {
    "city": "Fatai",
    "city_zh": "Fatai",
    "country": "Wallis and Futuna",
    "country_zh": "Wallis and Futuna",
    "country_iso_code": "WF",
    "timezone": "Pacific/Wallis",
    "latitude": -14.28035,
    "longitude": -178.10986
  },
  {
    "city": "Pito",
    "city_zh": "Pito",
    "country": "Wallis and Futuna",
    "country_zh": "Wallis and Futuna",
    "country_iso_code": "WF",
    "timezone": "Pacific/Wallis",
    "latitude": -14.26103,
    "longitude": -178.17769
  },
  {
    "city": "Toloke",
    "city_zh": "Toloke",
    "country": "Wallis and Futuna",
    "country_zh": "Wallis and Futuna",
    "country_iso_code": "WF",
    "timezone": "Pacific/Wallis",
    "latitude": -14.25349,
    "longitude": -178.18093
  },
  {
    "city": "Tuatafa",
    "city_zh": "Tuatafa",
    "country": "Wallis and Futuna",
    "country_zh": "Wallis and Futuna",
    "country_iso_code": "WF",
    "timezone": "Pacific/Wallis",
    "latitude": -14.25467,
    "longitude": -178.1515
  },
  {
    "city": "Sausau",
    "city_zh": "Sausau",
    "country": "Wallis and Futuna",
    "country_zh": "Wallis and Futuna",
    "country_iso_code": "WF",
    "timezone": "Pacific/Wallis",
    "latitude": -14.28854,
    "longitude": -178.16746
  },
  {
    "city": "Nuku",
    "city_zh": "Nuku",
    "country": "Wallis and Futuna",
    "country_zh": "Wallis and Futuna",
    "country_iso_code": "WF",
    "timezone": "Pacific/Wallis",
    "latitude": -14.29104,
    "longitude": -178.16536
  },
  {
    "city": "Vaikelekele",
    "city_zh": "Vaikelekele",
    "country": "Wallis and Futuna",
    "country_zh": "Wallis and Futuna",
    "country_iso_code": "WF",
    "timezone": "Pacific/Wallis",
    "latitude": -14.30276,
    "longitude": -178.15268
  },
  {
    "city": "Maleta'ane",
    "city_zh": "Maleta'ane",
    "country": "Wallis and Futuna",
    "country_zh": "Wallis and Futuna",
    "country_iso_code": "WF",
    "timezone": "Pacific/Wallis",
    "latitude": -14.30293,
    "longitude": -178.07736
  },
  {
    "city": "Siku",
    "city_zh": "Siku",
    "country": "Wallis and Futuna",
    "country_zh": "Wallis and Futuna",
    "country_iso_code": "WF",
    "timezone": "Pacific/Wallis",
    "latitude": -14.31024,
    "longitude": -178.06529
  },
  {
    "city": "Laloua",
    "city_zh": "Laloua",
    "country": "Wallis and Futuna",
    "country_zh": "Wallis and Futuna",
    "country_iso_code": "WF",
    "timezone": "Pacific/Wallis",
    "latitude": -14.29941,
    "longitude": -178.08029
  },
  {
    "city": "Ava",
    "city_zh": "Ava",
    "country": "Wallis and Futuna",
    "country_zh": "Wallis and Futuna",
    "country_iso_code": "WF",
    "timezone": "Pacific/Wallis",
    "latitude": -14.29661,
    "longitude": -178.08968
  },
  {
    "city": "Sologa",
    "city_zh": "Sologa",
    "country": "Wallis and Futuna",
    "country_zh": "Wallis and Futuna",
    "country_iso_code": "WF",
    "timezone": "Pacific/Wallis",
    "latitude": -14.32449,
    "longitude": -178.04063
  },
  {
    "city": "Keu",
    "city_zh": "Keu",
    "country": "Wallis and Futuna",
    "country_zh": "Wallis and Futuna",
    "country_iso_code": "WF",
    "timezone": "Pacific/Wallis",
    "latitude": -14.33546,
    "longitude": -178.06897
  },
  {
    "city": "Sa'avaka",
    "city_zh": "Sa'avaka",
    "country": "Wallis and Futuna",
    "country_zh": "Wallis and Futuna",
    "country_iso_code": "WF",
    "timezone": "Pacific/Wallis",
    "latitude": -14.3502,
    "longitude": -178.02841
  },
  {
    "city": "Maopo'opo",
    "city_zh": "Maopo'opo",
    "country": "Wallis and Futuna",
    "country_zh": "Wallis and Futuna",
    "country_iso_code": "WF",
    "timezone": "Pacific/Wallis",
    "latitude": -14.30665,
    "longitude": -178.12306
  },
  {
    "city": "Fugatoga",
    "city_zh": "Fugatoga",
    "country": "Wallis and Futuna",
    "country_zh": "Wallis and Futuna",
    "country_iso_code": "WF",
    "timezone": "Pacific/Wallis",
    "latitude": -14.30537,
    "longitude": -178.13512
  },
  {
    "city": "Nokanoka",
    "city_zh": "Nokanoka",
    "country": "Wallis and Futuna",
    "country_zh": "Wallis and Futuna",
    "country_iso_code": "WF",
    "timezone": "Pacific/Wallis",
    "latitude": -14.26733,
    "longitude": -178.17286
  },
  {
    "city": "Sisifo",
    "city_zh": "Sisifo",
    "country": "Wallis and Futuna",
    "country_zh": "Wallis and Futuna",
    "country_iso_code": "WF",
    "timezone": "Pacific/Wallis",
    "latitude": -14.24312,
    "longitude": -178.17684
  },
  {
    "city": "Tipatipa",
    "city_zh": "Tipatipa",
    "country": "Wallis and Futuna",
    "country_zh": "Wallis and Futuna",
    "country_iso_code": "WF",
    "timezone": "Pacific/Wallis",
    "latitude": -14.24812,
    "longitude": -178.17941
  }
]