[
  {
    "city": "Yo Creek",
    "city_zh": "Yo Creek",
    "country": "Belize",
    "country_zh": "貝里斯",
    "country_iso_code": "BZ",
    "timezone": "America/Belize",
    "latitude": 18.09098,
    "longitude": -88.64607
  },
  {
    "city": "Yo Chen",
    "city_zh": "Yo Chen",
    "country": "Belize",
    "country_zh": "貝里斯",
    "country_iso_code": "BZ",
    "timezone": "America/Belize",
    "latitude": 18.35479,
    "longitude": -88.49774
  },
  {
    "city": "Yalbac Camp",
    "city_zh": "Yalbac Camp",
    "country": "Belize",
    "country_zh": "貝里斯",
    "country_iso_code": "BZ",
    "timezone": "America/Belize",
    "latitude": 17.38098,
    "longitude": -88.94446
  },
  {
    "city": "Xpicilha Village",
    "city_zh": "Xpicilha Village",
    "country": "Belize",
    "country_zh": "貝里斯",
    "country_iso_code": "BZ",
    "timezone": "America/Belize",
    "latitude": 16.02861,
    "longitude": -89.21333
  },
  {
    "city": "Xcanluum",
    "city_zh": "Xcanluum",
    "country": "Belize",
    "country_zh": "貝里斯",
    "country_iso_code": "BZ",
    "timezone": "America/Belize",
    "latitude": 18.3981,
    "longitude": -88.46047
  },
  {
    "city": "Xcanha",
    "city_zh": "Xcanha",
    "country": "Belize",
    "country_zh": "貝里斯",
    "country_iso_code": "BZ",
    "timezone": "America/Belize",
    "latitude": 18.00405,
    "longitude": -88.35818
  },
  {
    "city": "Xaxe Venic",
    "city_zh": "Xaxe Venic",
    "country": "Belize",
    "country_zh": "貝里斯",
    "country_iso_code": "BZ",
    "timezone": "America/Belize",
    "latitude": 17.53333,
    "longitude": -89.13333
  },
  {
    "city": "Xaibe",
    "city_zh": "Xaibe",
    "country": "Belize",
    "country_zh": "貝里斯",
    "country_iso_code": "BZ",
    "timezone": "America/Belize",
    "latitude": 18.38654,
    "longitude": -88.43393
  },
  {
    "city": "Willows Bank",
    "city_zh": "Willows Bank",
    "country": "Belize",
    "country_zh": "貝里斯",
    "country_iso_code": "BZ",
    "timezone": "America/Belize",
    "latitude": 17.52894,
    "longitude": -88.57274
  },
  {
    "city": "White Hill",
    "city_zh": "White Hill",
    "country": "Belize",
    "country_zh": "貝里斯",
    "country_iso_code": "BZ",
    "timezone": "America/Belize",
    "latitude": 17.25,
    "longitude": -88.48333
  },
  {
    "city": "Watters Bank",
    "city_zh": "Watters Bank",
    "country": "Belize",
    "country_zh": "貝里斯",
    "country_iso_code": "BZ",
    "timezone": "America/Belize",
    "latitude": 17.31197,
    "longitude": -88.35607
  },
  {
    "city": "Water Bank",
    "city_zh": "Water Bank",
    "country": "Belize",
    "country_zh": "貝里斯",
    "country_iso_code": "BZ",
    "timezone": "America/Belize",
    "latitude": 17.78914,
    "longitude": -88.64067
  },
  {
    "city": "Washing Tree",
    "city_zh": "Washing Tree",
    "country": "Belize",
    "country_zh": "貝里斯",
    "country_iso_code": "BZ",
    "timezone": "America/Belize",
    "latitude": 17.68533,
    "longitude": -88.46035
  },
  {
    "city": "Warrie Camp",
    "city_zh": "Warrie Camp",
    "country": "Belize",
    "country_zh": "貝里斯",
    "country_iso_code": "BZ",
    "timezone": "America/Belize",
    "latitude": 18.00077,
    "longitude": -88.31974
  },
  {
    "city": "Wamil",
    "city_zh": "Wamil",
    "country": "Belize",
    "country_zh": "貝里斯",
    "country_iso_code": "BZ",
    "timezone": "America/Belize",
    "latitude": 17.54447,
    "longitude": -88.93488
  },
  {
    "city": "Waha Leaf Camp",
    "city_zh": "Waha Leaf Camp",
    "country": "Belize",
    "country_zh": "貝里斯",
    "country_iso_code": "BZ",
    "timezone": "America/Belize",
    "latitude": 16.59399,
    "longitude": -88.64713
  },
  {
    "city": "Villa Alfonso",
    "city_zh": "Villa Alfonso",
    "country": "Belize",
    "country_zh": "貝里斯",
    "country_iso_code": "BZ",
    "timezone": "America/Belize",
    "latitude": 18.28333,
    "longitude": -88.45
  },
  {
    "city": "Vaqueros",
    "city_zh": "Vaqueros",
    "country": "Belize",
    "country_zh": "貝里斯",
    "country_iso_code": "BZ",
    "timezone": "America/Belize",
    "latitude": 17.97971,
    "longitude": -88.78323
  },
  {
    "city": "Valentin Camp",
    "city_zh": "Valentin Camp",
    "country": "Belize",
    "country_zh": "貝里斯",
    "country_iso_code": "BZ",
    "timezone": "America/Belize",
    "latitude": 16.76639,
    "longitude": -89.1625
  },
  {
    "city": "Vaca",
    "city_zh": "Vaca",
    "country": "Belize",
    "country_zh": "貝里斯",
    "country_iso_code": "BZ",
    "timezone": "America/Belize",
    "latitude": 17.0325,
    "longitude": -89.06333
  },
  {
    "city": "Unitedville",
    "city_zh": "Unitedville",
    "country": "Belize",
    "country_zh": "貝里斯",
    "country_iso_code": "BZ",
    "timezone": "America/Belize",
    "latitude": 17.21031,
    "longitude": -88.93385
  },
  {
    "city": "Campamento Unión",
    "city_zh": "Campamento Unión",
    "country": "Belize",
    "country_zh": "貝里斯",
    "country_iso_code": "BZ",
    "timezone": "America/Belize",
    "latitude": 16.39639,
    "longitude": -89.14194
  },
  {
    "city": "Union Camp",
    "city_zh": "Union Camp",
    "country": "Belize",
    "country_zh": "貝里斯",
    "country_iso_code": "BZ",
    "timezone": "America/Belize",
    "latitude": 16.6275,
    "longitude": -89.01889
  },
  {
    "city": "Tu-Tu Camp",
    "city_zh": "Tu-Tu Camp",
    "country": "Belize",
    "country_zh": "貝里斯",
    "country_iso_code": "BZ",
    "timezone": "America/Belize",
    "latitude": 17.32299,
    "longitude": -89.13776
  },
  {
    "city": "Tropical Park",
    "city_zh": "Tropical Park",
    "country": "Belize",
    "country_zh": "貝里斯",
    "country_iso_code": "BZ",
    "timezone": "America/Belize",
    "latitude": 17.46667,
    "longitude": -88.38333
  },
  {
    "city": "Trio Camp",
    "city_zh": "Trio Camp",
    "country": "Belize",
    "country_zh": "貝里斯",
    "country_iso_code": "BZ",
    "timezone": "America/Belize",
    "latitude": 16.58519,
    "longitude": -88.67036
  },
  {
    "city": "Trinidad",
    "city_zh": "Trinidad",
    "country": "Belize",
    "country_zh": "貝里斯",
    "country_iso_code": "BZ",
    "timezone": "America/Belize",
    "latitude": 18.02356,
    "longitude": -88.68698
  },
  {
    "city": "Trial Farm",
    "city_zh": "Trial Farm",
    "country": "Belize",
    "country_zh": "貝里斯",
    "country_iso_code": "BZ",
    "timezone": "America/Belize",
    "latitude": 18.10124,
    "longitude": -88.56584
  },
  {
    "city": "Tres Leguas Mennonite Settlement",
    "city_zh": "Tres Leguas Mennonite Settlement",
    "country": "Belize",
    "country_zh": "貝里斯",
    "country_iso_code": "BZ",
    "timezone": "America/Belize",
    "latitude": 17.88432,
    "longitude": -88.91699
  },
  {
    "city": "Tres Leguas",
    "city_zh": "Tres Leguas",
    "country": "Belize",
    "country_zh": "貝里斯",
    "country_iso_code": "BZ",
    "timezone": "America/Belize",
    "latitude": 17.88763,
    "longitude": -88.9571
  },
  {
    "city": "Tres Brazos",
    "city_zh": "Tres Brazos",
    "country": "Belize",
    "country_zh": "貝里斯",
    "country_iso_code": "BZ",
    "timezone": "America/Belize",
    "latitude": 18.05316,
    "longitude": -88.5405
  },
  {
    "city": "Trapiche",
    "city_zh": "Trapiche",
    "country": "Belize",
    "country_zh": "貝里斯",
    "country_iso_code": "BZ",
    "timezone": "America/Belize",
    "latitude": 17.1695,
    "longitude": -89.065
  },
  {
    "city": "Tower Hill",
    "city_zh": "Tower Hill",
    "country": "Belize",
    "country_zh": "貝里斯",
    "country_iso_code": "BZ",
    "timezone": "America/Belize",
    "latitude": 18.02857,
    "longitude": -88.55916
  },
  {
    "city": "Toro",
    "city_zh": "Toro",
    "country": "Belize",
    "country_zh": "貝里斯",
    "country_iso_code": "BZ",
    "timezone": "America/Belize",
    "latitude": 17.30361,
    "longitude": -89.142
  },
  {
    "city": "Toledo Settlement",
    "city_zh": "Toledo Settlement",
    "country": "Belize",
    "country_zh": "貝里斯",
    "country_iso_code": "BZ",
    "timezone": "America/Belize",
    "latitude": 16.13383,
    "longitude": -88.82624
  },
  {
    "city": "The Dump",
    "city_zh": "The Dump",
    "country": "Belize",
    "country_zh": "貝里斯",
    "country_iso_code": "BZ",
    "timezone": "America/Belize",
    "latitude": 16.22743,
    "longitude": -88.93742
  },
  {
    "city": "Teakettle Village",
    "city_zh": "Teakettle Village",
    "country": "Belize",
    "country_zh": "貝里斯",
    "country_iso_code": "BZ",
    "timezone": "America/Belize",
    "latitude": 17.2295,
    "longitude": -88.85499
  },
  {
    "city": "Teakettle Camp",
    "city_zh": "Teakettle Camp",
    "country": "Belize",
    "country_zh": "貝里斯",
    "country_iso_code": "BZ",
    "timezone": "America/Belize",
    "latitude": 16.51441,
    "longitude": -88.8313
  },
  {
    "city": "Tacistal",
    "city_zh": "Tacistal",
    "country": "Belize",
    "country_zh": "貝里斯",
    "country_iso_code": "BZ",
    "timezone": "America/Belize",
    "latitude": 18.38401,
    "longitude": -88.44273
  },
  {
    "city": "Tacistal",
    "city_zh": "Tacistal",
    "country": "Belize",
    "country_zh": "貝里斯",
    "country_iso_code": "BZ",
    "timezone": "America/Belize",
    "latitude": 17.89759,
    "longitude": -88.75764
  },
  {
    "city": "Swasey Branch Barquedier",
    "city_zh": "Swasey Branch Barquedier",
    "country": "Belize",
    "country_zh": "貝里斯",
    "country_iso_code": "BZ",
    "timezone": "America/Belize",
    "latitude": 18.1876,
    "longitude": -88.47169
  },
  {
    "city": "Spring Camp",
    "city_zh": "Spring Camp",
    "country": "Belize",
    "country_zh": "貝里斯",
    "country_iso_code": "BZ",
    "timezone": "America/Belize",
    "latitude": 17.40826,
    "longitude": -89.07363
  },
  {
    "city": "Spanish Lookout",
    "city_zh": "Spanish Lookout",
    "country": "Belize",
    "country_zh": "貝里斯",
    "country_iso_code": "BZ",
    "timezone": "America/Belize",
    "latitude": 17.21667,
    "longitude": -88.98333
  },
  {
    "city": "Spanish Lookout",
    "city_zh": "Spanish Lookout",
    "country": "Belize",
    "country_zh": "貝里斯",
    "country_iso_code": "BZ",
    "timezone": "America/Belize",
    "latitude": 17.26278,
    "longitude": -89.00917
  },
  {
    "city": "South View Point",
    "city_zh": "South View Point",
    "country": "Belize",
    "country_zh": "貝里斯",
    "country_iso_code": "BZ",
    "timezone": "America/Belize",
    "latitude": 16.9,
    "longitude": -88.98333
  },
  {
    "city": "Solomon Camp",
    "city_zh": "Solomon Camp",
    "country": "Belize",
    "country_zh": "貝里斯",
    "country_iso_code": "BZ",
    "timezone": "America/Belize",
    "latitude": 16.55779,
    "longitude": -88.75655
  },
  {
    "city": "Sittee",
    "city_zh": "Sittee",
    "country": "Belize",
    "country_zh": "貝里斯",
    "country_iso_code": "BZ",
    "timezone": "America/Belize",
    "latitude": 16.83333,
    "longitude": -88.28333
  },
  {
    "city": "Silvester’s Camp",
    "city_zh": "Silvester’s Camp",
    "country": "Belize",
    "country_zh": "貝里斯",
    "country_iso_code": "BZ",
    "timezone": "America/Belize",
    "latitude": 17.58711,
    "longitude": -89.09218
  },
  {
    "city": "Silver Creek Camp",
    "city_zh": "Silver Creek Camp",
    "country": "Belize",
    "country_zh": "貝里斯",
    "country_iso_code": "BZ",
    "timezone": "America/Belize",
    "latitude": 16.7,
    "longitude": -88.46667
  },
  {
    "city": "Silk Grass",
    "city_zh": "Silk Grass",
    "country": "Belize",
    "country_zh": "貝里斯",
    "country_iso_code": "BZ",
    "timezone": "America/Belize",
    "latitude": 16.88333,
    "longitude": -88.33333
  },
  {
    "city": "Sierra de Agua",
    "city_zh": "Sierra de Agua",
    "country": "Belize",
    "country_zh": "貝里斯",
    "country_iso_code": "BZ",
    "timezone": "America/Belize",
    "latitude": 17.54364,
    "longitude": -88.87837
  },
  {
    "city": "Sibun Camp",
    "city_zh": "Sibun Camp",
    "country": "Belize",
    "country_zh": "貝里斯",
    "country_iso_code": "BZ",
    "timezone": "America/Belize",
    "latitude": 17.09492,
    "longitude": -88.65659
  },
  {
    "city": "Shipyard",
    "city_zh": "Shipyard",
    "country": "Belize",
    "country_zh": "貝里斯",
    "country_iso_code": "BZ",
    "timezone": "America/Belize",
    "latitude": 17.89382,
    "longitude": -88.65452
  },
  {
    "city": "Shipstern Landing",
    "city_zh": "Shipstern Landing",
    "country": "Belize",
    "country_zh": "貝里斯",
    "country_iso_code": "BZ",
    "timezone": "America/Belize",
    "latitude": 18.23326,
    "longitude": -88.18441
  },
  {
    "city": "Shipstern",
    "city_zh": "Shipstern",
    "country": "Belize",
    "country_zh": "貝里斯",
    "country_iso_code": "BZ",
    "timezone": "America/Belize",
    "latitude": 18.18622,
    "longitude": -88.1685
  },
  {
    "city": "Seine Bight Village",
    "city_zh": "Seine Bight Village",
    "country": "Belize",
    "country_zh": "貝里斯",
    "country_iso_code": "BZ",
    "timezone": "America/Belize",
    "latitude": 16.56943,
    "longitude": -88.36493
  },
  {
    "city": "Scotland",
    "city_zh": "Scotland",
    "country": "Belize",
    "country_zh": "貝里斯",
    "country_iso_code": "BZ",
    "timezone": "America/Belize",
    "latitude": 17.56667,
    "longitude": -88.51667
  },
  {
    "city": "Sayab Camp",
    "city_zh": "Sayab Camp",
    "country": "Belize",
    "country_zh": "貝里斯",
    "country_iso_code": "BZ",
    "timezone": "America/Belize",
    "latitude": 17.11069,
    "longitude": -88.96967
  },
  {
    "city": "Savannah Bank",
    "city_zh": "Savannah Bank",
    "country": "Belize",
    "country_zh": "貝里斯",
    "country_iso_code": "BZ",
    "timezone": "America/Belize",
    "latitude": 17.1907,
    "longitude": -88.80528
  },
  {
    "city": "Saturday Creek",
    "city_zh": "Saturday Creek",
    "country": "Belize",
    "country_zh": "貝里斯",
    "country_iso_code": "BZ",
    "timezone": "America/Belize",
    "latitude": 17.31667,
    "longitude": -88.76667
  },
  {
    "city": "Sarteneja",
    "city_zh": "Sarteneja",
    "country": "Belize",
    "country_zh": "貝里斯",
    "country_iso_code": "BZ",
    "timezone": "America/Belize",
    "latitude": 18.35334,
    "longitude": -88.14541
  },
  {
    "city": "Sarawina",
    "city_zh": "Sarawina",
    "country": "Belize",
    "country_zh": "貝里斯",
    "country_iso_code": "BZ",
    "timezone": "America/Belize",
    "latitude": 16.97145,
    "longitude": -88.2738
  },
  {
    "city": "San Victor",
    "city_zh": "San Victor",
    "country": "Belize",
    "country_zh": "貝里斯",
    "country_iso_code": "BZ",
    "timezone": "America/Belize",
    "latitude": 18.25864,
    "longitude": -88.57601
  },
  {
    "city": "Santa Theresa",
    "city_zh": "Santa Theresa",
    "country": "Belize",
    "country_zh": "貝里斯",
    "country_iso_code": "BZ",
    "timezone": "America/Belize",
    "latitude": 16.13333,
    "longitude": -89.05
  },
  {
    "city": "Santa Rosa",
    "city_zh": "Santa Rosa",
    "country": "Belize",
    "country_zh": "貝里斯",
    "country_iso_code": "BZ",
    "timezone": "America/Belize",
    "latitude": 18.4837,
    "longitude": -88.45929
  },
  {
    "city": "Santa Rosa",
    "city_zh": "Santa Rosa",
    "country": "Belize",
    "country_zh": "貝里斯",
    "country_iso_code": "BZ",
    "timezone": "America/Belize",
    "latitude": 17.13609,
    "longitude": -89.13717
  },
  {
    "city": "Santa Rita",
    "city_zh": "Santa Rita",
    "country": "Belize",
    "country_zh": "貝里斯",
    "country_iso_code": "BZ",
    "timezone": "America/Belize",
    "latitude": 18.38975,
    "longitude": -88.38914
  },
  {
    "city": "Santana",
    "city_zh": "Santana",
    "country": "Belize",
    "country_zh": "貝里斯",
    "country_iso_code": "BZ",
    "timezone": "America/Belize",
    "latitude": 17.80324,
    "longitude": -88.29657
  },
  {
    "city": "Santa Familia",
    "city_zh": "Santa Familia",
    "country": "Belize",
    "country_zh": "貝里斯",
    "country_iso_code": "BZ",
    "timezone": "America/Belize",
    "latitude": 17.18594,
    "longitude": -89.07435
  },
  {
    "city": "Santa Elena",
    "city_zh": "Santa Elena",
    "country": "Belize",
    "country_zh": "貝里斯",
    "country_iso_code": "BZ",
    "timezone": "America/Belize",
    "latitude": 17.16142,
    "longitude": -89.05462
  },
  {
    "city": "Santa Cruz",
    "city_zh": "Santa Cruz",
    "country": "Belize",
    "country_zh": "貝里斯",
    "country_iso_code": "BZ",
    "timezone": "America/Belize",
    "latitude": 18.11526,
    "longitude": -88.70602
  },
  {
    "city": "Santa Cruz",
    "city_zh": "Santa Cruz",
    "country": "Belize",
    "country_zh": "貝里斯",
    "country_iso_code": "BZ",
    "timezone": "America/Belize",
    "latitude": 16.23433,
    "longitude": -89.07661
  },
  {
    "city": "Santa Clara",
    "city_zh": "Santa Clara",
    "country": "Belize",
    "country_zh": "貝里斯",
    "country_iso_code": "BZ",
    "timezone": "America/Belize",
    "latitude": 18.29412,
    "longitude": -88.5122
  },
  {
    "city": "Santa Anna",
    "city_zh": "Santa Anna",
    "country": "Belize",
    "country_zh": "貝里斯",
    "country_iso_code": "BZ",
    "timezone": "America/Belize",
    "latitude": 16.10415,
    "longitude": -88.95443
  },
  {
    "city": "San Roman",
    "city_zh": "San Roman",
    "country": "Belize",
    "country_zh": "貝里斯",
    "country_iso_code": "BZ",
    "timezone": "America/Belize",
    "latitude": 18.2972,
    "longitude": -88.50775
  },
  {
    "city": "San Roman",
    "city_zh": "San Roman",
    "country": "Belize",
    "country_zh": "貝里斯",
    "country_iso_code": "BZ",
    "timezone": "America/Belize",
    "latitude": 18.19242,
    "longitude": -88.6425
  },
  {
    "city": "San Pedro Landing",
    "city_zh": "San Pedro Landing",
    "country": "Belize",
    "country_zh": "貝里斯",
    "country_iso_code": "BZ",
    "timezone": "America/Belize",
    "latitude": 15.93768,
    "longitude": -89.20444
  },
  {
    "city": "San Pedro",
    "city_zh": "San Pedro",
    "country": "Belize",
    "country_zh": "貝里斯",
    "country_iso_code": "BZ",
    "timezone": "America/Belize",
    "latitude": 18.33765,
    "longitude": -88.49491
  },
  {
    "city": "San Pedro",
    "city_zh": "聖佩德羅",
    "country": "Belize",
    "country_zh": "貝里斯",
    "country_iso_code": "BZ",
    "timezone": "America/Belize",
    "latitude": 17.91598,
    "longitude": -87.9659
  },
  {
    "city": "San Pedro",
    "city_zh": "San Pedro",
    "country": "Belize",
    "country_zh": "貝里斯",
    "country_iso_code": "BZ",
    "timezone": "America/Belize",
    "latitude": 17.35,
    "longitude": -88.98333
  },
  {
    "city": "San Pedro",
    "city_zh": "San Pedro",
    "country": "Belize",
    "country_zh": "貝里斯",
    "country_iso_code": "BZ",
    "timezone": "America/Belize",
    "latitude": 16.27153,
    "longitude": -88.95437
  },
  {
    "city": "San Pastor Camp",
    "city_zh": "San Pastor Camp",
    "country": "Belize",
    "country_zh": "貝里斯",
    "country_iso_code": "BZ",
    "timezone": "America/Belize",
    "latitude": 16.71621,
    "longitude": -88.99011
  },
  {
    "city": "San Pablo",
    "city_zh": "San Pablo",
    "country": "Belize",
    "country_zh": "貝里斯",
    "country_iso_code": "BZ",
    "timezone": "America/Belize",
    "latitude": 18.21061,
    "longitude": -88.56605
  },
  {
    "city": "San Narciso",
    "city_zh": "San Narciso",
    "country": "Belize",
    "country_zh": "貝里斯",
    "country_iso_code": "BZ",
    "timezone": "America/Belize",
    "latitude": 18.30396,
    "longitude": -88.52085
  },
  {
    "city": "San Miguel",
    "city_zh": "San Miguel",
    "country": "Belize",
    "country_zh": "貝里斯",
    "country_iso_code": "BZ",
    "timezone": "America/Belize",
    "latitude": 17.18251,
    "longitude": -89.02348
  },
  {
    "city": "San Miguel",
    "city_zh": "San Miguel",
    "country": "Belize",
    "country_zh": "貝里斯",
    "country_iso_code": "BZ",
    "timezone": "America/Belize",
    "latitude": 16.29304,
    "longitude": -88.93197
  },
  {
    "city": "San Luis",
    "city_zh": "San Luis",
    "country": "Belize",
    "country_zh": "貝里斯",
    "country_iso_code": "BZ",
    "timezone": "America/Belize",
    "latitude": 18.1918,
    "longitude": -88.60296
  },
  {
    "city": "San Luis",
    "city_zh": "San Luis",
    "country": "Belize",
    "country_zh": "貝里斯",
    "country_iso_code": "BZ",
    "timezone": "America/Belize",
    "latitude": 16.90972,
    "longitude": -89.00611
  },
  {
    "city": "San Lucas",
    "city_zh": "San Lucas",
    "country": "Belize",
    "country_zh": "貝里斯",
    "country_iso_code": "BZ",
    "timezone": "America/Belize",
    "latitude": 16.07679,
    "longitude": -89.09852
  },
  {
    "city": "San Lorenzo",
    "city_zh": "San Lorenzo",
    "country": "Belize",
    "country_zh": "貝里斯",
    "country_iso_code": "BZ",
    "timezone": "America/Belize",
    "latitude": 18.1407,
    "longitude": -88.62239
  },
  {
    "city": "San Lazaro",
    "city_zh": "San Lazaro",
    "country": "Belize",
    "country_zh": "貝里斯",
    "country_iso_code": "BZ",
    "timezone": "America/Belize",
    "latitude": 18.03849,
    "longitude": -88.66316
  },
  {
    "city": "San Juan Bank",
    "city_zh": "San Juan Bank",
    "country": "Belize",
    "country_zh": "貝里斯",
    "country_iso_code": "BZ",
    "timezone": "America/Belize",
    "latitude": 17.98595,
    "longitude": -88.30011
  },
  {
    "city": "San Juan",
    "city_zh": "San Juan",
    "country": "Belize",
    "country_zh": "貝里斯",
    "country_iso_code": "BZ",
    "timezone": "America/Belize",
    "latitude": 18.18333,
    "longitude": -88.61667
  },
  {
    "city": "San Jose Soccoths",
    "city_zh": "San Jose Soccoths",
    "country": "Belize",
    "country_zh": "貝里斯",
    "country_iso_code": "BZ",
    "timezone": "America/Belize",
    "latitude": 17.08454,
    "longitude": -89.13007
  },
  {
    "city": "San Jose Palmar",
    "city_zh": "San Jose Palmar",
    "country": "Belize",
    "country_zh": "貝里斯",
    "country_iso_code": "BZ",
    "timezone": "America/Belize",
    "latitude": 18.06204,
    "longitude": -88.5635
  },
  {
    "city": "San Jose",
    "city_zh": "San Jose",
    "country": "Belize",
    "country_zh": "貝里斯",
    "country_iso_code": "BZ",
    "timezone": "America/Belize",
    "latitude": 18.1958,
    "longitude": -88.57121
  },
  {
    "city": "San Jose",
    "city_zh": "San Jose",
    "country": "Belize",
    "country_zh": "貝里斯",
    "country_iso_code": "BZ",
    "timezone": "America/Belize",
    "latitude": 17.48333,
    "longitude": -88.93333
  },
  {
    "city": "San Jose",
    "city_zh": "San Jose",
    "country": "Belize",
    "country_zh": "貝里斯",
    "country_iso_code": "BZ",
    "timezone": "America/Belize",
    "latitude": 17.17101,
    "longitude": -89.09801
  },
  {
    "city": "San Jose",
    "city_zh": "San Jose",
    "country": "Belize",
    "country_zh": "貝里斯",
    "country_iso_code": "BZ",
    "timezone": "America/Belize",
    "latitude": 16.26713,
    "longitude": -89.09363
  },
  {
    "city": "San Joaquin",
    "city_zh": "San Joaquin",
    "country": "Belize",
    "country_zh": "貝里斯",
    "country_iso_code": "BZ",
    "timezone": "America/Belize",
    "latitude": 18.35271,
    "longitude": -88.44199
  },
  {
    "city": "San Ignacio",
    "city_zh": "聖伊格納西奧",
    "country": "Belize",
    "country_zh": "貝里斯",
    "country_iso_code": "BZ",
    "timezone": "America/Belize",
    "latitude": 17.1588,
    "longitude": -89.0696
  },
  {
    "city": "San Francisco",
    "city_zh": "San Francisco",
    "country": "Belize",
    "country_zh": "貝里斯",
    "country_iso_code": "BZ",
    "timezone": "America/Belize",
    "latitude": 18.32386,
    "longitude": -88.45824
  },
  {
    "city": "San Fernando",
    "city_zh": "San Fernando",
    "country": "Belize",
    "country_zh": "貝里斯",
    "country_iso_code": "BZ",
    "timezone": "America/Belize",
    "latitude": 18.32133,
    "longitude": -88.35441
  },
  {
    "city": "San Felipe",
    "city_zh": "San Felipe",
    "country": "Belize",
    "country_zh": "貝里斯",
    "country_iso_code": "BZ",
    "timezone": "America/Belize",
    "latitude": 17.873,
    "longitude": -88.77334
  },
  {
    "city": "San Felipe",
    "city_zh": "San Felipe",
    "country": "Belize",
    "country_zh": "貝里斯",
    "country_iso_code": "BZ",
    "timezone": "America/Belize",
    "latitude": 17.14679,
    "longitude": -89.0668
  },
  {
    "city": "San Felipe",
    "city_zh": "San Felipe",
    "country": "Belize",
    "country_zh": "貝里斯",
    "country_iso_code": "BZ",
    "timezone": "America/Belize",
    "latitude": 16.13259,
    "longitude": -88.90498
  },
  {
    "city": "San Estevan",
    "city_zh": "San Estevan",
    "country": "Belize",
    "country_zh": "貝里斯",
    "country_iso_code": "BZ",
    "timezone": "America/Belize",
    "latitude": 18.15413,
    "longitude": -88.51129
  },
  {
    "city": "Sand Hill",
    "city_zh": "Sand Hill",
    "country": "Belize",
    "country_zh": "貝里斯",
    "country_iso_code": "BZ",
    "timezone": "America/Belize",
    "latitude": 17.64038,
    "longitude": -88.36828
  },
  {
    "city": "San Benito Poite",
    "city_zh": "San Benito Poite",
    "country": "Belize",
    "country_zh": "貝里斯",
    "country_iso_code": "BZ",
    "timezone": "America/Belize",
    "latitude": 16.11254,
    "longitude": -89.18604
  },
  {
    "city": "San Antonio",
    "city_zh": "San Antonio",
    "country": "Belize",
    "country_zh": "貝里斯",
    "country_iso_code": "BZ",
    "timezone": "America/Belize",
    "latitude": 18.40175,
    "longitude": -88.3998
  },
  {
    "city": "San Antonio",
    "city_zh": "San Antonio",
    "country": "Belize",
    "country_zh": "貝里斯",
    "country_iso_code": "BZ",
    "timezone": "America/Belize",
    "latitude": 18.13112,
    "longitude": -88.67418
  },
  {
    "city": "San Antonio",
    "city_zh": "San Antonio",
    "country": "Belize",
    "country_zh": "貝里斯",
    "country_iso_code": "BZ",
    "timezone": "America/Belize",
    "latitude": 17.07861,
    "longitude": -89.02361
  },
  {
    "city": "San Antonio",
    "city_zh": "San Antonio",
    "country": "Belize",
    "country_zh": "貝里斯",
    "country_iso_code": "BZ",
    "timezone": "America/Belize",
    "latitude": 16.24361,
    "longitude": -89.02417
  },
  {
    "city": "San Antonia",
    "city_zh": "San Antonia",
    "country": "Belize",
    "country_zh": "貝里斯",
    "country_iso_code": "BZ",
    "timezone": "America/Belize",
    "latitude": 16.1,
    "longitude": -88.93333
  },
  {
    "city": "San Andres",
    "city_zh": "San Andres",
    "country": "Belize",
    "country_zh": "貝里斯",
    "country_iso_code": "BZ",
    "timezone": "America/Belize",
    "latitude": 18.38922,
    "longitude": -88.40939
  },
  {
    "city": "Saltillo",
    "city_zh": "Saltillo",
    "country": "Belize",
    "country_zh": "貝里斯",
    "country_iso_code": "BZ",
    "timezone": "America/Belize",
    "latitude": 18.31457,
    "longitude": -88.3926
  },
  {
    "city": "Sale si Puede",
    "city_zh": "Sale si Puede",
    "country": "Belize",
    "country_zh": "貝里斯",
    "country_iso_code": "BZ",
    "timezone": "America/Belize",
    "latitude": 16.71334,
    "longitude": -88.63606
  },
  {
    "city": "Saint Vincent Block",
    "city_zh": "Saint Vincent Block",
    "country": "Belize",
    "country_zh": "貝里斯",
    "country_iso_code": "BZ",
    "timezone": "America/Belize",
    "latitude": 16.1144,
    "longitude": -88.82654
  },
  {
    "city": "Saint Thomas",
    "city_zh": "Saint Thomas",
    "country": "Belize",
    "country_zh": "貝里斯",
    "country_iso_code": "BZ",
    "timezone": "America/Belize",
    "latitude": 17.15,
    "longitude": -88.63333
  },
  {
    "city": "Saint Paul’s",
    "city_zh": "Saint Paul’s",
    "country": "Belize",
    "country_zh": "貝里斯",
    "country_iso_code": "BZ",
    "timezone": "America/Belize",
    "latitude": 17.51156,
    "longitude": -88.59074
  },
  {
    "city": "Round Hole Bank",
    "city_zh": "Round Hole Bank",
    "country": "Belize",
    "country_zh": "貝里斯",
    "country_iso_code": "BZ",
    "timezone": "America/Belize",
    "latitude": 16.70028,
    "longitude": -89.11306
  },
  {
    "city": "Round Hole",
    "city_zh": "Round Hole",
    "country": "Belize",
    "country_zh": "貝里斯",
    "country_iso_code": "BZ",
    "timezone": "America/Belize",
    "latitude": 17.3231,
    "longitude": -89.08269
  },
  {
    "city": "Rosita",
    "city_zh": "Rosita",
    "country": "Belize",
    "country_zh": "貝里斯",
    "country_iso_code": "BZ",
    "timezone": "America/Belize",
    "latitude": 17.88676,
    "longitude": -88.91687
  },
  {
    "city": "Rockville",
    "city_zh": "Rockville",
    "country": "Belize",
    "country_zh": "貝里斯",
    "country_iso_code": "BZ",
    "timezone": "America/Belize",
    "latitude": 17.4,
    "longitude": -88.46667
  },
  {
    "city": "Rockstone Pond",
    "city_zh": "Rockstone Pond",
    "country": "Belize",
    "country_zh": "貝里斯",
    "country_iso_code": "BZ",
    "timezone": "America/Belize",
    "latitude": 17.75386,
    "longitude": -88.34368
  },
  {
    "city": "Rock Dondo",
    "city_zh": "Rock Dondo",
    "country": "Belize",
    "country_zh": "貝里斯",
    "country_iso_code": "BZ",
    "timezone": "America/Belize",
    "latitude": 17.35,
    "longitude": -88.73333
  },
  {
    "city": "Roaring Creek",
    "city_zh": "Roaring Creek",
    "country": "Belize",
    "country_zh": "貝里斯",
    "country_iso_code": "BZ",
    "timezone": "America/Belize",
    "latitude": 17.25947,
    "longitude": -88.79617
  },
  {
    "city": "Rito Bonillo",
    "city_zh": "Rito Bonillo",
    "country": "Belize",
    "country_zh": "貝里斯",
    "country_iso_code": "BZ",
    "timezone": "America/Belize",
    "latitude": 16.4275,
    "longitude": -89.11444
  },
  {
    "city": "Rio Blanco",
    "city_zh": "Rio Blanco",
    "country": "Belize",
    "country_zh": "貝里斯",
    "country_iso_code": "BZ",
    "timezone": "America/Belize",
    "latitude": 16.22972,
    "longitude": -89.10861
  },
  {
    "city": "Rice Station",
    "city_zh": "Rice Station",
    "country": "Belize",
    "country_zh": "貝里斯",
    "country_iso_code": "BZ",
    "timezone": "America/Belize",
    "latitude": 16.1359,
    "longitude": -88.84387
  },
  {
    "city": "Revenge",
    "city_zh": "Revenge",
    "country": "Belize",
    "country_zh": "貝里斯",
    "country_iso_code": "BZ",
    "timezone": "America/Belize",
    "latitude": 17.86254,
    "longitude": -88.55164
  },
  {
    "city": "Retiro",
    "city_zh": "Retiro",
    "country": "Belize",
    "country_zh": "貝里斯",
    "country_iso_code": "BZ",
    "timezone": "America/Belize",
    "latitude": 16.71861,
    "longitude": -89.14028
  },
  {
    "city": "Resumadero Camp",
    "city_zh": "Resumadero Camp",
    "country": "Belize",
    "country_zh": "貝里斯",
    "country_iso_code": "BZ",
    "timezone": "America/Belize",
    "latitude": 16.63139,
    "longitude": -89.06815
  },
  {
    "city": "Remate",
    "city_zh": "Remate",
    "country": "Belize",
    "country_zh": "貝里斯",
    "country_iso_code": "BZ",
    "timezone": "America/Belize",
    "latitude": 18.45312,
    "longitude": -88.41339
  },
  {
    "city": "Rejolla",
    "city_zh": "Rejolla",
    "country": "Belize",
    "country_zh": "貝里斯",
    "country_iso_code": "BZ",
    "timezone": "America/Belize",
    "latitude": 17.41947,
    "longitude": -89.12131
  },
  {
    "city": "Reinland",
    "city_zh": "Reinland",
    "country": "Belize",
    "country_zh": "貝里斯",
    "country_iso_code": "BZ",
    "timezone": "America/Belize",
    "latitude": 17.88215,
    "longitude": -88.88247
  },
  {
    "city": "Regalia",
    "city_zh": "Regalia",
    "country": "Belize",
    "country_zh": "貝里斯",
    "country_iso_code": "BZ",
    "timezone": "America/Belize",
    "latitude": 16.81284,
    "longitude": -88.33198
  },
  {
    "city": "Red Bank",
    "city_zh": "Red Bank",
    "country": "Belize",
    "country_zh": "貝里斯",
    "country_iso_code": "BZ",
    "timezone": "America/Belize",
    "latitude": 16.76304,
    "longitude": -88.49271
  },
  {
    "city": "Red Bank Village",
    "city_zh": "Red Bank Village",
    "country": "Belize",
    "country_zh": "貝里斯",
    "country_iso_code": "BZ",
    "timezone": "America/Belize",
    "latitude": 16.61645,
    "longitude": -88.55911
  },
  {
    "city": "Ranger Camp",
    "city_zh": "Ranger Camp",
    "country": "Belize",
    "country_zh": "貝里斯",
    "country_iso_code": "BZ",
    "timezone": "America/Belize",
    "latitude": 16.4788,
    "longitude": -88.80496
  },
  {
    "city": "Rancho Grande",
    "city_zh": "Rancho Grande",
    "country": "Belize",
    "country_zh": "貝里斯",
    "country_iso_code": "BZ",
    "timezone": "America/Belize",
    "latitude": 16.7195,
    "longitude": -88.59965
  },
  {
    "city": "Rancho Dolores",
    "city_zh": "Rancho Dolores",
    "country": "Belize",
    "country_zh": "貝里斯",
    "country_iso_code": "BZ",
    "timezone": "America/Belize",
    "latitude": 17.53569,
    "longitude": -88.6285
  },
  {
    "city": "Rancho Corozal",
    "city_zh": "Rancho Corozal",
    "country": "Belize",
    "country_zh": "貝里斯",
    "country_iso_code": "BZ",
    "timezone": "America/Belize",
    "latitude": 18.25596,
    "longitude": -88.40733
  },
  {
    "city": "Rancho",
    "city_zh": "Rancho",
    "country": "Belize",
    "country_zh": "貝里斯",
    "country_iso_code": "BZ",
    "timezone": "America/Belize",
    "latitude": 17.9594,
    "longitude": -88.3725
  },
  {
    "city": "Ranchito",
    "city_zh": "Ranchito",
    "country": "Belize",
    "country_zh": "貝里斯",
    "country_iso_code": "BZ",
    "timezone": "America/Belize",
    "latitude": 18.37753,
    "longitude": -88.41031
  },
  {
    "city": "Ramonal",
    "city_zh": "Ramonal",
    "country": "Belize",
    "country_zh": "貝里斯",
    "country_iso_code": "BZ",
    "timezone": "America/Belize",
    "latitude": 17.41183,
    "longitude": -89.13241
  },
  {
    "city": "Ramonal",
    "city_zh": "Ramonal",
    "country": "Belize",
    "country_zh": "貝里斯",
    "country_iso_code": "BZ",
    "timezone": "America/Belize",
    "latitude": 17.15659,
    "longitude": -89.13088
  },
  {
    "city": "Quatro Leguas",
    "city_zh": "Quatro Leguas",
    "country": "Belize",
    "country_zh": "貝里斯",
    "country_iso_code": "BZ",
    "timezone": "America/Belize",
    "latitude": 17.91677,
    "longitude": -88.98249
  },
  {
    "city": "Quarry Hill",
    "city_zh": "Quarry Hill",
    "country": "Belize",
    "country_zh": "貝里斯",
    "country_iso_code": "BZ",
    "timezone": "America/Belize",
    "latitude": 16.99681,
    "longitude": -88.35928
  },
  {
    "city": "Punta Gorda",
    "city_zh": "蓬塔戈爾達",
    "country": "Belize",
    "country_zh": "貝里斯",
    "country_iso_code": "BZ",
    "timezone": "America/Belize",
    "latitude": 16.09835,
    "longitude": -88.8097
  },
  {
    "city": "Pueblo Viejo",
    "city_zh": "Pueblo Viejo",
    "country": "Belize",
    "country_zh": "貝里斯",
    "country_iso_code": "BZ",
    "timezone": "America/Belize",
    "latitude": 16.20528,
    "longitude": -89.14167
  },
  {
    "city": "Pueblo Nuevo",
    "city_zh": "Pueblo Nuevo",
    "country": "Belize",
    "country_zh": "貝里斯",
    "country_iso_code": "BZ",
    "timezone": "America/Belize",
    "latitude": 18.30984,
    "longitude": -88.4129
  },
  {
    "city": "Puebla Nueva",
    "city_zh": "Puebla Nueva",
    "country": "Belize",
    "country_zh": "貝里斯",
    "country_iso_code": "BZ",
    "timezone": "America/Belize",
    "latitude": 18.31059,
    "longitude": -88.41232
  },
  {
    "city": "Pucte",
    "city_zh": "Pucte",
    "country": "Belize",
    "country_zh": "貝里斯",
    "country_iso_code": "BZ",
    "timezone": "America/Belize",
    "latitude": 18.13636,
    "longitude": -88.43822
  },
  {
    "city": "Puchituk Camp",
    "city_zh": "Puchituk Camp",
    "country": "Belize",
    "country_zh": "貝里斯",
    "country_iso_code": "BZ",
    "timezone": "America/Belize",
    "latitude": 16.76872,
    "longitude": -89.06185
  },
  {
    "city": "Providencien",
    "city_zh": "Providencien",
    "country": "Belize",
    "country_zh": "貝里斯",
    "country_iso_code": "BZ",
    "timezone": "America/Belize",
    "latitude": 17.14313,
    "longitude": -89.13619
  },
  {
    "city": "Progresso",
    "city_zh": "Progresso",
    "country": "Belize",
    "country_zh": "貝里斯",
    "country_iso_code": "BZ",
    "timezone": "America/Belize",
    "latitude": 18.23085,
    "longitude": -88.41073
  },
  {
    "city": "Privassion Camp",
    "city_zh": "Privassion Camp",
    "country": "Belize",
    "country_zh": "貝里斯",
    "country_iso_code": "BZ",
    "timezone": "America/Belize",
    "latitude": 17.03576,
    "longitude": -88.9465
  },
  {
    "city": "Pomona",
    "city_zh": "Pomona",
    "country": "Belize",
    "country_zh": "貝里斯",
    "country_iso_code": "BZ",
    "timezone": "America/Belize",
    "latitude": 16.99514,
    "longitude": -88.37424
  },
  {
    "city": "Plant Sucker",
    "city_zh": "Plant Sucker",
    "country": "Belize",
    "country_zh": "貝里斯",
    "country_iso_code": "BZ",
    "timezone": "America/Belize",
    "latitude": 17.15805,
    "longitude": -89.13552
  },
  {
    "city": "Placencia",
    "city_zh": "Placencia",
    "country": "Belize",
    "country_zh": "貝里斯",
    "country_iso_code": "BZ",
    "timezone": "America/Belize",
    "latitude": 16.51419,
    "longitude": -88.36647
  },
  {
    "city": "Piedregal",
    "city_zh": "Piedregal",
    "country": "Belize",
    "country_zh": "貝里斯",
    "country_iso_code": "BZ",
    "timezone": "America/Belize",
    "latitude": 17.37905,
    "longitude": -89.14343
  },
  {
    "city": "Piebra",
    "city_zh": "Piebra",
    "country": "Belize",
    "country_zh": "貝里斯",
    "country_iso_code": "BZ",
    "timezone": "America/Belize",
    "latitude": 16.10434,
    "longitude": -88.93915
  },
  {
    "city": "Pettville",
    "city_zh": "Pettville",
    "country": "Belize",
    "country_zh": "貝里斯",
    "country_iso_code": "BZ",
    "timezone": "America/Belize",
    "latitude": 18.07823,
    "longitude": -88.53939
  },
  {
    "city": "Pescado Camp",
    "city_zh": "Pescado Camp",
    "country": "Belize",
    "country_zh": "貝里斯",
    "country_iso_code": "BZ",
    "timezone": "America/Belize",
    "latitude": 17.3576,
    "longitude": -89.10681
  },
  {
    "city": "Perry Bank",
    "city_zh": "Perry Bank",
    "country": "Belize",
    "country_zh": "貝里斯",
    "country_iso_code": "BZ",
    "timezone": "America/Belize",
    "latitude": 16.6098,
    "longitude": -88.57667
  },
  {
    "city": "Patchchacan",
    "city_zh": "Patchchacan",
    "country": "Belize",
    "country_zh": "貝里斯",
    "country_iso_code": "BZ",
    "timezone": "America/Belize",
    "latitude": 18.40056,
    "longitude": -88.4715
  },
  {
    "city": "Pascua Camp",
    "city_zh": "Pascua Camp",
    "country": "Belize",
    "country_zh": "貝里斯",
    "country_iso_code": "BZ",
    "timezone": "America/Belize",
    "latitude": 17.40378,
    "longitude": -89.04411
  },
  {
    "city": "Paraiso",
    "city_zh": "Paraiso",
    "country": "Belize",
    "country_zh": "貝里斯",
    "country_iso_code": "BZ",
    "timezone": "America/Belize",
    "latitude": 18.40783,
    "longitude": -88.39422
  },
  {
    "city": "Panama",
    "city_zh": "Panama",
    "country": "Belize",
    "country_zh": "貝里斯",
    "country_iso_code": "BZ",
    "timezone": "America/Belize",
    "latitude": 17.35458,
    "longitude": -88.69183
  },
  {
    "city": "Palmar Camp",
    "city_zh": "Palmar Camp",
    "country": "Belize",
    "country_zh": "貝里斯",
    "country_iso_code": "BZ",
    "timezone": "America/Belize",
    "latitude": 16.44905,
    "longitude": -88.88177
  },
  {
    "city": "Otoxha Village",
    "city_zh": "Otoxha Village",
    "country": "Belize",
    "country_zh": "貝里斯",
    "country_iso_code": "BZ",
    "timezone": "America/Belize",
    "latitude": 16.02129,
    "longitude": -89.17592
  },
  {
    "city": "Orange Walk",
    "city_zh": "Orange Walk",
    "country": "Belize",
    "country_zh": "貝里斯",
    "country_iso_code": "BZ",
    "timezone": "America/Belize",
    "latitude": 18.08124,
    "longitude": -88.56328
  },
  {
    "city": "Orange Walk",
    "city_zh": "Orange Walk",
    "country": "Belize",
    "country_zh": "貝里斯",
    "country_iso_code": "BZ",
    "timezone": "America/Belize",
    "latitude": 17.27001,
    "longitude": -88.78909
  },
  {
    "city": "Ontario Village",
    "city_zh": "Ontario Village",
    "country": "Belize",
    "country_zh": "貝里斯",
    "country_iso_code": "BZ",
    "timezone": "America/Belize",
    "latitude": 17.22121,
    "longitude": -88.89189
  },
  {
    "city": "Norland",
    "city_zh": "Norland",
    "country": "Belize",
    "country_zh": "貝里斯",
    "country_iso_code": "BZ",
    "timezone": "America/Belize",
    "latitude": 17.18157,
    "longitude": -89.00896
  },
  {
    "city": "Nimu Punit",
    "city_zh": "Nimu Punit",
    "country": "Belize",
    "country_zh": "貝里斯",
    "country_iso_code": "BZ",
    "timezone": "America/Belize",
    "latitude": 16.32129,
    "longitude": -88.81563
  },
  {
    "city": "New Town",
    "city_zh": "New Town",
    "country": "Belize",
    "country_zh": "貝里斯",
    "country_iso_code": "BZ",
    "timezone": "America/Belize",
    "latitude": 16.9,
    "longitude": -88.26667
  },
  {
    "city": "New Home",
    "city_zh": "New Home",
    "country": "Belize",
    "country_zh": "貝里斯",
    "country_iso_code": "BZ",
    "timezone": "America/Belize",
    "latitude": 18.11542,
    "longitude": -88.44448
  },
  {
    "city": "New Home",
    "city_zh": "New Home",
    "country": "Belize",
    "country_zh": "貝里斯",
    "country_iso_code": "BZ",
    "timezone": "America/Belize",
    "latitude": 16.74124,
    "longitude": -88.63435
  },
  {
    "city": "New Haven",
    "city_zh": "New Haven",
    "country": "Belize",
    "country_zh": "貝里斯",
    "country_iso_code": "BZ",
    "timezone": "America/Belize",
    "latitude": 16.25418,
    "longitude": -88.59054
  },
  {
    "city": "Never Delay",
    "city_zh": "Never Delay",
    "country": "Belize",
    "country_zh": "貝里斯",
    "country_iso_code": "BZ",
    "timezone": "America/Belize",
    "latitude": 17.3205,
    "longitude": -88.76058
  },
  {
    "city": "Neustadt",
    "city_zh": "Neustadt",
    "country": "Belize",
    "country_zh": "貝里斯",
    "country_iso_code": "BZ",
    "timezone": "America/Belize",
    "latitude": 17.90748,
    "longitude": -89.04202
  },
  {
    "city": "Nuendorf",
    "city_zh": "Nuendorf",
    "country": "Belize",
    "country_zh": "貝里斯",
    "country_iso_code": "BZ",
    "timezone": "America/Belize",
    "latitude": 17.89776,
    "longitude": -88.90144
  },
  {
    "city": "Negroman",
    "city_zh": "Negroman",
    "country": "Belize",
    "country_zh": "貝里斯",
    "country_iso_code": "BZ",
    "timezone": "America/Belize",
    "latitude": 17.07844,
    "longitude": -89.08331
  },
  {
    "city": "Nasario Perez",
    "city_zh": "Nasario Perez",
    "country": "Belize",
    "country_zh": "貝里斯",
    "country_iso_code": "BZ",
    "timezone": "America/Belize",
    "latitude": 16.43136,
    "longitude": -89.13734
  },
  {
    "city": "Narrows Landing",
    "city_zh": "Narrows Landing",
    "country": "Belize",
    "country_zh": "貝里斯",
    "country_iso_code": "BZ",
    "timezone": "America/Belize",
    "latitude": 18.16922,
    "longitude": -88.50606
  },
  {
    "city": "Nago Bank",
    "city_zh": "Nago Bank",
    "country": "Belize",
    "country_zh": "貝里斯",
    "country_iso_code": "BZ",
    "timezone": "America/Belize",
    "latitude": 17.88026,
    "longitude": -88.29134
  },
  {
    "city": "Nafreda",
    "city_zh": "Nafreda",
    "country": "Belize",
    "country_zh": "貝里斯",
    "country_iso_code": "BZ",
    "timezone": "America/Belize",
    "latitude": 16.24418,
    "longitude": -88.99268
  },
  {
    "city": "Mullins River",
    "city_zh": "Mullins River",
    "country": "Belize",
    "country_zh": "貝里斯",
    "country_iso_code": "BZ",
    "timezone": "America/Belize",
    "latitude": 17.10508,
    "longitude": -88.30072
  },
  {
    "city": "Mount Hope",
    "city_zh": "Mount Hope",
    "country": "Belize",
    "country_zh": "貝里斯",
    "country_iso_code": "BZ",
    "timezone": "America/Belize",
    "latitude": 17.22023,
    "longitude": -88.92973
  },
  {
    "city": "Mountain Cow",
    "city_zh": "Mountain Cow",
    "country": "Belize",
    "country_zh": "貝里斯",
    "country_iso_code": "BZ",
    "timezone": "America/Belize",
    "latitude": 16.7875,
    "longitude": -89.04889
  },
  {
    "city": "More Tomorrow",
    "city_zh": "More Tomorrow",
    "country": "Belize",
    "country_zh": "貝里斯",
    "country_iso_code": "BZ",
    "timezone": "America/Belize",
    "latitude": 17.34734,
    "longitude": -88.69204
  },
  {
    "city": "More Force",
    "city_zh": "More Force",
    "country": "Belize",
    "country_zh": "貝里斯",
    "country_iso_code": "BZ",
    "timezone": "America/Belize",
    "latitude": 17.84262,
    "longitude": -88.36903
  },
  {
    "city": "Monkey River Town",
    "city_zh": "猴溪橋鎮",
    "country": "Belize",
    "country_zh": "貝里斯",
    "country_iso_code": "BZ",
    "timezone": "America/Belize",
    "latitude": 16.36166,
    "longitude": -88.48517
  },
  {
    "city": "Monkey Fall",
    "city_zh": "Monkey Fall",
    "country": "Belize",
    "country_zh": "貝里斯",
    "country_iso_code": "BZ",
    "timezone": "America/Belize",
    "latitude": 17.1375,
    "longitude": -89.05028
  },
  {
    "city": "Millionario",
    "city_zh": "Millionario",
    "country": "Belize",
    "country_zh": "貝里斯",
    "country_iso_code": "BZ",
    "timezone": "America/Belize",
    "latitude": 16.75472,
    "longitude": -89.00833
  },
  {
    "city": "Middlesex",
    "city_zh": "Middlesex",
    "country": "Belize",
    "country_zh": "貝里斯",
    "country_iso_code": "BZ",
    "timezone": "America/Belize",
    "latitude": 17.03996,
    "longitude": -88.52174
  },
  {
    "city": "Middle Bank",
    "city_zh": "Middle Bank",
    "country": "Belize",
    "country_zh": "貝里斯",
    "country_iso_code": "BZ",
    "timezone": "America/Belize",
    "latitude": 16.82836,
    "longitude": -88.30868
  },
  {
    "city": "Melvin’s Bank",
    "city_zh": "Melvin’s Bank",
    "country": "Belize",
    "country_zh": "貝里斯",
    "country_iso_code": "BZ",
    "timezone": "America/Belize",
    "latitude": 16.44302,
    "longitude": -88.63669
  },
  {
    "city": "Meditation",
    "city_zh": "Meditation",
    "country": "Belize",
    "country_zh": "貝里斯",
    "country_iso_code": "BZ",
    "timezone": "America/Belize",
    "latitude": 17.38655,
    "longitude": -88.72683
  },
  {
    "city": "Medina Bank",
    "city_zh": "Medina Bank",
    "country": "Belize",
    "country_zh": "貝里斯",
    "country_iso_code": "BZ",
    "timezone": "America/Belize",
    "latitude": 16.44446,
    "longitude": -88.74226
  },
  {
    "city": "May Pen",
    "city_zh": "May Pen",
    "country": "Belize",
    "country_zh": "貝里斯",
    "country_iso_code": "BZ",
    "timezone": "America/Belize",
    "latitude": 17.65544,
    "longitude": -88.47129
  },
  {
    "city": "Maya Mopan",
    "city_zh": "Maya Mopan",
    "country": "Belize",
    "country_zh": "貝里斯",
    "country_iso_code": "BZ",
    "timezone": "America/Belize",
    "latitude": 16.66018,
    "longitude": -88.52542
  },
  {
    "city": "Maya Beach",
    "city_zh": "Maya Beach",
    "country": "Belize",
    "country_zh": "貝里斯",
    "country_iso_code": "BZ",
    "timezone": "America/Belize",
    "latitude": 16.61542,
    "longitude": -88.35373
  },
  {
    "city": "Maskall",
    "city_zh": "Maskall",
    "country": "Belize",
    "country_zh": "貝里斯",
    "country_iso_code": "BZ",
    "timezone": "America/Belize",
    "latitude": 17.87788,
    "longitude": -88.31174
  },
  {
    "city": "Mango Creek",
    "city_zh": "Mango Creek",
    "country": "Belize",
    "country_zh": "貝里斯",
    "country_iso_code": "BZ",
    "timezone": "America/Belize",
    "latitude": 16.536,
    "longitude": -88.41479
  },
  {
    "city": "Mammee Camp",
    "city_zh": "Mammee Camp",
    "country": "Belize",
    "country_zh": "貝里斯",
    "country_iso_code": "BZ",
    "timezone": "America/Belize",
    "latitude": 17.39708,
    "longitude": -88.99669
  },
  {
    "city": "Mai Gate",
    "city_zh": "Mai Gate",
    "country": "Belize",
    "country_zh": "貝里斯",
    "country_iso_code": "BZ",
    "timezone": "America/Belize",
    "latitude": 17.06541,
    "longitude": -88.97326
  },
  {
    "city": "Machaca Camp",
    "city_zh": "Machaca Camp",
    "country": "Belize",
    "country_zh": "貝里斯",
    "country_iso_code": "BZ",
    "timezone": "America/Belize",
    "latitude": 16.19903,
    "longitude": -88.88854
  },
  {
    "city": "Machaca",
    "city_zh": "Machaca",
    "country": "Belize",
    "country_zh": "貝里斯",
    "country_iso_code": "BZ",
    "timezone": "America/Belize",
    "latitude": 16.14028,
    "longitude": -89.115
  },
  {
    "city": "Macaw Bank",
    "city_zh": "Macaw Bank",
    "country": "Belize",
    "country_zh": "貝里斯",
    "country_iso_code": "BZ",
    "timezone": "America/Belize",
    "latitude": 16.98333,
    "longitude": -89.06667
  },
  {
    "city": "Lucky Strike",
    "city_zh": "Lucky Strike",
    "country": "Belize",
    "country_zh": "貝里斯",
    "country_iso_code": "BZ",
    "timezone": "America/Belize",
    "latitude": 17.77922,
    "longitude": -88.31685
  },
  {
    "city": "Louisville",
    "city_zh": "Louisville",
    "country": "Belize",
    "country_zh": "貝里斯",
    "country_iso_code": "BZ",
    "timezone": "America/Belize",
    "latitude": 18.31946,
    "longitude": -88.50982
  },
  {
    "city": "Los Lirios Camp",
    "city_zh": "Los Lirios Camp",
    "country": "Belize",
    "country_zh": "貝里斯",
    "country_iso_code": "BZ",
    "timezone": "America/Belize",
    "latitude": 16.70421,
    "longitude": -89.00931
  },
  {
    "city": "Los Altos",
    "city_zh": "Los Altos",
    "country": "Belize",
    "country_zh": "貝里斯",
    "country_iso_code": "BZ",
    "timezone": "America/Belize",
    "latitude": 16.97728,
    "longitude": -88.99556
  },
  {
    "city": "Lord’s Bank",
    "city_zh": "Lord’s Bank",
    "country": "Belize",
    "country_zh": "貝里斯",
    "country_iso_code": "BZ",
    "timezone": "America/Belize",
    "latitude": 17.54462,
    "longitude": -88.33328
  },
  {
    "city": "Long Bridge",
    "city_zh": "Long Bridge",
    "country": "Belize",
    "country_zh": "貝里斯",
    "country_iso_code": "BZ",
    "timezone": "America/Belize",
    "latitude": 17.31397,
    "longitude": -89.08535
  },
  {
    "city": "London",
    "city_zh": "London",
    "country": "Belize",
    "country_zh": "貝里斯",
    "country_iso_code": "BZ",
    "timezone": "America/Belize",
    "latitude": 17.98333,
    "longitude": -88.43333
  },
  {
    "city": "Logan’s Bank",
    "city_zh": "Logan’s Bank",
    "country": "Belize",
    "country_zh": "貝里斯",
    "country_iso_code": "BZ",
    "timezone": "America/Belize",
    "latitude": 16.48943,
    "longitude": -88.54279
  },
  {
    "city": "Locust Bank",
    "city_zh": "Locust Bank",
    "country": "Belize",
    "country_zh": "貝里斯",
    "country_iso_code": "BZ",
    "timezone": "America/Belize",
    "latitude": 16.77803,
    "longitude": -88.48933
  },
  {
    "city": "Little Bermudian Landing",
    "city_zh": "Little Bermudian Landing",
    "country": "Belize",
    "country_zh": "貝里斯",
    "country_iso_code": "BZ",
    "timezone": "America/Belize",
    "latitude": 17.57531,
    "longitude": -88.54186
  },
  {
    "city": "Little Belize",
    "city_zh": "Little Belize",
    "country": "Belize",
    "country_zh": "貝里斯",
    "country_iso_code": "BZ",
    "timezone": "America/Belize",
    "latitude": 18.198,
    "longitude": -88.40792
  },
  {
    "city": "Listowel",
    "city_zh": "Listowel",
    "country": "Belize",
    "country_zh": "貝里斯",
    "country_iso_code": "BZ",
    "timezone": "America/Belize",
    "latitude": 17.20217,
    "longitude": -89.02113
  },
  {
    "city": "Lime Walk",
    "city_zh": "Lime Walk",
    "country": "Belize",
    "country_zh": "貝里斯",
    "country_iso_code": "BZ",
    "timezone": "America/Belize",
    "latitude": 17.63089,
    "longitude": -88.49183
  },
  {
    "city": "Libertad",
    "city_zh": "Libertad",
    "country": "Belize",
    "country_zh": "貝里斯",
    "country_iso_code": "BZ",
    "timezone": "America/Belize",
    "latitude": 18.30791,
    "longitude": -88.45444
  },
  {
    "city": "Lemonal",
    "city_zh": "Lemonal",
    "country": "Belize",
    "country_zh": "貝里斯",
    "country_iso_code": "BZ",
    "timezone": "America/Belize",
    "latitude": 17.60807,
    "longitude": -88.60299
  },
  {
    "city": "Laguna",
    "city_zh": "Laguna",
    "country": "Belize",
    "country_zh": "貝里斯",
    "country_iso_code": "BZ",
    "timezone": "America/Belize",
    "latitude": 18.38247,
    "longitude": -88.51801
  },
  {
    "city": "Lagoona",
    "city_zh": "Lagoona",
    "country": "Belize",
    "country_zh": "貝里斯",
    "country_iso_code": "BZ",
    "timezone": "America/Belize",
    "latitude": 16.16907,
    "longitude": -88.93795
  },
  {
    "city": "Lagarto Bank",
    "city_zh": "Lagarto Bank",
    "country": "Belize",
    "country_zh": "貝里斯",
    "country_iso_code": "BZ",
    "timezone": "America/Belize",
    "latitude": 16.66287,
    "longitude": -88.5896
  },
  {
    "city": "Lagarto",
    "city_zh": "Lagarto",
    "country": "Belize",
    "country_zh": "貝里斯",
    "country_iso_code": "BZ",
    "timezone": "America/Belize",
    "latitude": 17.39727,
    "longitude": -89.14041
  },
  {
    "city": "La Flor Camp",
    "city_zh": "La Flor Camp",
    "country": "Belize",
    "country_zh": "貝里斯",
    "country_iso_code": "BZ",
    "timezone": "America/Belize",
    "latitude": 16.62273,
    "longitude": -89.0092
  },
  {
    "city": "Ladyville",
    "city_zh": "Ladyville",
    "country": "Belize",
    "country_zh": "貝里斯",
    "country_iso_code": "BZ",
    "timezone": "America/Belize",
    "latitude": 17.55427,
    "longitude": -88.29
  },
  {
    "city": "La Democracia",
    "city_zh": "La Democracia",
    "country": "Belize",
    "country_zh": "貝里斯",
    "country_iso_code": "BZ",
    "timezone": "America/Belize",
    "latitude": 17.34076,
    "longitude": -88.54472
  },
  {
    "city": "Kendal",
    "city_zh": "Kendal",
    "country": "Belize",
    "country_zh": "貝里斯",
    "country_iso_code": "BZ",
    "timezone": "America/Belize",
    "latitude": 16.81307,
    "longitude": -88.37814
  },
  {
    "city": "Kaway Camp",
    "city_zh": "Kaway Camp",
    "country": "Belize",
    "country_zh": "貝里斯",
    "country_iso_code": "BZ",
    "timezone": "America/Belize",
    "latitude": 17.38218,
    "longitude": -89.06577
  },
  {
    "city": "Joventud",
    "city_zh": "Joventud",
    "country": "Belize",
    "country_zh": "貝里斯",
    "country_iso_code": "BZ",
    "timezone": "America/Belize",
    "latitude": 16.11509,
    "longitude": -89.16727
  },
  {
    "city": "Joe Wagner Boom",
    "city_zh": "Joe Wagner Boom",
    "country": "Belize",
    "country_zh": "貝里斯",
    "country_iso_code": "BZ",
    "timezone": "America/Belize",
    "latitude": 17.42336,
    "longitude": -88.36435
  },
  {
    "city": "Jimmy Cut",
    "city_zh": "Jimmy Cut",
    "country": "Belize",
    "country_zh": "貝里斯",
    "country_iso_code": "BZ",
    "timezone": "America/Belize",
    "latitude": 16.29359,
    "longitude": -89.04052
  },
  {
    "city": "Jalacte",
    "city_zh": "Jalacte",
    "country": "Belize",
    "country_zh": "貝里斯",
    "country_iso_code": "BZ",
    "timezone": "America/Belize",
    "latitude": 16.15806,
    "longitude": -89.14667
  },
  {
    "city": "Jacinto Landing",
    "city_zh": "Jacinto Landing",
    "country": "Belize",
    "country_zh": "貝里斯",
    "country_iso_code": "BZ",
    "timezone": "America/Belize",
    "latitude": 16.16667,
    "longitude": -88.85
  },
  {
    "city": "Isabella Bank",
    "city_zh": "Isabella Bank",
    "country": "Belize",
    "country_zh": "貝里斯",
    "country_iso_code": "BZ",
    "timezone": "America/Belize",
    "latitude": 17.58333,
    "longitude": -88.53333
  },
  {
    "city": "Indian Church",
    "city_zh": "Indian Church",
    "country": "Belize",
    "country_zh": "貝里斯",
    "country_iso_code": "BZ",
    "timezone": "America/Belize",
    "latitude": 17.75392,
    "longitude": -88.65744
  },
  {
    "city": "Independence and Mango Creek",
    "city_zh": "Independence and Mango Creek",
    "country": "Belize",
    "country_zh": "貝里斯",
    "country_iso_code": "BZ",
    "timezone": "America/Belize",
    "latitude": 16.5344,
    "longitude": -88.41878
  },
  {
    "city": "Iguana Creek Bank",
    "city_zh": "Iguana Creek Bank",
    "country": "Belize",
    "country_zh": "貝里斯",
    "country_iso_code": "BZ",
    "timezone": "America/Belize",
    "latitude": 17.23472,
    "longitude": -88.92797
  },
  {
    "city": "Hopkins",
    "city_zh": "Hopkins",
    "country": "Belize",
    "country_zh": "貝里斯",
    "country_iso_code": "BZ",
    "timezone": "America/Belize",
    "latitude": 16.86308,
    "longitude": -88.28437
  },
  {
    "city": "Hopital",
    "city_zh": "Hopital",
    "country": "Belize",
    "country_zh": "貝里斯",
    "country_iso_code": "BZ",
    "timezone": "America/Belize",
    "latitude": 16.46667,
    "longitude": -88.96667
  },
  {
    "city": "Honey Camp",
    "city_zh": "Honey Camp",
    "country": "Belize",
    "country_zh": "貝里斯",
    "country_iso_code": "BZ",
    "timezone": "America/Belize",
    "latitude": 18.0327,
    "longitude": -88.45013
  },
  {
    "city": "Hill Bank",
    "city_zh": "Hill Bank",
    "country": "Belize",
    "country_zh": "貝里斯",
    "country_iso_code": "BZ",
    "timezone": "America/Belize",
    "latitude": 18.24559,
    "longitude": -88.39448
  },
  {
    "city": "Hill Bank",
    "city_zh": "Hill Bank",
    "country": "Belize",
    "country_zh": "貝里斯",
    "country_iso_code": "BZ",
    "timezone": "America/Belize",
    "latitude": 17.60332,
    "longitude": -88.6925
  },
  {
    "city": "High Sand",
    "city_zh": "High Sand",
    "country": "Belize",
    "country_zh": "貝里斯",
    "country_iso_code": "BZ",
    "timezone": "America/Belize",
    "latitude": 16.82634,
    "longitude": -88.30949
  },
  {
    "city": "Hellgate",
    "city_zh": "Hellgate",
    "country": "Belize",
    "country_zh": "貝里斯",
    "country_iso_code": "BZ",
    "timezone": "America/Belize",
    "latitude": 16.36091,
    "longitude": -88.79708
  },
  {
    "city": "Hattieville",
    "city_zh": "Hattieville",
    "country": "Belize",
    "country_zh": "貝里斯",
    "country_iso_code": "BZ",
    "timezone": "America/Belize",
    "latitude": 17.44779,
    "longitude": -88.39355
  },
  {
    "city": "Hamidli Creek Settlement",
    "city_zh": "Hamidli Creek Settlement",
    "country": "Belize",
    "country_zh": "貝里斯",
    "country_iso_code": "BZ",
    "timezone": "America/Belize",
    "latitude": 16.21995,
    "longitude": -88.90172
  },
  {
    "city": "Guinea Grass",
    "city_zh": "Guinea Grass",
    "country": "Belize",
    "country_zh": "貝里斯",
    "country_iso_code": "BZ",
    "timezone": "America/Belize",
    "latitude": 17.96704,
    "longitude": -88.59837
  },
  {
    "city": "Guana Church Bank",
    "city_zh": "Guana Church Bank",
    "country": "Belize",
    "country_zh": "貝里斯",
    "country_iso_code": "BZ",
    "timezone": "America/Belize",
    "latitude": 16.8518,
    "longitude": -88.47556
  },
  {
    "city": "Guacamallo",
    "city_zh": "Guacamallo",
    "country": "Belize",
    "country_zh": "貝里斯",
    "country_iso_code": "BZ",
    "timezone": "America/Belize",
    "latitude": 16.86778,
    "longitude": -89.03222
  },
  {
    "city": "Graham Creek",
    "city_zh": "Graham Creek",
    "country": "Belize",
    "country_zh": "貝里斯",
    "country_iso_code": "BZ",
    "timezone": "America/Belize",
    "latitude": 15.92851,
    "longitude": -89.1122
  },
  {
    "city": "Gracy Rock Bank",
    "city_zh": "Gracy Rock Bank",
    "country": "Belize",
    "country_zh": "貝里斯",
    "country_iso_code": "BZ",
    "timezone": "America/Belize",
    "latitude": 17.36577,
    "longitude": -88.44973
  },
  {
    "city": "Grace Bank",
    "city_zh": "Grace Bank",
    "country": "Belize",
    "country_zh": "貝里斯",
    "country_iso_code": "BZ",
    "timezone": "America/Belize",
    "latitude": 17.64982,
    "longitude": -88.40491
  },
  {
    "city": "Good Living Camp",
    "city_zh": "Good Living Camp",
    "country": "Belize",
    "country_zh": "貝里斯",
    "country_iso_code": "BZ",
    "timezone": "America/Belize",
    "latitude": 17.11755,
    "longitude": -88.65729
  },
  {
    "city": "Gongora",
    "city_zh": "Gongora",
    "country": "Belize",
    "country_zh": "貝里斯",
    "country_iso_code": "BZ",
    "timezone": "America/Belize",
    "latitude": 17.7,
    "longitude": -88.95
  },
  {
    "city": "Gnadenthal",
    "city_zh": "Gnadenthal",
    "country": "Belize",
    "country_zh": "貝里斯",
    "country_iso_code": "BZ",
    "timezone": "America/Belize",
    "latitude": 17.88053,
    "longitude": -88.91712
  },
  {
    "city": "Gnadenfeld",
    "city_zh": "Gnadenfeld",
    "country": "Belize",
    "country_zh": "貝里斯",
    "country_iso_code": "BZ",
    "timezone": "America/Belize",
    "latitude": 17.87216,
    "longitude": -88.91729
  },
  {
    "city": "Georgeville",
    "city_zh": "Georgeville",
    "country": "Belize",
    "country_zh": "貝里斯",
    "country_iso_code": "BZ",
    "timezone": "America/Belize",
    "latitude": 17.19062,
    "longitude": -88.97457
  },
  {
    "city": "Georgetown",
    "city_zh": "Georgetown",
    "country": "Belize",
    "country_zh": "貝里斯",
    "country_iso_code": "BZ",
    "timezone": "America/Belize",
    "latitude": 16.65322,
    "longitude": -88.50783
  },
  {
    "city": "Garbutt’s Falls",
    "city_zh": "Garbutt’s Falls",
    "country": "Belize",
    "country_zh": "貝里斯",
    "country_iso_code": "BZ",
    "timezone": "America/Belize",
    "latitude": 17.05505,
    "longitude": -89.14519
  },
  {
    "city": "Gallon Jug",
    "city_zh": "Gallon Jug",
    "country": "Belize",
    "country_zh": "貝里斯",
    "country_iso_code": "BZ",
    "timezone": "America/Belize",
    "latitude": 17.56201,
    "longitude": -89.04671
  },
  {
    "city": "Gales Point",
    "city_zh": "Gales Point",
    "country": "Belize",
    "country_zh": "貝里斯",
    "country_iso_code": "BZ",
    "timezone": "America/Belize",
    "latitude": 17.17101,
    "longitude": -88.3352
  },
  {
    "city": "Freetown Sibun",
    "city_zh": "Freetown Sibun",
    "country": "Belize",
    "country_zh": "貝里斯",
    "country_iso_code": "BZ",
    "timezone": "America/Belize",
    "latitude": 17.42495,
    "longitude": -88.35397
  },
  {
    "city": "Freetown Area",
    "city_zh": "Freetown Area",
    "country": "Belize",
    "country_zh": "貝里斯",
    "country_iso_code": "BZ",
    "timezone": "America/Belize",
    "latitude": 16.82565,
    "longitude": -88.29097
  },
  {
    "city": "Franks Eddy",
    "city_zh": "Franks Eddy",
    "country": "Belize",
    "country_zh": "貝里斯",
    "country_iso_code": "BZ",
    "timezone": "America/Belize",
    "latitude": 17.26091,
    "longitude": -88.63744
  },
  {
    "city": "Fort George",
    "city_zh": "Fort George",
    "country": "Belize",
    "country_zh": "貝里斯",
    "country_iso_code": "BZ",
    "timezone": "America/Belize",
    "latitude": 17.49434,
    "longitude": -88.1829
  },
  {
    "city": "Fork Camp",
    "city_zh": "Fork Camp",
    "country": "Belize",
    "country_zh": "貝里斯",
    "country_iso_code": "BZ",
    "timezone": "America/Belize",
    "latitude": 16.51852,
    "longitude": -89.06636
  },
  {
    "city": "Forest Home",
    "city_zh": "Forest Home",
    "country": "Belize",
    "country_zh": "貝里斯",
    "country_iso_code": "BZ",
    "timezone": "America/Belize",
    "latitude": 16.13873,
    "longitude": -88.83302
  },
  {
    "city": "Flowers Bank",
    "city_zh": "Flowers Bank",
    "country": "Belize",
    "country_zh": "貝里斯",
    "country_iso_code": "BZ",
    "timezone": "America/Belize",
    "latitude": 17.61407,
    "longitude": -88.49292
  },
  {
    "city": "Flour Camp",
    "city_zh": "Flour Camp",
    "country": "Belize",
    "country_zh": "貝里斯",
    "country_iso_code": "BZ",
    "timezone": "America/Belize",
    "latitude": 17.04467,
    "longitude": -89.06331
  },
  {
    "city": "Fermin Reyes",
    "city_zh": "Fermin Reyes",
    "country": "Belize",
    "country_zh": "貝里斯",
    "country_iso_code": "BZ",
    "timezone": "America/Belize",
    "latitude": 17.25889,
    "longitude": -89.05361
  },
  {
    "city": "Ferguson Bank",
    "city_zh": "Ferguson Bank",
    "country": "Belize",
    "country_zh": "貝里斯",
    "country_iso_code": "BZ",
    "timezone": "America/Belize",
    "latitude": 17.44186,
    "longitude": -88.29526
  },
  {
    "city": "Estrella",
    "city_zh": "Estrella",
    "country": "Belize",
    "country_zh": "貝里斯",
    "country_iso_code": "BZ",
    "timezone": "America/Belize",
    "latitude": 18.29106,
    "longitude": -88.45235
  },
  {
    "city": "Estero",
    "city_zh": "Estero",
    "country": "Belize",
    "country_zh": "貝里斯",
    "country_iso_code": "BZ",
    "timezone": "America/Belize",
    "latitude": 18.41252,
    "longitude": -88.50239
  },
  {
    "city": "Esperanza Camp",
    "city_zh": "Esperanza Camp",
    "country": "Belize",
    "country_zh": "貝里斯",
    "country_iso_code": "BZ",
    "timezone": "America/Belize",
    "latitude": 16.41722,
    "longitude": -89.02306
  },
  {
    "city": "Esperanza",
    "city_zh": "Esperanza",
    "country": "Belize",
    "country_zh": "貝里斯",
    "country_iso_code": "BZ",
    "timezone": "America/Belize",
    "latitude": 17.37796,
    "longitude": -89.13084
  },
  {
    "city": "Esperanza",
    "city_zh": "Esperanza",
    "country": "Belize",
    "country_zh": "貝里斯",
    "country_iso_code": "BZ",
    "timezone": "America/Belize",
    "latitude": 17.17453,
    "longitude": -89.04415
  },
  {
    "city": "Esperanza",
    "city_zh": "Esperanza",
    "country": "Belize",
    "country_zh": "貝里斯",
    "country_iso_code": "BZ",
    "timezone": "America/Belize",
    "latitude": 16.49812,
    "longitude": -88.87141
  },
  {
    "city": "Encalada Potrero",
    "city_zh": "Encalada Potrero",
    "country": "Belize",
    "country_zh": "貝里斯",
    "country_iso_code": "BZ",
    "timezone": "America/Belize",
    "latitude": 17.90798,
    "longitude": -89.10428
  },
  {
    "city": "El Remate",
    "city_zh": "El Remate",
    "country": "Belize",
    "country_zh": "貝里斯",
    "country_iso_code": "BZ",
    "timezone": "America/Belize",
    "latitude": 18.2,
    "longitude": -88.43333
  },
  {
    "city": "El Brazo",
    "city_zh": "El Brazo",
    "country": "Belize",
    "country_zh": "貝里斯",
    "country_iso_code": "BZ",
    "timezone": "America/Belize",
    "latitude": 18.2,
    "longitude": -88.61667
  },
  {
    "city": "Egypt",
    "city_zh": "Egypt",
    "country": "Belize",
    "country_zh": "貝里斯",
    "country_iso_code": "BZ",
    "timezone": "America/Belize",
    "latitude": 17.42533,
    "longitude": -88.39139
  },
  {
    "city": "Edenthal",
    "city_zh": "Edenthal",
    "country": "Belize",
    "country_zh": "貝里斯",
    "country_iso_code": "BZ",
    "timezone": "America/Belize",
    "latitude": 17.9271,
    "longitude": -88.98195
  },
  {
    "city": "Duffy Bank",
    "city_zh": "Duffy Bank",
    "country": "Belize",
    "country_zh": "貝里斯",
    "country_iso_code": "BZ",
    "timezone": "America/Belize",
    "latitude": 17.11972,
    "longitude": -89.06306
  },
  {
    "city": "Duck Run",
    "city_zh": "Duck Run",
    "country": "Belize",
    "country_zh": "貝里斯",
    "country_iso_code": "BZ",
    "timezone": "America/Belize",
    "latitude": 17.21853,
    "longitude": -89.01635
  },
  {
    "city": "Dry Creek Bank",
    "city_zh": "Dry Creek Bank",
    "country": "Belize",
    "country_zh": "貝里斯",
    "country_iso_code": "BZ",
    "timezone": "America/Belize",
    "latitude": 17.17059,
    "longitude": -88.59616
  },
  {
    "city": "Driving Camp",
    "city_zh": "Driving Camp",
    "country": "Belize",
    "country_zh": "貝里斯",
    "country_iso_code": "BZ",
    "timezone": "America/Belize",
    "latitude": 17.81667,
    "longitude": -88.81667
  },
  {
    "city": "Drill Camp",
    "city_zh": "Drill Camp",
    "country": "Belize",
    "country_zh": "貝里斯",
    "country_iso_code": "BZ",
    "timezone": "America/Belize",
    "latitude": 17.35821,
    "longitude": -88.91386
  },
  {
    "city": "Douglas",
    "city_zh": "Douglas",
    "country": "Belize",
    "country_zh": "貝里斯",
    "country_iso_code": "BZ",
    "timezone": "America/Belize",
    "latitude": 18.23519,
    "longitude": -88.60145
  },
  {
    "city": "Double Head Cabbage",
    "city_zh": "Double Head Cabbage",
    "country": "Belize",
    "country_zh": "貝里斯",
    "country_iso_code": "BZ",
    "timezone": "America/Belize",
    "latitude": 17.54358,
    "longitude": -88.5575
  },
  {
    "city": "Dos Bocas",
    "city_zh": "Dos Bocas",
    "country": "Belize",
    "country_zh": "貝里斯",
    "country_iso_code": "BZ",
    "timezone": "America/Belize",
    "latitude": 17.90588,
    "longitude": -88.85324
  },
  {
    "city": "Dolores",
    "city_zh": "Dolores",
    "country": "Belize",
    "country_zh": "貝里斯",
    "country_iso_code": "BZ",
    "timezone": "America/Belize",
    "latitude": 15.98903,
    "longitude": -89.21085
  },
  {
    "city": "Davis Bank",
    "city_zh": "Davis Bank",
    "country": "Belize",
    "country_zh": "貝里斯",
    "country_iso_code": "BZ",
    "timezone": "America/Belize",
    "latitude": 17.64464,
    "longitude": -88.39591
  },
  {
    "city": "Dangriga",
    "city_zh": "Dangriga",
    "country": "Belize",
    "country_zh": "貝里斯",
    "country_iso_code": "BZ",
    "timezone": "America/Belize",
    "latitude": 16.9697,
    "longitude": -88.23313
  },
  {
    "city": "Dancing Pool",
    "city_zh": "Dancing Pool",
    "country": "Belize",
    "country_zh": "貝里斯",
    "country_iso_code": "BZ",
    "timezone": "America/Belize",
    "latitude": 16.83119,
    "longitude": -88.43737
  },
  {
    "city": "Cubetas",
    "city_zh": "Cubetas",
    "country": "Belize",
    "country_zh": "貝里斯",
    "country_iso_code": "BZ",
    "timezone": "America/Belize",
    "latitude": 16.78472,
    "longitude": -89.01
  },
  {
    "city": "Crossing Landing Bank",
    "city_zh": "Crossing Landing Bank",
    "country": "Belize",
    "country_zh": "貝里斯",
    "country_iso_code": "BZ",
    "timezone": "America/Belize",
    "latitude": 17.22905,
    "longitude": -88.56961
  },
  {
    "city": "Crooked Tree",
    "city_zh": "Crooked Tree",
    "country": "Belize",
    "country_zh": "貝里斯",
    "country_iso_code": "BZ",
    "timezone": "America/Belize",
    "latitude": 17.77599,
    "longitude": -88.54203
  },
  {
    "city": "Cristo Rey",
    "city_zh": "Cristo Rey",
    "country": "Belize",
    "country_zh": "貝里斯",
    "country_iso_code": "BZ",
    "timezone": "America/Belize",
    "latitude": 18.34856,
    "longitude": -88.49545
  },
  {
    "city": "Cristo Rey",
    "city_zh": "Cristo Rey",
    "country": "Belize",
    "country_zh": "貝里斯",
    "country_iso_code": "BZ",
    "timezone": "America/Belize",
    "latitude": 17.13139,
    "longitude": -89.055
  },
  {
    "city": "Crique Sarco",
    "city_zh": "Crique Sarco",
    "country": "Belize",
    "country_zh": "貝里斯",
    "country_iso_code": "BZ",
    "timezone": "America/Belize",
    "latitude": 15.98333,
    "longitude": -89.1
  },
  {
    "city": "Crique Jute",
    "city_zh": "Crique Jute",
    "country": "Belize",
    "country_zh": "貝里斯",
    "country_iso_code": "BZ",
    "timezone": "America/Belize",
    "latitude": 16.26667,
    "longitude": -89.01667
  },
  {
    "city": "Cowpen",
    "city_zh": "Cowpen",
    "country": "Belize",
    "country_zh": "貝里斯",
    "country_iso_code": "BZ",
    "timezone": "America/Belize",
    "latitude": 18.22225,
    "longitude": -88.22656
  },
  {
    "city": "Cowpen",
    "city_zh": "Cowpen",
    "country": "Belize",
    "country_zh": "貝里斯",
    "country_iso_code": "BZ",
    "timezone": "America/Belize",
    "latitude": 18.10798,
    "longitude": -88.44676
  },
  {
    "city": "Cowpen",
    "city_zh": "Cowpen",
    "country": "Belize",
    "country_zh": "貝里斯",
    "country_iso_code": "BZ",
    "timezone": "America/Belize",
    "latitude": 16.56667,
    "longitude": -88.53333
  },
  {
    "city": "Cowhead Creek",
    "city_zh": "Cowhead Creek",
    "country": "Belize",
    "country_zh": "貝里斯",
    "country_iso_code": "BZ",
    "timezone": "America/Belize",
    "latitude": 17.76166,
    "longitude": -88.31262
  },
  {
    "city": "Cowboy Camp",
    "city_zh": "Cowboy Camp",
    "country": "Belize",
    "country_zh": "貝里斯",
    "country_iso_code": "BZ",
    "timezone": "America/Belize",
    "latitude": 16.73806,
    "longitude": -89.125
  },
  {
    "city": "Cotton Tree Bank",
    "city_zh": "Cotton Tree Bank",
    "country": "Belize",
    "country_zh": "貝里斯",
    "country_iso_code": "BZ",
    "timezone": "America/Belize",
    "latitude": 17.33333,
    "longitude": -88.73333
  },
  {
    "city": "Cotton Tree",
    "city_zh": "Cotton Tree",
    "country": "Belize",
    "country_zh": "貝里斯",
    "country_iso_code": "BZ",
    "timezone": "America/Belize",
    "latitude": 17.27357,
    "longitude": -88.71397
  },
  {
    "city": "Corozon",
    "city_zh": "Corozon",
    "country": "Belize",
    "country_zh": "貝里斯",
    "country_iso_code": "BZ",
    "timezone": "America/Belize",
    "latitude": 16.05528,
    "longitude": -89.12417
  },
  {
    "city": "Corozalito",
    "city_zh": "Corozalito",
    "country": "Belize",
    "country_zh": "貝里斯",
    "country_iso_code": "BZ",
    "timezone": "America/Belize",
    "latitude": 18.10241,
    "longitude": -88.37645
  },
  {
    "city": "Corozalito",
    "city_zh": "Corozalito",
    "country": "Belize",
    "country_zh": "貝里斯",
    "country_iso_code": "BZ",
    "timezone": "America/Belize",
    "latitude": 17.96143,
    "longitude": -88.80341
  },
  {
    "city": "Corozalito",
    "city_zh": "Corozalito",
    "country": "Belize",
    "country_zh": "貝里斯",
    "country_iso_code": "BZ",
    "timezone": "America/Belize",
    "latitude": 17.83903,
    "longitude": -88.27395
  },
  {
    "city": "Corozal",
    "city_zh": "Corozal",
    "country": "Belize",
    "country_zh": "貝里斯",
    "country_iso_code": "BZ",
    "timezone": "America/Belize",
    "latitude": 18.39375,
    "longitude": -88.38849
  },
  {
    "city": "Corozal",
    "city_zh": "Corozal",
    "country": "Belize",
    "country_zh": "貝里斯",
    "country_iso_code": "BZ",
    "timezone": "America/Belize",
    "latitude": 17.40535,
    "longitude": -89.08105
  },
  {
    "city": "Coquericot",
    "city_zh": "Coquericot",
    "country": "Belize",
    "country_zh": "貝里斯",
    "country_iso_code": "BZ",
    "timezone": "America/Belize",
    "latitude": 17.42274,
    "longitude": -88.62238
  },
  {
    "city": "Cool Shade",
    "city_zh": "Cool Shade",
    "country": "Belize",
    "country_zh": "貝里斯",
    "country_iso_code": "BZ",
    "timezone": "America/Belize",
    "latitude": 17.17137,
    "longitude": -88.96788
  },
  {
    "city": "Consejo",
    "city_zh": "Consejo",
    "country": "Belize",
    "country_zh": "貝里斯",
    "country_iso_code": "BZ",
    "timezone": "America/Belize",
    "latitude": 18.45736,
    "longitude": -88.30134
  },
  {
    "city": "Conejo",
    "city_zh": "Conejo",
    "country": "Belize",
    "country_zh": "貝里斯",
    "country_iso_code": "BZ",
    "timezone": "America/Belize",
    "latitude": 16.04097,
    "longitude": -89.00184
  },
  {
    "city": "Concepcion",
    "city_zh": "Concepcion",
    "country": "Belize",
    "country_zh": "貝里斯",
    "country_iso_code": "BZ",
    "timezone": "America/Belize",
    "latitude": 18.32308,
    "longitude": -88.47419
  },
  {
    "city": "Commerce Bight Village",
    "city_zh": "Commerce Bight Village",
    "country": "Belize",
    "country_zh": "貝里斯",
    "country_iso_code": "BZ",
    "timezone": "America/Belize",
    "latitude": 16.8681,
    "longitude": -88.30989
  },
  {
    "city": "Cohune Ridge",
    "city_zh": "Cohune Ridge",
    "country": "Belize",
    "country_zh": "貝里斯",
    "country_iso_code": "BZ",
    "timezone": "America/Belize",
    "latitude": 16.81944,
    "longitude": -89.08417
  },
  {
    "city": "Cocos",
    "city_zh": "Cocos",
    "country": "Belize",
    "country_zh": "貝里斯",
    "country_iso_code": "BZ",
    "timezone": "America/Belize",
    "latitude": 18.25141,
    "longitude": -88.37341
  },
  {
    "city": "Cocos",
    "city_zh": "Cocos",
    "country": "Belize",
    "country_zh": "貝里斯",
    "country_iso_code": "BZ",
    "timezone": "America/Belize",
    "latitude": 18.22386,
    "longitude": -88.61398
  },
  {
    "city": "Churchyard",
    "city_zh": "Churchyard",
    "country": "Belize",
    "country_zh": "貝里斯",
    "country_iso_code": "BZ",
    "timezone": "America/Belize",
    "latitude": 17.30533,
    "longitude": -88.5553
  },
  {
    "city": "Chunox",
    "city_zh": "Chunox",
    "country": "Belize",
    "country_zh": "貝里斯",
    "country_iso_code": "BZ",
    "timezone": "America/Belize",
    "latitude": 18.29785,
    "longitude": -88.35746
  },
  {
    "city": "Chunch",
    "city_zh": "Chunch",
    "country": "Belize",
    "country_zh": "貝里斯",
    "country_iso_code": "BZ",
    "timezone": "America/Belize",
    "latitude": 18.3,
    "longitude": -88.38333
  },
  {
    "city": "Chan Bank",
    "city_zh": "Chan Bank",
    "country": "Belize",
    "country_zh": "貝里斯",
    "country_iso_code": "BZ",
    "timezone": "America/Belize",
    "latitude": 16.53852,
    "longitude": -88.70219
  },
  {
    "city": "Chorro",
    "city_zh": "Chorro",
    "country": "Belize",
    "country_zh": "貝里斯",
    "country_iso_code": "BZ",
    "timezone": "America/Belize",
    "latitude": 17.255,
    "longitude": -89.12389
  },
  {
    "city": "Chicago",
    "city_zh": "Chicago",
    "country": "Belize",
    "country_zh": "貝里斯",
    "country_iso_code": "BZ",
    "timezone": "America/Belize",
    "latitude": 17.81524,
    "longitude": -88.31159
  },
  {
    "city": "Chial",
    "city_zh": "Chial",
    "country": "Belize",
    "country_zh": "貝里斯",
    "country_iso_code": "BZ",
    "timezone": "America/Belize",
    "latitude": 17.10495,
    "longitude": -89.11338
  },
  {
    "city": "Chapayal",
    "city_zh": "Chapayal",
    "country": "Belize",
    "country_zh": "貝里斯",
    "country_iso_code": "BZ",
    "timezone": "America/Belize",
    "latitude": 16.78167,
    "longitude": -89.13917
  },
  {
    "city": "Chan Sapote",
    "city_zh": "Chan Sapote",
    "country": "Belize",
    "country_zh": "貝里斯",
    "country_iso_code": "BZ",
    "timezone": "America/Belize",
    "latitude": 18.32677,
    "longitude": -88.56259
  },
  {
    "city": "Chan Quebrada",
    "city_zh": "Chan Quebrada",
    "country": "Belize",
    "country_zh": "貝里斯",
    "country_iso_code": "BZ",
    "timezone": "America/Belize",
    "latitude": 16.51659,
    "longitude": -88.68503
  },
  {
    "city": "Chan Pond",
    "city_zh": "Chan Pond",
    "country": "Belize",
    "country_zh": "貝里斯",
    "country_iso_code": "BZ",
    "timezone": "America/Belize",
    "latitude": 17.4,
    "longitude": -89.1
  },
  {
    "city": "Chan Pine Ridge",
    "city_zh": "Chan Pine Ridge",
    "country": "Belize",
    "country_zh": "貝里斯",
    "country_iso_code": "BZ",
    "timezone": "America/Belize",
    "latitude": 18.03693,
    "longitude": -88.58251
  },
  {
    "city": "Chan Limón",
    "city_zh": "Chan Limón",
    "country": "Belize",
    "country_zh": "貝里斯",
    "country_iso_code": "BZ",
    "timezone": "America/Belize",
    "latitude": 17.36172,
    "longitude": -89.13846
  },
  {
    "city": "Chan Chen",
    "city_zh": "Chan Chen",
    "country": "Belize",
    "country_zh": "貝里斯",
    "country_iso_code": "BZ",
    "timezone": "America/Belize",
    "latitude": 18.43333,
    "longitude": -88.41667
  },
  {
    "city": "Chan Bank",
    "city_zh": "Chan Bank",
    "country": "Belize",
    "country_zh": "貝里斯",
    "country_iso_code": "BZ",
    "timezone": "America/Belize",
    "latitude": 18.21667,
    "longitude": -88.5
  },
  {
    "city": "Chacan Chac Mol",
    "city_zh": "Chacan Chac Mol",
    "country": "Belize",
    "country_zh": "貝里斯",
    "country_iso_code": "BZ",
    "timezone": "America/Belize",
    "latitude": 18.27377,
    "longitude": -88.25743
  },
  {
    "city": "Cedar Crossing",
    "city_zh": "Cedar Crossing",
    "country": "Belize",
    "country_zh": "貝里斯",
    "country_iso_code": "BZ",
    "timezone": "America/Belize",
    "latitude": 17.69106,
    "longitude": -89.02801
  },
  {
    "city": "Cedar Bank",
    "city_zh": "Cedar Bank",
    "country": "Belize",
    "country_zh": "貝里斯",
    "country_iso_code": "BZ",
    "timezone": "America/Belize",
    "latitude": 17.38576,
    "longitude": -88.43873
  },
  {
    "city": "Cebada Camp",
    "city_zh": "Cebada Camp",
    "country": "Belize",
    "country_zh": "貝里斯",
    "country_iso_code": "BZ",
    "timezone": "America/Belize",
    "latitude": 16.65712,
    "longitude": -89.16424
  },
  {
    "city": "Caye Caulker",
    "city_zh": "Caye Caulker",
    "country": "Belize",
    "country_zh": "貝里斯",
    "country_iso_code": "BZ",
    "timezone": "America/Belize",
    "latitude": 17.73659,
    "longitude": -88.02761
  },
  {
    "city": "Caves Branch",
    "city_zh": "Caves Branch",
    "country": "Belize",
    "country_zh": "貝里斯",
    "country_iso_code": "BZ",
    "timezone": "America/Belize",
    "latitude": 17.14999,
    "longitude": -88.71176
  },
  {
    "city": "Cattle Landing",
    "city_zh": "Cattle Landing",
    "country": "Belize",
    "country_zh": "貝里斯",
    "country_iso_code": "BZ",
    "timezone": "America/Belize",
    "latitude": 16.11947,
    "longitude": -88.79523
  },
  {
    "city": "Castile",
    "city_zh": "Castile",
    "country": "Belize",
    "country_zh": "貝里斯",
    "country_iso_code": "BZ",
    "timezone": "America/Belize",
    "latitude": 17.36463,
    "longitude": -88.66677
  },
  {
    "city": "Cashew Tree",
    "city_zh": "Cashew Tree",
    "country": "Belize",
    "country_zh": "貝里斯",
    "country_iso_code": "BZ",
    "timezone": "America/Belize",
    "latitude": 17.98333,
    "longitude": -88.45
  },
  {
    "city": "Carolina",
    "city_zh": "Carolina",
    "country": "Belize",
    "country_zh": "貝里斯",
    "country_iso_code": "BZ",
    "timezone": "America/Belize",
    "latitude": 18.36553,
    "longitude": -88.42827
  },
  {
    "city": "Carmelita",
    "city_zh": "Carmelita",
    "country": "Belize",
    "country_zh": "貝里斯",
    "country_iso_code": "BZ",
    "timezone": "America/Belize",
    "latitude": 18.01306,
    "longitude": -88.5429
  },
  {
    "city": "Carmelita Gardens",
    "city_zh": "Carmelita Gardens",
    "country": "Belize",
    "country_zh": "貝里斯",
    "country_iso_code": "BZ",
    "timezone": "America/Belize",
    "latitude": 17.18237,
    "longitude": -89.0626
  },
  {
    "city": "Canal Bank",
    "city_zh": "Canal Bank",
    "country": "Belize",
    "country_zh": "貝里斯",
    "country_iso_code": "BZ",
    "timezone": "America/Belize",
    "latitude": 17.68183,
    "longitude": -88.86477
  },
  {
    "city": "Campa Pita",
    "city_zh": "Campa Pita",
    "country": "Belize",
    "country_zh": "貝里斯",
    "country_iso_code": "BZ",
    "timezone": "America/Belize",
    "latitude": 18.07831,
    "longitude": -88.29952
  },
  {
    "city": "Camelote",
    "city_zh": "Camelote",
    "country": "Belize",
    "country_zh": "貝里斯",
    "country_iso_code": "BZ",
    "timezone": "America/Belize",
    "latitude": 17.23882,
    "longitude": -88.82738
  },
  {
    "city": "Callac Creek",
    "city_zh": "Callac Creek",
    "country": "Belize",
    "country_zh": "貝里斯",
    "country_iso_code": "BZ",
    "timezone": "America/Belize",
    "latitude": 17.12749,
    "longitude": -89.1373
  },
  {
    "city": "Calera Camp",
    "city_zh": "Calera Camp",
    "country": "Belize",
    "country_zh": "貝里斯",
    "country_iso_code": "BZ",
    "timezone": "America/Belize",
    "latitude": 16.53183,
    "longitude": -88.78105
  },
  {
    "city": "Caledonia",
    "city_zh": "Caledonia",
    "country": "Belize",
    "country_zh": "貝里斯",
    "country_iso_code": "BZ",
    "timezone": "America/Belize",
    "latitude": 18.22735,
    "longitude": -88.47745
  },
  {
    "city": "Calcutta",
    "city_zh": "Calcutta",
    "country": "Belize",
    "country_zh": "貝里斯",
    "country_iso_code": "BZ",
    "timezone": "America/Belize",
    "latitude": 18.3618,
    "longitude": -88.43878
  },
  {
    "city": "Cadena Creek Camp",
    "city_zh": "Cadena Creek Camp",
    "country": "Belize",
    "country_zh": "貝里斯",
    "country_iso_code": "BZ",
    "timezone": "America/Belize",
    "latitude": 17.28333,
    "longitude": -89.1
  },
  {
    "city": "Cabro",
    "city_zh": "Cabro",
    "country": "Belize",
    "country_zh": "貝里斯",
    "country_iso_code": "BZ",
    "timezone": "America/Belize",
    "latitude": 16.40056,
    "longitude": -89.06749
  },
  {
    "city": "Butcher Burns",
    "city_zh": "Butcher Burns",
    "country": "Belize",
    "country_zh": "貝里斯",
    "country_iso_code": "BZ",
    "timezone": "America/Belize",
    "latitude": 17.41091,
    "longitude": -88.44527
  },
  {
    "city": "Burrell Boom",
    "city_zh": "Burrell Boom",
    "country": "Belize",
    "country_zh": "貝里斯",
    "country_iso_code": "BZ",
    "timezone": "America/Belize",
    "latitude": 17.56933,
    "longitude": -88.40527
  },
  {
    "city": "Burnt Ground",
    "city_zh": "Burnt Ground",
    "country": "Belize",
    "country_zh": "貝里斯",
    "country_iso_code": "BZ",
    "timezone": "America/Belize",
    "latitude": 17.38493,
    "longitude": -89.12107
  },
  {
    "city": "Burnham Hall",
    "city_zh": "Burnham Hall",
    "country": "Belize",
    "country_zh": "貝里斯",
    "country_iso_code": "BZ",
    "timezone": "America/Belize",
    "latitude": 17.7,
    "longitude": -88.66667
  },
  {
    "city": "Burgos",
    "city_zh": "Burgos",
    "country": "Belize",
    "country_zh": "貝里斯",
    "country_iso_code": "BZ",
    "timezone": "America/Belize",
    "latitude": 16.44498,
    "longitude": -89.11029
  },
  {
    "city": "Bullet Tree Falls",
    "city_zh": "Bullet Tree Falls",
    "country": "Belize",
    "country_zh": "貝里斯",
    "country_iso_code": "BZ",
    "timezone": "America/Belize",
    "latitude": 17.168,
    "longitude": -89.111
  },
  {
    "city": "Buena Vista",
    "city_zh": "Buena Vista",
    "country": "Belize",
    "country_zh": "貝里斯",
    "country_iso_code": "BZ",
    "timezone": "America/Belize",
    "latitude": 18.23688,
    "longitude": -88.52662
  },
  {
    "city": "Buena Vista",
    "city_zh": "Buena Vista",
    "country": "Belize",
    "country_zh": "貝里斯",
    "country_iso_code": "BZ",
    "timezone": "America/Belize",
    "latitude": 17.11667,
    "longitude": -89.11667
  },
  {
    "city": "Branch Mouth",
    "city_zh": "Branch Mouth",
    "country": "Belize",
    "country_zh": "貝里斯",
    "country_iso_code": "BZ",
    "timezone": "America/Belize",
    "latitude": 17.17939,
    "longitude": -89.07973
  },
  {
    "city": "Boston",
    "city_zh": "Boston",
    "country": "Belize",
    "country_zh": "貝里斯",
    "country_iso_code": "BZ",
    "timezone": "America/Belize",
    "latitude": 17.68333,
    "longitude": -88.36667
  },
  {
    "city": "Bomba",
    "city_zh": "Bomba",
    "country": "Belize",
    "country_zh": "貝里斯",
    "country_iso_code": "BZ",
    "timezone": "America/Belize",
    "latitude": 17.89166,
    "longitude": -88.27618
  },
  {
    "city": "Bocotora",
    "city_zh": "Bocotora",
    "country": "Belize",
    "country_zh": "貝里斯",
    "country_iso_code": "BZ",
    "timezone": "America/Belize",
    "latitude": 17.25753,
    "longitude": -88.43454
  },
  {
    "city": "Bob Eiley",
    "city_zh": "Bob Eiley",
    "country": "Belize",
    "country_zh": "貝里斯",
    "country_iso_code": "BZ",
    "timezone": "America/Belize",
    "latitude": 17.70408,
    "longitude": -88.48561
  },
  {
    "city": "Blumenfeld",
    "city_zh": "Blumenfeld",
    "country": "Belize",
    "country_zh": "貝里斯",
    "country_iso_code": "BZ",
    "timezone": "America/Belize",
    "latitude": 17.86387,
    "longitude": -88.91769
  },
  {
    "city": "Blue Hole Camp",
    "city_zh": "Blue Hole Camp",
    "country": "Belize",
    "country_zh": "貝里斯",
    "country_iso_code": "BZ",
    "timezone": "America/Belize",
    "latitude": 16.79187,
    "longitude": -88.93859
  },
  {
    "city": "Blue Creek Village",
    "city_zh": "Blue Creek Village",
    "country": "Belize",
    "country_zh": "貝里斯",
    "country_iso_code": "BZ",
    "timezone": "America/Belize",
    "latitude": 17.8932,
    "longitude": -88.88982
  },
  {
    "city": "Blue Creek Village",
    "city_zh": "Blue Creek Village",
    "country": "Belize",
    "country_zh": "貝里斯",
    "country_iso_code": "BZ",
    "timezone": "America/Belize",
    "latitude": 16.19778,
    "longitude": -89.04222
  },
  {
    "city": "Blossom Bank",
    "city_zh": "Blossom Bank",
    "country": "Belize",
    "country_zh": "貝里斯",
    "country_iso_code": "BZ",
    "timezone": "America/Belize",
    "latitude": 18.16246,
    "longitude": -88.4927
  },
  {
    "city": "Blancaneau",
    "city_zh": "Blancaneau",
    "country": "Belize",
    "country_zh": "貝里斯",
    "country_iso_code": "BZ",
    "timezone": "America/Belize",
    "latitude": 17.04637,
    "longitude": -88.96423
  },
  {
    "city": "Black Rock",
    "city_zh": "Black Rock",
    "country": "Belize",
    "country_zh": "貝里斯",
    "country_iso_code": "BZ",
    "timezone": "America/Belize",
    "latitude": 17.04889,
    "longitude": -89.05917
  },
  {
    "city": "Black Man Eddy",
    "city_zh": "Black Man Eddy",
    "country": "Belize",
    "country_zh": "貝里斯",
    "country_iso_code": "BZ",
    "timezone": "America/Belize",
    "latitude": 17.22743,
    "longitude": -88.91592
  },
  {
    "city": "Biscayne",
    "city_zh": "Biscayne",
    "country": "Belize",
    "country_zh": "貝里斯",
    "country_iso_code": "BZ",
    "timezone": "America/Belize",
    "latitude": 17.71702,
    "longitude": -88.45723
  },
  {
    "city": "Big Falls",
    "city_zh": "Big Falls",
    "country": "Belize",
    "country_zh": "貝里斯",
    "country_iso_code": "BZ",
    "timezone": "America/Belize",
    "latitude": 17.49467,
    "longitude": -88.58457
  },
  {
    "city": "Big Fall",
    "city_zh": "Big Fall",
    "country": "Belize",
    "country_zh": "貝里斯",
    "country_iso_code": "BZ",
    "timezone": "America/Belize",
    "latitude": 16.25692,
    "longitude": -88.89097
  },
  {
    "city": "Big Eddy",
    "city_zh": "Big Eddy",
    "country": "Belize",
    "country_zh": "貝里斯",
    "country_iso_code": "BZ",
    "timezone": "America/Belize",
    "latitude": 17.09166,
    "longitude": -89.06843
  },
  {
    "city": "Big Creek",
    "city_zh": "Big Creek",
    "country": "Belize",
    "country_zh": "貝里斯",
    "country_iso_code": "BZ",
    "timezone": "America/Belize",
    "latitude": 16.51765,
    "longitude": -88.40582
  },
  {
    "city": "Bermudian Landing",
    "city_zh": "Bermudian Landing",
    "country": "Belize",
    "country_zh": "貝里斯",
    "country_iso_code": "BZ",
    "timezone": "America/Belize",
    "latitude": 17.5573,
    "longitude": -88.53573
  },
  {
    "city": "Benque Viejo el Carmen",
    "city_zh": "Benque Viejo el Carmen",
    "country": "Belize",
    "country_zh": "貝里斯",
    "country_iso_code": "BZ",
    "timezone": "America/Belize",
    "latitude": 17.075,
    "longitude": -89.13917
  },
  {
    "city": "Benque Viejo",
    "city_zh": "Benque Viejo",
    "country": "Belize",
    "country_zh": "貝里斯",
    "country_iso_code": "BZ",
    "timezone": "America/Belize",
    "latitude": 18.2766,
    "longitude": -88.45585
  },
  {
    "city": "Benque Ceiba",
    "city_zh": "Benque Ceiba",
    "country": "Belize",
    "country_zh": "貝里斯",
    "country_iso_code": "BZ",
    "timezone": "America/Belize",
    "latitude": 17.18536,
    "longitude": -89.03355
  },
  {
    "city": "Belmopan",
    "city_zh": "貝爾墨邦",
    "country": "Belize",
    "country_zh": "貝里斯",
    "country_iso_code": "BZ",
    "timezone": "America/Belize",
    "latitude": 17.25376,
    "longitude": -88.76401
  },
  {
    "city": "Belize City",
    "city_zh": "伯利兹市",
    "country": "Belize",
    "country_zh": "貝里斯",
    "country_iso_code": "BZ",
    "timezone": "America/Belize",
    "latitude": 17.49952,
    "longitude": -88.19756
  },
  {
    "city": "Beattie Pen",
    "city_zh": "Beattie Pen",
    "country": "Belize",
    "country_zh": "貝里斯",
    "country_iso_code": "BZ",
    "timezone": "America/Belize",
    "latitude": 16.40855,
    "longitude": -88.71344
  },
  {
    "city": "Barton Ramie",
    "city_zh": "Barton Ramie",
    "country": "Belize",
    "country_zh": "貝里斯",
    "country_iso_code": "BZ",
    "timezone": "America/Belize",
    "latitude": 17.20977,
    "longitude": -88.97385
  },
  {
    "city": "Barranco",
    "city_zh": "Barranco",
    "country": "Belize",
    "country_zh": "貝里斯",
    "country_iso_code": "BZ",
    "timezone": "America/Belize",
    "latitude": 16.0,
    "longitude": -88.91667
  },
  {
    "city": "Barquedier Sierra",
    "city_zh": "Barquedier Sierra",
    "country": "Belize",
    "country_zh": "貝里斯",
    "country_iso_code": "BZ",
    "timezone": "America/Belize",
    "latitude": 18.17672,
    "longitude": -88.47975
  },
  {
    "city": "Banana Bank",
    "city_zh": "Banana Bank",
    "country": "Belize",
    "country_zh": "貝里斯",
    "country_iso_code": "BZ",
    "timezone": "America/Belize",
    "latitude": 17.31872,
    "longitude": -88.78141
  },
  {
    "city": "Baldy Sibun",
    "city_zh": "Baldy Sibun",
    "country": "Belize",
    "country_zh": "貝里斯",
    "country_iso_code": "BZ",
    "timezone": "America/Belize",
    "latitude": 16.99362,
    "longitude": -88.7408
  },
  {
    "city": "Baldy Beacon",
    "city_zh": "Baldy Beacon",
    "country": "Belize",
    "country_zh": "貝里斯",
    "country_iso_code": "BZ",
    "timezone": "America/Belize",
    "latitude": 17.00347,
    "longitude": -88.79174
  },
  {
    "city": "Baking Pot",
    "city_zh": "Baking Pot",
    "country": "Belize",
    "country_zh": "貝里斯",
    "country_iso_code": "BZ",
    "timezone": "America/Belize",
    "latitude": 17.20077,
    "longitude": -89.01297
  },
  {
    "city": "Bakers",
    "city_zh": "Bakers",
    "country": "Belize",
    "country_zh": "貝里斯",
    "country_iso_code": "BZ",
    "timezone": "America/Belize",
    "latitude": 17.55,
    "longitude": -88.38333
  },
  {
    "city": "Backlanding",
    "city_zh": "Backlanding",
    "country": "Belize",
    "country_zh": "貝里斯",
    "country_iso_code": "BZ",
    "timezone": "America/Belize",
    "latitude": 17.83844,
    "longitude": -88.60798
  },
  {
    "city": "Bacalar Chico",
    "city_zh": "Bacalar Chico",
    "country": "Belize",
    "country_zh": "貝里斯",
    "country_iso_code": "BZ",
    "timezone": "America/Belize",
    "latitude": 18.18657,
    "longitude": -87.86037
  },
  {
    "city": "Aventura",
    "city_zh": "Aventura",
    "country": "Belize",
    "country_zh": "貝里斯",
    "country_iso_code": "BZ",
    "timezone": "America/Belize",
    "latitude": 18.33012,
    "longitude": -88.44885
  },
  {
    "city": "August Pine Ridge",
    "city_zh": "August Pine Ridge",
    "country": "Belize",
    "country_zh": "貝里斯",
    "country_iso_code": "BZ",
    "timezone": "America/Belize",
    "latitude": 17.9725,
    "longitude": -88.72489
  },
  {
    "city": "Augustine",
    "city_zh": "Augustine",
    "country": "Belize",
    "country_zh": "貝里斯",
    "country_iso_code": "BZ",
    "timezone": "America/Belize",
    "latitude": 16.96712,
    "longitude": -88.99718
  },
  {
    "city": "El Arenal",
    "city_zh": "El Arenal",
    "country": "Belize",
    "country_zh": "貝里斯",
    "country_iso_code": "BZ",
    "timezone": "America/Belize",
    "latitude": 17.02351,
    "longitude": -89.15252
  },
  {
    "city": "Arabato Camp",
    "city_zh": "Arabato Camp",
    "country": "Belize",
    "country_zh": "貝里斯",
    "country_iso_code": "BZ",
    "timezone": "America/Belize",
    "latitude": 16.61709,
    "longitude": -89.05691
  },
  {
    "city": "Andersons Camp",
    "city_zh": "Andersons Camp",
    "country": "Belize",
    "country_zh": "貝里斯",
    "country_iso_code": "BZ",
    "timezone": "America/Belize",
    "latitude": 17.71667,
    "longitude": -89.01667
  },
  {
    "city": "America",
    "city_zh": "America",
    "country": "Belize",
    "country_zh": "貝里斯",
    "country_iso_code": "BZ",
    "timezone": "America/Belize",
    "latitude": 18.34346,
    "longitude": -88.44229
  },
  {
    "city": "Alta Vista",
    "city_zh": "Alta Vista",
    "country": "Belize",
    "country_zh": "貝里斯",
    "country_iso_code": "BZ",
    "timezone": "America/Belize",
    "latitude": 16.9937,
    "longitude": -88.40523
  },
  {
    "city": "Alabama Wharf",
    "city_zh": "Alabama Wharf",
    "country": "Belize",
    "country_zh": "貝里斯",
    "country_iso_code": "BZ",
    "timezone": "America/Belize",
    "latitude": 16.53333,
    "longitude": -88.4
  },
  {
    "city": "Alabama",
    "city_zh": "Alabama",
    "country": "Belize",
    "country_zh": "貝里斯",
    "country_iso_code": "BZ",
    "timezone": "America/Belize",
    "latitude": 16.67024,
    "longitude": -88.5204
  },
  {
    "city": "Aguacate Camp",
    "city_zh": "Aguacate Camp",
    "country": "Belize",
    "country_zh": "貝里斯",
    "country_iso_code": "BZ",
    "timezone": "America/Belize",
    "latitude": 16.70714,
    "longitude": -89.05016
  },
  {
    "city": "Aguacate",
    "city_zh": "Aguacate",
    "country": "Belize",
    "country_zh": "貝里斯",
    "country_iso_code": "BZ",
    "timezone": "America/Belize",
    "latitude": 16.16222,
    "longitude": -89.09389
  },
  {
    "city": "Buena Vista",
    "city_zh": "Buena Vista",
    "country": "Belize",
    "country_zh": "貝里斯",
    "country_iso_code": "BZ",
    "timezone": "America/Belize",
    "latitude": 17.13136,
    "longitude": -89.12817
  },
  {
    "city": "Catarata La Clarisa",
    "city_zh": "Catarata La Clarisa",
    "country": "Belize",
    "country_zh": "貝里斯",
    "country_iso_code": "BZ",
    "timezone": "America/Guatemala",
    "latitude": 17.11,
    "longitude": -89.12639
  },
  {
    "city": "Macaw Bank",
    "city_zh": "Macaw Bank",
    "country": "Belize",
    "country_zh": "貝里斯",
    "country_iso_code": "BZ",
    "timezone": "America/Belize",
    "latitude": 17.08356,
    "longitude": -89.06357
  },
  {
    "city": "Valley of Peace",
    "city_zh": "Valley of Peace",
    "country": "Belize",
    "country_zh": "貝里斯",
    "country_iso_code": "BZ",
    "timezone": "America/Belize",
    "latitude": 17.33472,
    "longitude": -88.83472
  },
  {
    "city": "Stann Creek District",
    "city_zh": "Stann Creek District",
    "country": "Belize",
    "country_zh": "貝里斯",
    "country_iso_code": "BZ",
    "timezone": "America/Belize",
    "latitude": 16.83333,
    "longitude": -88.5
  },
  {
    "city": "Corozal District",
    "city_zh": "Corozal District",
    "country": "Belize",
    "country_zh": "貝里斯",
    "country_iso_code": "BZ",
    "timezone": "America/Belize",
    "latitude": 18.2499,
    "longitude": -88.333
  },
  {
    "city": "Santa Elena",
    "city_zh": "Santa Elena",
    "country": "Belize",
    "country_zh": "貝里斯",
    "country_iso_code": "BZ",
    "timezone": "America/Belize",
    "latitude": 18.48514,
    "longitude": -88.39389
  },
  {
    "city": "Glover's Reef Atoll",
    "city_zh": "Glover's Reef Atoll",
    "country": "Belize",
    "country_zh": "貝里斯",
    "country_iso_code": "BZ",
    "timezone": "America/Belize",
    "latitude": 16.79682,
    "longitude": -87.8054
  },