[
  {
    "city": "Meedhoo",
    "city_zh": "Meedhoo",
    "country": "Maldives",
    "country_zh": "馬爾地夫",
    "country_iso_code": "MV",
    "timezone": "Indian/Maldives",
    "latitude": -0.58333,
    "longitude": 73.23333
  },
  {
    "city": "Male",
    "city_zh": "馬累",
    "country": "Maldives",
    "country_zh": "馬爾地夫",
    "country_iso_code": "MV",
    "timezone": "Indian/Maldives",
    "latitude": 4.17521,
    "longitude": 73.50916
  },
  {
    "city": "Hithadhoo",
    "city_zh": "Hithadhoo",
    "country": "Maldives",
    "country_zh": "馬爾地夫",
    "country_iso_code": "MV",
    "timezone": "Indian/Maldives",
    "latitude": -0.6,
    "longitude": 73.08333
  },
  {
    "city": "Hanimaadhoo",
    "city_zh": "Hanimaadhoo",
    "country": "Maldives",
    "country_zh": "馬爾地夫",
    "country_iso_code": "MV",
    "timezone": "Indian/Maldives",
    "latitude": 6.76485,
    "longitude": 73.17564
  },
  {
    "city": "Gan",
    "city_zh": "Gan",
    "country": "Maldives",
    "country_zh": "馬爾地夫",
    "country_iso_code": "MV",
    "timezone": "Indian/Maldives",
    "latitude": -0.7,
    "longitude": 73.15
  },
  {
    "city": "Mahibadhoo",
    "city_zh": "Mahibadhoo",
    "country": "Maldives",
    "country_zh": "馬爾地夫",
    "country_iso_code": "MV",
    "timezone": "Indian/Maldives",
    "latitude": 3.75713,
    "longitude": 72.96893
  },
  {
    "city": "Eydhafushi",
    "city_zh": "Eydhafushi",
    "country": "Maldives",
    "country_zh": "馬爾地夫",
    "country_iso_code": "MV",
    "timezone": "Indian/Maldives",
    "latitude": 5.10327,
    "longitude": 73.07078
  },
  {
    "city": "Kudahuvadhoo",
    "city_zh": "Kudahuvadhoo",
    "country": "Maldives",
    "country_zh": "馬爾地夫",
    "country_iso_code": "MV",
    "timezone": "Indian/Maldives",
    "latitude": 2.67075,
    "longitude": 72.89437
  },
  {
    "city": "Magoodhoo",
    "city_zh": "Magoodhoo",
    "country": "Maldives",
    "country_zh": "馬爾地夫",
    "country_iso_code": "MV",
    "timezone": "Indian/Maldives",
    "latitude": 3.07922,
    "longitude": 72.96488
  },
  {
    "city": "Viligili",
    "city_zh": "Viligili",
    "country": "Maldives",
    "country_zh": "馬爾地夫",
    "country_iso_code": "MV",
    "timezone": "Indian/Maldives",
    "latitude": 0.75906,
    "longitude": 73.43296
  },
  {
    "city": "Thinadhoo",
    "city_zh": "Thinadhoo",
    "country": "Maldives",
    "country_zh": "馬爾地夫",
    "country_iso_code": "MV",
    "timezone": "Indian/Maldives",
    "latitude": 0.5306,
    "longitude": 72.99969
  },
  {
    "city": "Fuvahmulah",
    "city_zh": "Fuvahmulah",
    "country": "Maldives",
    "country_zh": "馬爾地夫",
    "country_iso_code": "MV",
    "timezone": "Indian/Maldives",
    "latitude": -0.29878,
    "longitude": 73.42403
  },
  {
    "city": "Dhihdhoo",
    "city_zh": "Dhihdhoo",
    "country": "Maldives",
    "country_zh": "馬爾地夫",
    "country_iso_code": "MV",
    "timezone": "Indian/Maldives",
    "latitude": 6.88744,
    "longitude": 73.11402
  },
  {
    "city": "Kulhudhuffushi",
    "city_zh": "Kulhudhuffushi",
    "country": "Maldives",
    "country_zh": "馬爾地夫",
    "country_iso_code": "MV",
    "timezone": "Indian/Maldives",
    "latitude": 6.62207,
    "longitude": 73.06998
  },
  {
    "city": "Nolhivaranfaru",
    "city_zh": "Nolhivaranfaru",
    "country": "Maldives",
    "country_zh": "馬爾地夫",
    "country_iso_code": "MV",
    "timezone": "Indian/Maldives",
    "latitude": 6.70178,
    "longitude": 73.11848
  },
  {
    "city": "Hithadhoo",
    "city_zh": "Hithadhoo",
    "country": "Maldives",
    "country_zh": "馬爾地夫",
    "country_iso_code": "MV",
    "timezone": "Indian/Maldives",
    "latitude": 1.79666,
    "longitude": 73.38824
  },
  {
    "city": "Naifaru",
    "city_zh": "Naifaru",
    "country": "Maldives",
    "country_zh": "馬爾地夫",
    "country_iso_code": "MV",
    "timezone": "Indian/Maldives",
    "latitude": 5.44438,
    "longitude": 73.36571
  },
  {
    "city": "Muli",
    "city_zh": "Muli",
    "country": "Maldives",
    "country_zh": "馬爾地夫",
    "country_iso_code": "MV",
    "timezone": "Indian/Maldives",
    "latitude": 2.92167,
    "longitude": 73.58111
  },
  {
    "city": "Manadhoo",
    "city_zh": "Manadhoo",
    "country": "Maldives",
    "country_zh": "馬爾地夫",
    "country_iso_code": "MV",
    "timezone": "Indian/Maldives",
    "latitude": 5.76687,
    "longitude": 73.4136
  },
  {
    "city": "Un’goofaaru",
    "city_zh": "Un’goofaaru",
    "country": "Maldives",
    "country_zh": "馬爾地夫",
    "country_iso_code": "MV",
    "timezone": "Indian/Maldives",
    "latitude": 5.66812,
    "longitude": 73.03017
  },
  {
    "city": "Funadhoo",
    "city_zh": "Funadhoo",
    "country": "Maldives",
    "country_zh": "馬爾地夫",
    "country_iso_code": "MV",
    "timezone": "Indian/Maldives",
    "latitude": 6.15091,
    "longitude": 73.29013
  },
  {
    "city": "Veymandoo",
    "city_zh": "Veymandoo",
    "country": "Maldives",
    "country_zh": "馬爾地夫",
    "country_iso_code": "MV",
    "timezone": "Indian/Maldives",
    "latitude": 2.18772,
    "longitude": 73.09556
  },
  {
    "city": "Felidhoo",
    "city_zh": "Felidhoo",
    "country": "Maldives",
    "country_zh": "馬爾地夫",
    "country_iso_code": "MV",
    "timezone": "Indian/Maldives",
    "latitude": 3.47182,
    "longitude": 73.54699
  },
  {
    "city": "Nolhivaram",
    "city_zh": "Nolhivaram",
    "country": "Maldives",
    "country_zh": "馬爾地夫",
    "country_iso_code": "MV",
    "timezone": "Indian/Maldives",
    "latitude": 6.6658,
    "longitude": 73.08208
  },
  {
    "city": "Nalaguraidhu",
    "city_zh": "Nalaguraidhu",
    "country": "Maldives",
    "country_zh": "馬爾地夫",
    "country_iso_code": "MV",
    "timezone": "Indian/Maldives",
    "latitude": 3.48412,
    "longitude": 72.79635
  },
  {
    "city": "Vilamendhoo",
    "city_zh": "Vilamendhoo",
    "country": "Maldives",
    "country_zh": "馬爾地夫",
    "country_iso_code": "MV",
    "timezone": "Indian/Maldives",
    "latitude": 3.84963,
    "longitude": 72.95404
  },
  {
    "city": "Filitheyo Island",
    "city_zh": "Filitheyo Island",
    "country": "Maldives",
    "country_zh": "馬爾地夫",
    "country_iso_code": "MV",
    "timezone": "Indian/Maldives",
    "latitude": 3.21375,
    "longitude": 73.03662
  },
  {
    "city": "Hakuraa Huraa",
    "city_zh": "Hakuraa Huraa",
    "country": "Maldives",
    "country_zh": "馬爾地夫",
    "country_iso_code": "MV",
    "timezone": "Indian/Maldives",
    "latitude": 2.85383,
    "longitude": 73.53889
  },
  {
    "city": "Medhufushi",
    "city_zh": "Medhufushi",
    "country": "Maldives",
    "country_zh": "馬爾地夫",
    "country_iso_code": "MV",
    "timezone": "Indian/Maldives",
    "latitude": 2.88434,
    "longitude": 73.57532
  },
  {
    "city": "Bodubados",
    "city_zh": "Bodubados",
    "country": "Maldives",
    "country_zh": "馬爾地夫",
    "country_iso_code": "MV",
    "timezone": "Indian/Maldives",
    "latitude": 4.26972,
    "longitude": 73.49184
  },
  {
    "city": "Eriyadu",
    "city_zh": "Eriyadu",
    "country": "Maldives",
    "country_zh": "馬爾地夫",
    "country_iso_code": "MV",
    "timezone": "Indian/Maldives",
    "latitude": 4.59029,
    "longitude": 73.41425
  },
  {
    "city": "Furanafushi",
    "city_zh": "Furanafushi",
    "country": "Maldives",
    "country_zh": "馬爾地夫",
    "country_iso_code": "MV",
    "timezone": "Indian/Maldives",
    "latitude": 4.24952,
    "longitude": 73.54729
  },
  {
    "city": "Kanu Huraa",
    "city_zh": "Kanu Huraa",
    "country": "Maldives",
    "country_zh": "馬爾地夫",
    "country_iso_code": "MV",
    "timezone": "Indian/Maldives",
    "latitude": 4.3183,
    "longitude": 73.59175
  },
  {
    "city": "Lankan Finolhu",
    "city_zh": "Lankan Finolhu",
    "country": "Maldives",
    "country_zh": "馬爾地夫",
    "country_iso_code": "MV",
    "timezone": "Indian/Maldives",
    "latitude": 4.28526,
    "longitude": 73.55398
  },
  {
    "city": "Meerufenfushi",
    "city_zh": "Meerufenfushi",
    "country": "Maldives",
    "country_zh": "馬爾地夫",
    "country_iso_code": "MV",
    "timezone": "Indian/Maldives",
    "latitude": 4.45355,
    "longitude": 73.71689
  },
  {
    "city": "Thulhaagiri",
    "city_zh": "Thulhaagiri",
    "country": "Maldives",
    "country_zh": "馬爾地夫",
    "country_iso_code": "MV",
    "timezone": "Indian/Maldives",
    "latitude": 4.31154,
    "longitude": 73.48759
  },
  {
    "city": "Vihamanaafushi",
    "city_zh": "Vihamanaafushi",
    "country": "Maldives",
    "country_zh": "馬爾地夫",
    "country_iso_code": "MV",
    "timezone": "Indian/Maldives",
    "latitude": 4.22643,
    "longitude": 73.51986
  },
  {
    "city": "Ziyaaraiyfushi",
    "city_zh": "Ziyaaraiyfushi",
    "country": "Maldives",
    "country_zh": "馬爾地夫",
    "country_iso_code": "MV",
    "timezone": "Indian/Maldives",
    "latitude": 4.53352,
    "longitude": 73.37249
  },
  {
    "city": "Kuramathi",
    "city_zh": "Kuramathi",
    "country": "Maldives",
    "country_zh": "馬爾地夫",
    "country_iso_code": "MV",
    "timezone": "Indian/Maldives",
    "latitude": 4.25885,
    "longitude": 72.98286
  },
  {
    "city": "Eboodhoo",
    "city_zh": "Eboodhoo",
    "country": "Maldives",
    "country_zh": "馬爾地夫",
    "country_iso_code": "MV",
    "timezone": "Indian/Maldives",
    "latitude": 4.08337,
    "longitude": 73.51235
  },
  {
    "city": "Eboodhoofinolhu",
    "city_zh": "Eboodhoofinolhu",
    "country": "Maldives",
    "country_zh": "馬爾地夫",
    "country_iso_code": "MV",
    "timezone": "Indian/Maldives",
    "latitude": 4.10336,
    "longitude": 73.52523
  },
  {
    "city": "Hulhumale",
    "city_zh": "Hulhumale",
    "country": "Maldives",
    "country_zh": "馬爾地夫",
    "country_iso_code": "MV",
    "timezone": "Indian/Maldives",
    "latitude": 4.21169,
    "longitude": 73.54008
  },
  {
    "city": "Thamburudhoo",
    "city_zh": "Thamburudhoo",
    "country": "Maldives",
    "country_zh": "馬爾地夫",
    "country_iso_code": "MV",
    "timezone": "Indian/Maldives",
    "latitude": 4.41667,
    "longitude": 73.5
  },
  {
    "city": "Gan",
    "city_zh": "Gan",
    "country": "Maldives",
    "country_zh": "馬爾地夫",
    "country_iso_code": "MV",
    "timezone": "Indian/Maldives",
    "latitude": 1.92322,
    "longitude": 73.54468
  },
  {
    "city": "Kalhaidhoo",
    "city_zh": "Kalhaidhoo",
    "country": "Maldives",
    "country_zh": "馬爾地夫",
    "country_iso_code": "MV",
    "timezone": "Indian/Maldives",
    "latitude": 1.98731,
    "longitude": 73.53694
  },
  {
    "city": "Fonadhoo",
    "city_zh": "Fonadhoo",
    "country": "Maldives",
    "country_zh": "馬爾地夫",
    "country_iso_code": "MV",
    "timezone": "Indian/Maldives",
    "latitude": 1.83243,
    "longitude": 73.50257
  },
  {
    "city": "Gaadhoo",
    "city_zh": "Gaadhoo",
    "country": "Maldives",
    "country_zh": "馬爾地夫",
    "country_iso_code": "MV",
    "timezone": "Indian/Maldives",
    "latitude": 1.81879,
    "longitude": 73.44965
  },
  {
    "city": "Maamendhoo",
    "city_zh": "Maamendhoo",
    "country": "Maldives",
    "country_zh": "馬爾地夫",
    "country_iso_code": "MV",
    "timezone": "Indian/Maldives",
    "latitude": 1.81682,
    "longitude": 73.38919
  },
  {
    "city": "Kunahandhoo",
    "city_zh": "Kunahandhoo",
    "country": "Maldives",
    "country_zh": "馬爾地夫",
    "country_iso_code": "MV",
    "timezone": "Indian/Maldives",
    "latitude": 1.78276,
    "longitude": 73.36739
  },
  {
    "city": "Maavah",
    "city_zh": "Maavah",
    "country": "Maldives",
    "country_zh": "馬爾地夫",
    "country_iso_code": "MV",
    "timezone": "Indian/Maldives",
    "latitude": 1.8854,
    "longitude": 73.24396
  },
  {
    "city": "Isdhoo",
    "city_zh": "Isdhoo",
    "country": "Maldives",
    "country_zh": "馬爾地夫",
    "country_iso_code": "MV",
    "timezone": "Indian/Maldives",
    "latitude": 2.11422,
    "longitude": 73.56136
  },
  {
    "city": "Dhanbidhoo",
    "city_zh": "Dhanbidhoo",
    "country": "Maldives",
    "country_zh": "馬爾地夫",
    "country_iso_code": "MV",
    "timezone": "Indian/Maldives",
    "latitude": 2.09586,
    "longitude": 73.54609
  },
  {
    "city": "Mundoo",
    "city_zh": "Mundoo",
    "country": "Maldives",
    "country_zh": "馬爾地夫",
    "country_iso_code": "MV",
    "timezone": "Indian/Maldives",
    "latitude": 2.0142,
    "longitude": 73.53441
  },
  {
    "city": "Maabaidhoo",
    "city_zh": "Maabaidhoo",
    "country": "Maldives",
    "country_zh": "馬爾地夫",
    "country_iso_code": "MV",
    "timezone": "Indian/Maldives",
    "latitude": 2.02913,
    "longitude": 73.53261
  },
  {
    "city": "Hulhudhoo",
    "city_zh": "Hulhudhoo",
    "country": "Maldives",
    "country_zh": "馬爾地夫",
    "country_iso_code": "MV",
    "timezone": "Indian/Maldives",
    "latitude": -0.59278,
    "longitude": 73.22787
  },
  {
    "city": "Thulhaadhoo",
    "city_zh": "Thulhaadhoo",
    "country": "Maldives",
    "country_zh": "馬爾地夫",
    "country_iso_code": "MV",
    "timezone": "Indian/Maldives",
    "latitude": 5.02238,
    "longitude": 72.83978
  },
  {
    "city": "Hithaadhoo",
    "city_zh": "Hithaadhoo",
    "country": "Maldives",
    "country_zh": "馬爾地夫",
    "country_iso_code": "MV",
    "timezone": "Indian/Maldives",
    "latitude": 5.00604,
    "longitude": 72.92304
  },
  {
    "city": "Maalhos",
    "city_zh": "Maalhos",
    "country": "Maldives",
    "country_zh": "馬爾地夫",
    "country_iso_code": "MV",
    "timezone": "Indian/Maldives",
    "latitude": 5.13437,
    "longitude": 73.10818
  },
  {
    "city": "Dharavandhoo",
    "city_zh": "Dharavandhoo",
    "country": "Maldives",
    "country_zh": "馬爾地夫",
    "country_iso_code": "MV",
    "timezone": "Indian/Maldives",
    "latitude": 5.15825,
    "longitude": 73.13256
  },
  {
    "city": "Dhonfanu",
    "city_zh": "Dhonfanu",
    "country": "Maldives",
    "country_zh": "馬爾地夫",
    "country_iso_code": "MV",
    "timezone": "Indian/Maldives",
    "latitude": 5.18788,
    "longitude": 73.1232
  },
  {
    "city": "Kihaadhoo",
    "city_zh": "Kihaadhoo",
    "country": "Maldives",
    "country_zh": "馬爾地夫",
    "country_iso_code": "MV",
    "timezone": "Indian/Maldives",
    "latitude": 5.21498,
    "longitude": 73.12517
  },
  {
    "city": "Kamadhoo",
    "city_zh": "Kamadhoo",
    "country": "Maldives",
    "country_zh": "馬爾地夫",
    "country_iso_code": "MV",
    "timezone": "Indian/Maldives",
    "latitude": 5.28105,
    "longitude": 73.1371
  },
  {
    "city": "Kudarikilu",
    "city_zh": "Kudarikilu",
    "country": "Maldives",
    "country_zh": "馬爾地夫",
    "country_iso_code": "MV",
    "timezone": "Indian/Maldives",
    "latitude": 5.29985,
    "longitude": 73.07118
  },
  {
    "city": "Kendhoo",
    "city_zh": "Kendhoo",
    "country": "Maldives",
    "country_zh": "馬爾地夫",
    "country_iso_code": "MV",
    "timezone": "Indian/Maldives",
    "latitude": 5.27464,
    "longitude": 73.01067
  },
  {
    "city": "Buruni",
    "city_zh": "Buruni",
    "country": "Maldives",
    "country_zh": "馬爾地夫",
    "country_iso_code": "MV",
    "timezone": "Indian/Maldives",
    "latitude": 2.55905,
    "longitude": 73.10749
  },
  {
    "city": "Vilufushi",
    "city_zh": "Vilufushi",
    "country": "Maldives",
    "country_zh": "馬爾地夫",
    "country_iso_code": "MV",
    "timezone": "Indian/Maldives",
    "latitude": 2.50306,
    "longitude": 73.30859
  },
  {
    "city": "Madifushi",
    "city_zh": "Madifushi",
    "country": "Maldives",
    "country_zh": "馬爾地夫",
    "country_iso_code": "MV",
    "timezone": "Indian/Maldives",
    "latitude": 2.35582,
    "longitude": 73.35473
  },
  {
    "city": "Diyamigili",
    "city_zh": "Diyamigili",
    "country": "Maldives",
    "country_zh": "馬爾地夫",
    "country_iso_code": "MV",
    "timezone": "Indian/Maldives",
    "latitude": 2.34047,
    "longitude": 73.3388
  },
  {
    "city": "Guraidhoo",
    "city_zh": "Guraidhoo",
    "country": "Maldives",
    "country_zh": "馬爾地夫",
    "country_iso_code": "MV",
    "timezone": "Indian/Maldives",
    "latitude": 2.32473,
    "longitude": 73.31846
  },
  {
    "city": "Vabbinfaru Island",
    "city_zh": "Vabbinfaru Island",
    "country": "Maldives",
    "country_zh": "馬爾地夫",
    "country_iso_code": "MV",
    "timezone": "Indian/Maldives",
    "latitude": 4.30979,
    "longitude": 73.42385
  },
  {
    "city": "Dhunikolhu Island",
    "city_zh": "Dhunikolhu Island",
    "country": "Maldives",
    "country_zh": "馬爾地夫",
    "country_iso_code": "MV",
    "timezone": "Indian/Maldives",
    "latitude": 5.0398,
    "longitude": 72.88143
  },
  {
    "city": "Nord Malé Atoll",
    "city_zh": "Nord Malé Atoll",
    "country": "Maldives",
    "country_zh": "馬爾地夫",
    "country_iso_code": "MV",
    "timezone": "Indian/Maldives",
    "latitude": 4.41667,
    "longitude": 73.50013
  },
  {
    "city": "Kunfunadhoo Island",
    "city_zh": "Kunfunadhoo Island",
    "country": "Maldives",
    "country_zh": "馬爾地夫",
    "country_iso_code": "MV",
    "timezone": "Indian/Maldives",
    "latitude": 5.11289,
    "longitude": 73.07715
  },
  {
    "city": "Ari Atoll",
    "city_zh": "Ari Atoll",
    "country": "Maldives",
    "country_zh": "馬爾地夫",
    "country_iso_code": "MV",
    "timezone": "Indian/Maldives",
    "latitude": 3.88244,
    "longitude": 72.83189
  },
  {
    "city": "South Malé Atoll",
    "city_zh": "South Malé Atoll",
    "country": "Maldives",
    "country_zh": "馬爾地夫",
    "country_iso_code": "MV",
    "timezone": "Indian/Maldives",
    "latitude": 4.0,
    "longitude": 73.41667
  },
  {
    "city": "Open Stage",
    "city_zh": "Open Stage",
    "country": "Maldives",
    "country_zh": "馬爾地夫",
    "country_iso_code": "MV",
    "timezone": "Indian/Maldives",
    "latitude": 5.1053,
    "longitude": 73.07115
  },
  {
    "city": "Kooddoo Atoll",
    "city_zh": "Kooddoo Atoll",
    "country": "Maldives",
    "country_zh": "馬爾地夫",
    "country_iso_code": "MV",
    "timezone": "Indian/Maldives",
    "latitude": 0.73769,
    "longitude": 73.43162
  },
  {
    "city": "Tinadu",
    "city_zh": "Tinadu",
    "country": "Maldives",
    "country_zh": "馬爾地夫",
    "country_iso_code": "MV",
    "timezone": "Indian/Maldives",
    "latitude": 3.48861,
    "longitude": 73.53944
  },
  {
    "city": "Hulumido",
    "city_zh": "Hulumido",
    "country": "Maldives",
    "country_zh": "馬爾地夫",
    "country_iso_code": "MV",
    "timezone": "Indian/Maldives",
    "latitude": -0.59474,
    "longitude": 73.2274
  },
  {
    "city": "Ukulhas",
    "city_zh": "Ukulhas",
    "country": "Maldives",
    "country_zh": "馬爾地夫",
    "country_iso_code": "MV",
    "timezone": "Indian/Maldives",
    "latitude": 4.21507,
    "longitude": 72.86455
  },
  {
    "city": "Dhangethi",
    "city_zh": "Dhangethi",
    "country": "Maldives",
    "country_zh": "馬爾地夫",
    "country_iso_code": "MV",
    "timezone": "Indian/Maldives",
    "latitude": 3.60765,
    "longitude": 72.9554
  },
  {
    "city": "Rasdhoo",
    "city_zh": "Rasdhoo",
    "country": "Maldives",
    "country_zh": "馬爾地夫",
    "country_iso_code": "MV",
    "timezone": "Indian/Maldives",
    "latitude": 4.26249,
    "longitude": 72.99209
  },
  {
    "city": "Goidhoo",
    "city_zh": "Goidhoo",
    "country": "Maldives",
    "country_zh": "馬爾地夫",
    "country_iso_code": "MV",
    "timezone": "Indian/Maldives",
    "latitude": 4.87307,
    "longitude": 72.99746
  },
  {
    "city": "Himmafushi",
    "city_zh": "Himmafushi",
    "country": "Maldives",
    "country_zh": "馬爾地夫",
    "country_iso_code": "MV",
    "timezone": "Indian/Maldives",
    "latitude": 4.30967,
    "longitude": 73.57079
  },
  {
    "city": "Thoddoo",
    "city_zh": "Thoddoo",
    "country": "Maldives",
    "country_zh": "馬爾地夫",
    "country_iso_code": "MV",
    "timezone": "Indian/Maldives",
    "latitude": 4.43811,
    "longitude": 72.95969
  },
  {
    "city": "Nilandhoo",
    "city_zh": "Nilandhoo",
    "country": "Maldives",
    "country_zh": "馬爾地夫",
    "country_iso_code": "MV",
    "timezone": "Indian/Maldives",
    "latitude": 0.63597,
    "longitude": 73.44646
  },
  {
    "city": "Milandhoo",
    "city_zh": "Milandhoo",
    "country": "Maldives",
    "country_zh": "馬爾地夫",
    "country_iso_code": "MV",
    "timezone": "Indian/Maldives",
    "latitude": 6.28413,
    "longitude": 73.2457
  },
  {
    "city": "Meedhoo",
    "city_zh": "Meedhoo",
    "country": "Maldives",
    "country_zh": "馬爾地夫",
    "country_iso_code": "MV",
    "timezone": "Indian/Maldives",
    "latitude": 2.99816,
    "longitude": 73.0065
  },
  {
    "city": "Velidhoo",
    "city_zh": "Velidhoo",
    "country": "Maldives",
    "country_zh": "馬爾地夫",
    "country_iso_code": "MV",
    "timezone": "Indian/Maldives",
    "latitude": 5.66431,
    "longitude": 73.27267
  },
  {
    "city": "Kelaa",
    "city_zh": "Kelaa",
    "country": "Maldives",
    "country_zh": "馬爾地夫",
    "country_iso_code": "MV",
    "timezone": "Indian/Maldives",
    "latitude": 6.95437,
    "longitude": 73.21615
  },
  {
    "city": "Fulidhoo",
    "city_zh": "Fulidhoo",
    "country": "Maldives",
    "country_zh": "馬爾地夫",
    "country_iso_code": "MV",
    "timezone": "Indian/Maldives",
    "latitude": 3.68055,
    "longitude": 73.41552
  },
  {
    "city": "Kurendhoo",
    "city_zh": "Kurendhoo",
    "country": "Maldives",
    "country_zh": "馬爾地夫",
    "country_iso_code": "MV",
    "timezone": "Indian/Maldives",
    "latitude": 5.33387,
    "longitude": 73.46366
  },
  {
    "city": "Dhigurah",
    "city_zh": "Dhigurah",
    "country": "Maldives",
    "country_zh": "馬爾地夫",
    "country_iso_code": "MV",
    "timezone": "Indian/Maldives",
    "latitude": 3.53514,
    "longitude": 72.92896
  },
  {
    "city": "Maakurathu",
    "city_zh": "Maakurathu",
    "country": "Maldives",
    "country_zh": "馬爾地夫",
    "country_iso_code": "MV",
    "timezone": "Indian/Maldives",
    "latitude": 5.60706,
    "longitude": 73.04503
  },
  {
    "city": "Feridhoo",
    "city_zh": "Feridhoo",
    "country": "Maldives",
    "country_zh": "馬爾地夫",
    "country_iso_code": "MV",
    "timezone": "Indian/Maldives",
    "latitude": 4.0516,
    "longitude": 72.72421
  },
  {
    "city": "Himandhoo",
    "city_zh": "Himandhoo",
    "country": "Maldives",
    "country_zh": "馬爾地夫",
    "country_iso_code": "MV",
    "timezone": "Indian/Maldives",
    "latitude": 3.92086,
    "longitude": 72.74415
  },
  {
    "city": "Guraidhoo",
    "city_zh": "Guraidhoo",
    "country": "Maldives",
    "country_zh": "馬爾地夫",
    "country_iso_code": "MV",
    "timezone": "Indian/Maldives",
    "latitude": 3.90045,
    "longitude": 73.46623
  },
  {
    "city": "Vaikaradhoo",
    "city_zh": "Vaikaradhoo",
    "country": "Maldives",
    "country_zh": "馬爾地夫",
    "country_iso_code": "MV",
    "timezone": "Indian/Maldives",
    "latitude": 6.55053,
    "longitude": 72.95351
  },
  {
    "city": "Huraa",
    "city_zh": "Huraa",
    "country": "Maldives",
    "country_zh": "馬爾地夫",
    "country_iso_code": "MV",
    "timezone": "Indian/Maldives",
    "latitude": 4.33357,
    "longitude": 73.60119
  },
  {
    "city": "Gaafaru",
    "city_zh": "Gaafaru",
    "country": "Maldives",
    "country_zh": "馬爾地夫",
    "country_iso_code": "MV",
    "timezone": "Indian/Maldives",
    "latitude": 4.73548,
    "longitude": 73.49929
  },
  {
    "city": "Thulusdhoo",
    "city_zh": "Thulusdhoo",
    "country": "Maldives",
    "country_zh": "馬爾地夫",
    "country_iso_code": "MV",
    "timezone": "Indian/Maldives",
    "latitude": 4.37421,
    "longitude": 73.65269
  },
  {
    "city": "Hoarafushi",
    "city_zh": "Hoarafushi",
    "country": "Maldives",
    "country_zh": "馬爾地夫",
    "country_iso_code": "MV",
    "timezone": "Indian/Maldives",
    "latitude": 6.98249,
    "longitude": 72.89585
  },
  {
    "city": "Maamigili",
    "city_zh": "Maamigili",
    "country": "Maldives",
    "country_zh": "馬爾地夫",
    "country_iso_code": "MV",
    "timezone": "Indian/Maldives",
    "latitude": 3.6513,
    "longitude": 72.81961
  },
  {
    "city": "Bileiydhoo",
    "city_zh": "Bileiydhoo",
    "country": "Maldives",
    "country_zh": "馬爾地夫",
    "country_iso_code": "MV",
    "timezone": "Indian/Maldives",
    "latitude": 3.11682,
    "longitude": 72.98518
  },
  {
    "city": "Feeali",
    "city_zh": "Feeali",
    "country": "Maldives",
    "country_zh": "馬爾地夫",
    "country_iso_code": "MV",
    "timezone": "Indian/Maldives",
    "latitude": 3.26949,
    "longitude": 73.00295
  },
  {
    "city": "Dharanboodhoo",
    "city_zh": "Dharanboodhoo",
    "country": "Maldives",
    "country_zh": "馬爾地夫",
    "country_iso_code": "MV",
    "timezone": "Indian/Maldives",
    "latitude": 3.0615,
    "longitude": 72.92544
  },
  {
    "city": "Kuda Huura",
    "city_zh": "Kuda Huura",
    "country": "Maldives",
    "country_zh": "馬爾地夫",
    "country_iso_code": "MV",
    "timezone": "Indian/Maldives",
    "latitude": 4.32822,
    "longitude": 73.59761
  },
  {
    "city": "Gaadhiffushi",
    "city_zh": "Gaadhiffushi",
    "country": "Maldives",
    "country_zh": "馬爾地夫",
    "country_iso_code": "MV",
    "timezone": "Indian/Maldives",
    "latitude": 2.25205,
    "longitude": 73.21293
  },
  {
    "city": "Maafushi",
    "city_zh": "Maafushi",
    "country": "Maldives",
    "country_zh": "馬爾地夫",
    "country_iso_code": "MV",
    "timezone": "Indian/Maldives",
    "latitude": 3.94231,
    "longitude": 73.4907
  },
  {
    "city": "Maafaru",
    "city_zh": "Maafaru",
    "country": "Maldives",
    "country_zh": "馬爾地夫",
    "country_iso_code": "MV",
    "timezone": "Indian/Maldives",
    "latitude": 5.83078,
    "longitude": 73.47944
  },
  {
    "city": "Gadhdhoo",
    "city_zh": "Gadhdhoo",
    "country": "Maldives",
    "country_zh": "馬爾地夫",
    "country_iso_code": "MV",
    "timezone": "Indian/Maldives",
    "latitude": 0.29015,
    "longitude": 73.45655
  },
  {
    "city": "Vaadhoo",
    "city_zh": "Vaadhoo",
    "country": "Maldives",
    "country_zh": "馬爾地夫",
    "country_iso_code": "MV",
    "timezone": "Indian/Maldives",
    "latitude": 0.22668,
    "longitude": 73.27262
  },
  {
    "city": "Nilandhoo",
    "city_zh": "Nilandhoo",
    "country": "Maldives",
    "country_zh": "馬爾地夫",
    "country_iso_code": "MV",
    "timezone": "Indian/Maldives",
    "latitude": 3.05667,
    "longitude": 72.89
  },
  {
    "city": "Maagau Island Town",
    "city_zh": "Maagau Island Town",
    "country": "Maldives",
    "country_zh": "馬爾地夫",
    "country_iso_code": "MV",
    "timezone": "Indian/Maldives",
    "latitude": 2.94769,
    "longitude": 72.91473
  },
  {
    "city": "Keyodhoo",
    "city_zh": "Keyodhoo",
    "country": "Maldives",
    "country_zh": "馬爾地夫",
    "country_iso_code": "MV",
    "timezone": "Indian/Maldives",
    "latitude": 5.27049,
    "longitude": 72.99245
  }
]