[
  {
    "city": "Perez Acres",
    "city_zh": "Perez Acres",
    "country": "Guam",
    "country_zh": "Guam",
    "country_iso_code": "GU",
    "timezone": "Pacific/Guam",
    "latitude": 13.52431,
    "longitude": 144.8869
  },
  {
    "city": "Piga",
    "city_zh": "Piga",
    "country": "Guam",
    "country_zh": "Guam",
    "country_iso_code": "GU",
    "timezone": "Pacific/Guam",
    "latitude": 13.26409,
    "longitude": 144.67421
  },
  {
    "city": "Piti Village",
    "city_zh": "Piti Village",
    "country": "Guam",
    "country_zh": "Guam",
    "country_iso_code": "GU",
    "timezone": "Pacific/Guam",
    "latitude": 13.46256,
    "longitude": 144.69331
  },
  {
    "city": "Salinas",
    "city_zh": "Salinas",
    "country": "Guam",
    "country_zh": "Guam",
    "country_iso_code": "GU",
    "timezone": "Pacific/Guam",
    "latitude": 13.39144,
    "longitude": 144.66278
  },
  {
    "city": "San Antonio",
    "city_zh": "San Antonio",
    "country": "Guam",
    "country_zh": "Guam",
    "country_iso_code": "GU",
    "timezone": "Pacific/Guam",
    "latitude": 13.46633,
    "longitude": 144.80286
  },
  {
    "city": "San Vicente",
    "city_zh": "San Vicente",
    "country": "Guam",
    "country_zh": "Guam",
    "country_iso_code": "GU",
    "timezone": "Pacific/Guam",
    "latitude": 13.39273,
    "longitude": 144.66903
  },
  {
    "city": "Santa Rita Village",
    "city_zh": "Santa Rita Village",
    "country": "Guam",
    "country_zh": "Guam",
    "country_iso_code": "GU",
    "timezone": "Pacific/Guam",
    "latitude": 13.38608,
    "longitude": 144.67226
  },
  {
    "city": "Santa Rosa",
    "city_zh": "Santa Rosa",
    "country": "Guam",
    "country_zh": "Guam",
    "country_iso_code": "GU",
    "timezone": "Pacific/Guam",
    "latitude": 13.39797,
    "longitude": 144.67311
  },
  {
    "city": "Sella",
    "city_zh": "Sella",
    "country": "Guam",
    "country_zh": "Guam",
    "country_iso_code": "GU",
    "timezone": "Pacific/Guam",
    "latitude": 13.47156,
    "longitude": 144.73402
  },
  {
    "city": "Sinajana Village",
    "city_zh": "Sinajana Village",
    "country": "Guam",
    "country_zh": "Guam",
    "country_iso_code": "GU",
    "timezone": "Pacific/Guam",
    "latitude": 13.46334,
    "longitude": 144.75406
  },
  {
    "city": "Socio",
    "city_zh": "Socio",
    "country": "Guam",
    "country_zh": "Guam",
    "country_iso_code": "GU",
    "timezone": "Pacific/Guam",
    "latitude": 13.48946,
    "longitude": 144.78989
  },
  {
    "city": "South Tipalao - DoD Naval Housing",
    "city_zh": "South Tipalao - DoD Naval Housing",
    "country": "Guam",
    "country_zh": "Guam",
    "country_iso_code": "GU",
    "timezone": "Pacific/Guam",
    "latitude": 13.41734,
    "longitude": 144.65134
  },
  {
    "city": "Spring Hill",
    "city_zh": "Spring Hill",
    "country": "Guam",
    "country_zh": "Guam",
    "country_iso_code": "GU",
    "timezone": "Pacific/Guam",
    "latitude": 13.54185,
    "longitude": 144.88674
  },
  {
    "city": "Destroyed Sumay Village WW2",
    "city_zh": "Destroyed Sumay Village WW2",
    "country": "Guam",
    "country_zh": "Guam",
    "country_iso_code": "GU",
    "timezone": "Pacific/Guam",
    "latitude": 13.43636,
    "longitude": 144.65306
  },
  {
    "city": "Tagachang",
    "city_zh": "Tagachang",
    "country": "Guam",
    "country_zh": "Guam",
    "country_iso_code": "GU",
    "timezone": "Pacific/Guam",
    "latitude": 13.40828,
    "longitude": 144.78096
  },
  {
    "city": "Fern Terrace",
    "city_zh": "Fern Terrace",
    "country": "Guam",
    "country_zh": "Guam",
    "country_iso_code": "GU",
    "timezone": "Pacific/Guam",
    "latitude": 13.56991,
    "longitude": 144.85019
  },
  {
    "city": "Talisay",
    "city_zh": "Talisay",
    "country": "Guam",
    "country_zh": "Guam",
    "country_iso_code": "GU",
    "timezone": "Pacific/Guam",
    "latitude": 13.39098,
    "longitude": 144.71335
  },
  {
    "city": "Talofofo Village",
    "city_zh": "Talofofo Village",
    "country": "Guam",
    "country_zh": "Guam",
    "country_iso_code": "GU",
    "timezone": "Pacific/Guam",
    "latitude": 13.35513,
    "longitude": 144.75835
  },
  {
    "city": "Tamuning-Tumon-Harmon Village",
    "city_zh": "Tamuning-Tumon-Harmon Village",
    "country": "Guam",
    "country_zh": "Guam",
    "country_iso_code": "GU",
    "timezone": "Pacific/Guam",
    "latitude": 13.48773,
    "longitude": 144.78138
  },
  {
    "city": "Nimitz Hill",
    "city_zh": "Nimitz Hill",
    "country": "Guam",
    "country_zh": "Guam",
    "country_iso_code": "GU",
    "timezone": "Pacific/Guam",
    "latitude": 13.46346,
    "longitude": 144.70518
  },
  {
    "city": "Toto",
    "city_zh": "Toto",
    "country": "Guam",
    "country_zh": "Guam",
    "country_iso_code": "GU",
    "timezone": "Pacific/Guam",
    "latitude": 13.46609,
    "longitude": 144.78257
  },
  {
    "city": "Pulantat",
    "city_zh": "Pulantat",
    "country": "Guam",
    "country_zh": "Guam",
    "country_iso_code": "GU",
    "timezone": "Pacific/Guam",
    "latitude": 13.41283,
    "longitude": 144.75526
  },
  {
    "city": "Tumon",
    "city_zh": "Tumon",
    "country": "Guam",
    "country_zh": "Guam",
    "country_iso_code": "GU",
    "timezone": "Pacific/Guam",
    "latitude": 13.50694,
    "longitude": 144.80139
  },
  {
    "city": "Tinaga",
    "city_zh": "Tinaga",
    "country": "Guam",
    "country_zh": "Guam",
    "country_iso_code": "GU",
    "timezone": "Pacific/Guam",
    "latitude": 13.28637,
    "longitude": 144.75363
  },
  {
    "city": "Tumon Heights",
    "city_zh": "Tumon Heights",
    "country": "Guam",
    "country_zh": "Guam",
    "country_iso_code": "GU",
    "timezone": "Pacific/Guam",
    "latitude": 13.49768,
    "longitude": 144.7874
  },
  {
    "city": "Taigigao",
    "city_zh": "Taigigao",
    "country": "Guam",
    "country_zh": "Guam",
    "country_iso_code": "GU",
    "timezone": "Pacific/Guam",
    "latitude": 13.45902,
    "longitude": 144.7467
  },
  {
    "city": "Umatac Village",
    "city_zh": "Umatac Village",
    "country": "Guam",
    "country_zh": "Guam",
    "country_iso_code": "GU",
    "timezone": "Pacific/Guam",
    "latitude": 13.29843,
    "longitude": 144.66314
  },
  {
    "city": "Ungaguan",
    "city_zh": "Ungaguan",
    "country": "Guam",
    "country_zh": "Guam",
    "country_iso_code": "GU",
    "timezone": "Pacific/Guam",
    "latitude": 13.471,
    "longitude": 144.80542
  },
  {
    "city": "Kaiser",
    "city_zh": "Kaiser",
    "country": "Guam",
    "country_zh": "Guam",
    "country_iso_code": "GU",
    "timezone": "Pacific/Guam",
    "latitude": 13.52593,
    "longitude": 144.84615
  },
  {
    "city": "Utan",
    "city_zh": "Utan",
    "country": "Guam",
    "country_zh": "Guam",
    "country_iso_code": "GU",
    "timezone": "Pacific/Guam",
    "latitude": 13.46841,
    "longitude": 144.76531
  },
  {
    "city": "Windward Hills",
    "city_zh": "Windward Hills",
    "country": "Guam",
    "country_zh": "Guam",
    "country_iso_code": "GU",
    "timezone": "Pacific/Guam",
    "latitude": 13.37812,
    "longitude": 144.75085
  },
  {
    "city": "Malojloj",
    "city_zh": "Malojloj",
    "country": "Guam",
    "country_zh": "Guam",
    "country_iso_code": "GU",
    "timezone": "Pacific/Guam",
    "latitude": 13.3064,
    "longitude": 144.76105
  },
  {
    "city": "Yigo Village",
    "city_zh": "Yigo Village",
    "country": "Guam",
    "country_zh": "Guam",
    "country_iso_code": "GU",
    "timezone": "Pacific/Guam",
    "latitude": 13.53605,
    "longitude": 144.88855
  },
  {
    "city": "Yona Village",
    "city_zh": "Yona Village",
    "country": "Guam",
    "country_zh": "Guam",
    "country_iso_code": "GU",
    "timezone": "Pacific/Guam",
    "latitude": 13.40974,
    "longitude": 144.77697
  },
  {
    "city": "Ypan",
    "city_zh": "Ypan",
    "country": "Guam",
    "country_zh": "Guam",
    "country_iso_code": "GU",
    "timezone": "Pacific/Guam",
    "latitude": 13.35363,
    "longitude": 144.76873
  },
  {
    "city": "Ypaopao Estates",
    "city_zh": "Ypaopao Estates",
    "country": "Guam",
    "country_zh": "Guam",
    "country_iso_code": "GU",
    "timezone": "Pacific/Guam",
    "latitude": 13.52501,
    "longitude": 144.86207
  },
  {
    "city": "Perezville",
    "city_zh": "Perezville",
    "country": "Guam",
    "country_zh": "Guam",
    "country_iso_code": "GU",
    "timezone": "Pacific/Guam",
    "latitude": 13.50403,
    "longitude": 144.77878
  },
  {
    "city": "Ordot",
    "city_zh": "Ordot",
    "country": "Guam",
    "country_zh": "Guam",
    "country_iso_code": "GU",
    "timezone": "Pacific/Guam",
    "latitude": 13.44786,
    "longitude": 144.7612
  },
  {
    "city": "Mongmong",
    "city_zh": "Mongmong",
    "country": "Guam",
    "country_zh": "Guam",
    "country_iso_code": "GU",
    "timezone": "Pacific/Guam",
    "latitude": 13.47429,
    "longitude": 144.76277
  },
  {
    "city": "Merizo Village",
    "city_zh": "Merizo Village",
    "country": "Guam",
    "country_zh": "Guam",
    "country_iso_code": "GU",
    "timezone": "Pacific/Guam",
    "latitude": 13.26584,
    "longitude": 144.66908
  },
  {
    "city": "Belen",
    "city_zh": "Belen",
    "country": "Guam",
    "country_zh": "Guam",
    "country_iso_code": "GU",
    "timezone": "Pacific/Guam",
    "latitude": 13.2823,
    "longitude": 144.74805
  },
  {
    "city": "Manaca",
    "city_zh": "Manaca",
    "country": "Guam",
    "country_zh": "Guam",
    "country_iso_code": "GU",
    "timezone": "Pacific/Guam",
    "latitude": 13.45975,
    "longitude": 144.80285
  },
  {
    "city": "Maite",
    "city_zh": "Maite",
    "country": "Guam",
    "country_zh": "Guam",
    "country_iso_code": "GU",
    "timezone": "Pacific/Guam",
    "latitude": 13.47798,
    "longitude": 144.76671
  },
  {
    "city": "Machaute",
    "city_zh": "Machaute",
    "country": "Guam",
    "country_zh": "Guam",
    "country_iso_code": "GU",
    "timezone": "Pacific/Guam",
    "latitude": 13.46949,
    "longitude": 144.79047
  },
  {
    "city": "Lupog",
    "city_zh": "Lupog",
    "country": "Guam",
    "country_zh": "Guam",
    "country_iso_code": "GU",
    "timezone": "Pacific/Guam",
    "latitude": 13.54825,
    "longitude": 144.91413
  },
  {
    "city": "Leyan",
    "city_zh": "Leyan",
    "country": "Guam",
    "country_zh": "Guam",
    "country_iso_code": "GU",
    "timezone": "Pacific/Guam",
    "latitude": 13.45554,
    "longitude": 144.8041
  },
  {
    "city": "Latte Plantation",
    "city_zh": "Latte Plantation",
    "country": "Guam",
    "country_zh": "Guam",
    "country_iso_code": "GU",
    "timezone": "Pacific/Guam",
    "latitude": 13.49501,
    "longitude": 144.85049
  },
  {
    "city": "Julog",
    "city_zh": "Julog",
    "country": "Guam",
    "country_zh": "Guam",
    "country_iso_code": "GU",
    "timezone": "Pacific/Guam",
    "latitude": 13.25711,
    "longitude": 144.68865
  },
  {
    "city": "Inarajan Village",
    "city_zh": "Inarajan Village",
    "country": "Guam",
    "country_zh": "Guam",
    "country_iso_code": "GU",
    "timezone": "Pacific/Guam",
    "latitude": 13.27363,
    "longitude": 144.74845
  },
  {
    "city": "Harmon Garden",
    "city_zh": "Harmon Garden",
    "country": "Guam",
    "country_zh": "Guam",
    "country_iso_code": "GU",
    "timezone": "Pacific/Guam",
    "latitude": 13.50878,
    "longitude": 144.8236
  },
  {
    "city": "Agana Heights Village",
    "city_zh": "Agana Heights Village",
    "country": "Guam",
    "country_zh": "Guam",
    "country_iso_code": "GU",
    "timezone": "Pacific/Guam",
    "latitude": 13.46559,
    "longitude": 144.74795
  },
  {
    "city": "Chalan Pago-Ordot Village",
    "city_zh": "Chalan Pago-Ordot Village",
    "country": "Guam",
    "country_zh": "Guam",
    "country_iso_code": "GU",
    "timezone": "Pacific/Guam",
    "latitude": 13.44741,
    "longitude": 144.75902
  },
  {
    "city": "Chagamin Lago",
    "city_zh": "Chagamin Lago",
    "country": "Guam",
    "country_zh": "Guam",
    "country_iso_code": "GU",
    "timezone": "Pacific/Guam",
    "latitude": 13.27769,
    "longitude": 144.75377
  },
  {
    "city": "Canada",
    "city_zh": "Canada",
    "country": "Guam",
    "country_zh": "Guam",
    "country_iso_code": "GU",
    "timezone": "Pacific/Guam",
    "latitude": 13.45988,
    "longitude": 144.78887
  },
  {
    "city": "Biyae",
    "city_zh": "Biyae",
    "country": "Guam",
    "country_zh": "Guam",
    "country_iso_code": "GU",
    "timezone": "Pacific/Guam",
    "latitude": 13.35743,
    "longitude": 144.64806
  },
  {
    "city": "Pigua",
    "city_zh": "Pigua",
    "country": "Guam",
    "country_zh": "Guam",
    "country_iso_code": "GU",
    "timezone": "Pacific/Guam",
    "latitude": 13.27054,
    "longitude": 144.672
  },
  {
    "city": "Baza Gardens",
    "city_zh": "Baza Gardens",
    "country": "Guam",
    "country_zh": "Guam",
    "country_iso_code": "GU",
    "timezone": "Pacific/Guam",
    "latitude": 13.37021,
    "longitude": 144.7519
  },
  {
    "city": "Barrigada Heights",
    "city_zh": "Barrigada Heights",
    "country": "Guam",
    "country_zh": "Guam",
    "country_iso_code": "GU",
    "timezone": "Pacific/Guam",
    "latitude": 13.48683,
    "longitude": 144.82508
  },
  {
    "city": "Barrigada Village",
    "city_zh": "Barrigada Village",
    "country": "Guam",
    "country_zh": "Guam",
    "country_iso_code": "GU",
    "timezone": "Pacific/Guam",
    "latitude": 13.46913,
    "longitude": 144.79901
  },
  {
    "city": "Astumbo",
    "city_zh": "Astumbo",
    "country": "Guam",
    "country_zh": "Guam",
    "country_iso_code": "GU",
    "timezone": "Pacific/Guam",
    "latitude": 13.55422,
    "longitude": 144.84341
  },
  {
    "city": "Aspengo",
    "city_zh": "Aspengo",
    "country": "Guam",
    "country_zh": "Guam",
    "country_iso_code": "GU",
    "timezone": "Pacific/Guam",
    "latitude": 13.46236,
    "longitude": 144.79708
  },
  {
    "city": "Sese",
    "city_zh": "Sese",
    "country": "Guam",
    "country_zh": "Guam",
    "country_iso_code": "GU",
    "timezone": "Pacific/Guam",
    "latitude": 13.28731,
    "longitude": 144.74509
  },
  {
    "city": "Agafo Gumas",
    "city_zh": "Agafo Gumas",
    "country": "Guam",
    "country_zh": "Guam",
    "country_iso_code": "GU",
    "timezone": "Pacific/Guam",
    "latitude": 13.58315,
    "longitude": 144.87881
  },
  {
    "city": "Agat Village",
    "city_zh": "Agat Village",
    "country": "Guam",
    "country_zh": "Guam",
    "country_iso_code": "GU",
    "timezone": "Pacific/Guam",
    "latitude": 13.383,
    "longitude": 144.66003
  },
  {
    "city": "Afami",
    "city_zh": "Afami",
    "country": "Guam",
    "country_zh": "Guam",
    "country_iso_code": "GU",
    "timezone": "Pacific/Guam",
    "latitude": 13.4571,
    "longitude": 144.76285
  },
  {
    "city": "Asan-Maina Village",
    "city_zh": "Asan-Maina Village",
    "country": "Guam",
    "country_zh": "Guam",
    "country_iso_code": "GU",
    "timezone": "Pacific/Guam",
    "latitude": 13.47215,
    "longitude": 144.71654
  },
  {
    "city": "Apra Heights - DoD Naval Housing",
    "city_zh": "Apra Heights - DoD Naval Housing",
    "country": "Guam",
    "country_zh": "Guam",
    "country_iso_code": "GU",
    "timezone": "Pacific/Guam",
    "latitude": 13.40306,
    "longitude": 144.68475
  },
  {
    "city": "Manenggon",
    "city_zh": "Manenggon",
    "country": "Guam",
    "country_zh": "Guam",
    "country_iso_code": "GU",
    "timezone": "Pacific/Guam",
    "latitude": 13.39866,
    "longitude": 144.7535
  },
  {
    "city": "Bile",
    "city_zh": "Bile",
    "country": "Guam",
    "country_zh": "Guam",
    "country_iso_code": "GU",
    "timezone": "Pacific/Guam",
    "latitude": 13.27616,
    "longitude": 144.66471
  },
  {
    "city": "Camp Witek",
    "city_zh": "Camp Witek",
    "country": "Guam",
    "country_zh": "Guam",
    "country_iso_code": "GU",
    "timezone": "Pacific/Guam",
    "latitude": 13.38423,
    "longitude": 144.76208
  },
  {
    "city": "Dededo Village",
    "city_zh": "Dededo Village",
    "country": "Guam",
    "country_zh": "Guam",
    "country_iso_code": "GU",
    "timezone": "Pacific/Guam",
    "latitude": 13.51777,
    "longitude": 144.8391
  },
  {
    "city": "Carlos Heights",
    "city_zh": "Carlos Heights",
    "country": "Guam",
    "country_zh": "Guam",
    "country_iso_code": "GU",
    "timezone": "Pacific/Guam",
    "latitude": 13.51586,
    "longitude": 144.81301
  },
  {
    "city": "Cerain",
    "city_zh": "Cerain",
    "country": "Guam",
    "country_zh": "Guam",
    "country_iso_code": "GU",
    "timezone": "Pacific/Guam",
    "latitude": 13.39838,
    "longitude": 144.66361
  },
  {
    "city": "Chalan Mamajanao",
    "city_zh": "Chalan Mamajanao",
    "country": "Guam",
    "country_zh": "Guam",
    "country_iso_code": "GU",
    "timezone": "Pacific/Guam",
    "latitude": 13.49975,
    "longitude": 144.78738
  },
  {
    "city": "Chalan Pago",
    "city_zh": "Chalan Pago",
    "country": "Guam",
    "country_zh": "Guam",
    "country_iso_code": "GU",
    "timezone": "Pacific/Guam",
    "latitude": 13.43857,
    "longitude": 144.77607
  },
  {
    "city": "Gayinero",
    "city_zh": "Gayinero",
    "country": "Guam",
    "country_zh": "Guam",
    "country_iso_code": "GU",
    "timezone": "Pacific/Guam",
    "latitude": 13.53036,
    "longitude": 144.90441
  },
  {
    "city": "Hagåtña",
    "city_zh": "阿加尼亚",
    "country": "Guam",
    "country_zh": "Guam",
    "country_iso_code": "GU",
    "timezone": "Pacific/Guam",
    "latitude": 13.47567,
    "longitude": 144.74886
  },
  {
    "city": "Lingae",
    "city_zh": "Lingae",
    "country": "Guam",
    "country_zh": "Guam",
    "country_iso_code": "GU",
    "timezone": "Pacific/Guam",
    "latitude": 13.25557,
    "longitude": 144.68282
  },
  {
    "city": "Latte Heights",
    "city_zh": "Latte Heights",
    "country": "Guam",
    "country_zh": "Guam",
    "country_iso_code": "GU",
    "timezone": "Pacific/Guam",
    "latitude": 13.49055,
    "longitude": 144.84169
  },
  {
    "city": "Lockwood Terrace - DoD Naval Housing",
    "city_zh": "Lockwood Terrace - DoD Naval Housing",
    "country": "Guam",
    "country_zh": "Guam",
    "country_iso_code": "GU",
    "timezone": "Pacific/Guam",
    "latitude": 13.43272,
    "longitude": 144.65031
  },
  {
    "city": "Macheche",
    "city_zh": "Macheche",
    "country": "Guam",
    "country_zh": "Guam",
    "country_iso_code": "GU",
    "timezone": "Pacific/Guam",
    "latitude": 13.50386,
    "longitude": 144.8351
  },
  {
    "city": "Maina",
    "city_zh": "Maina",
    "country": "Guam",
    "country_zh": "Guam",
    "country_iso_code": "GU",
    "timezone": "Pacific/Guam",
    "latitude": 13.46764,
    "longitude": 144.73702
  },
  {
    "city": "Marianas Terrace",
    "city_zh": "Marianas Terrace",
    "country": "Guam",
    "country_zh": "Guam",
    "country_iso_code": "GU",
    "timezone": "Pacific/Guam",
    "latitude": 13.5331,
    "longitude": 144.89905
  },
  {
    "city": "Pado",
    "city_zh": "Pado",
    "country": "Guam",
    "country_zh": "Guam",
    "country_iso_code": "GU",
    "timezone": "Pacific/Guam",
    "latitude": 13.46784,
    "longitude": 144.77528
  },
  {
    "city": "Oka",
    "city_zh": "Oka",
    "country": "Guam",
    "country_zh": "Guam",
    "country_iso_code": "GU",
    "timezone": "Pacific/Guam",
    "latitude": 13.50086,
    "longitude": 144.77252
  },
  {
    "city": "Peca",
    "city_zh": "Peca",
    "country": "Guam",
    "country_zh": "Guam",
    "country_iso_code": "GU",
    "timezone": "Pacific/Guam",
    "latitude": 13.28143,
    "longitude": 144.75321
  },
  {
    "city": "North Tipalao - DoD Naval Housing",
    "city_zh": "North Tipalao - DoD Naval Housing",
    "country": "Guam",
    "country_zh": "Guam",
    "country_iso_code": "GU",
    "timezone": "Pacific/Guam",
    "latitude": 13.42074,
    "longitude": 144.64422
  },
  {
    "city": "Pagachao",
    "city_zh": "Pagachao",
    "country": "Guam",
    "country_zh": "Guam",
    "country_iso_code": "GU",
    "timezone": "Pacific/Guam",
    "latitude": 13.36478,
    "longitude": 144.65569
  },
  {
    "city": "Andersen AFB Housing Areas",
    "city_zh": "Andersen AFB Housing Areas",
    "country": "Guam",
    "country_zh": "Guam",
    "country_iso_code": "GU",
    "timezone": "Pacific/Guam",
    "latitude": 13.55691,
    "longitude": 144.92231
  },
  {
    "city": "Nimitz Hill Navy Housing",
    "city_zh": "Nimitz Hill Navy Housing",
    "country": "Guam",
    "country_zh": "Guam",
    "country_iso_code": "GU",
    "timezone": "Pacific/Guam",
    "latitude": 13.4572,
    "longitude": 144.71749
  },
  {
    "city": "Tiyan",
    "city_zh": "Tiyan",
    "country": "Guam",
    "country_zh": "Guam",
    "country_iso_code": "GU",
    "timezone": "Pacific/Guam",
    "latitude": 13.48466,
    "longitude": 144.78719
  },
  {
    "city": "Mangilao Village",
    "city_zh": "Mangilao Village",
    "country": "Guam",
    "country_zh": "Guam",
    "country_iso_code": "GU",
    "timezone": "Pacific/Guam",
    "latitude": 13.44761,
    "longitude": 144.80109
  },
  {
    "city": "Jati - Prehistoric and Spanish Settlement",
    "city_zh": "Jati - Prehistoric and Spanish Settlement",
    "country": "Guam",
    "country_zh": "Guam",
    "country_iso_code": "GU",
    "timezone": "Pacific/Guam",
    "latitude": 13.31588,
    "longitude": 144.65773
  },
  {
    "city": "USN Royal Palms Housing",
    "city_zh": "USN Royal Palms Housing",
    "country": "Guam",
    "country_zh": "Guam",
    "country_iso_code": "GU",
    "timezone": "Pacific/Guam",
    "latitude": 13.55168,
    "longitude": 144.83201
  },
  {
    "city": "Lada",
    "city_zh": "Lada",
    "country": "Guam",
    "country_zh": "Guam",
    "country_iso_code": "GU",
    "timezone": "Pacific/Guam",
    "latitude": 13.26538,
    "longitude": 144.73934
  },
  {
    "city": "Atao",
    "city_zh": "Atao",
    "country": "Guam",
    "country_zh": "Guam",
    "country_iso_code": "GU",
    "timezone": "Pacific/Guam",
    "latitude": 13.25526,
    "longitude": 144.73303
  },
  {
    "city": "Inara",
    "city_zh": "Inara",
    "country": "Guam",
    "country_zh": "Guam",
    "country_iso_code": "GU",
    "timezone": "Pacific/Guam",
    "latitude": 13.27888,
    "longitude": 144.73148
  },
  {
    "city": "Asalonso",
    "city_zh": "Asalonso",
    "country": "Guam",
    "country_zh": "Guam",
    "country_iso_code": "GU",
    "timezone": "Pacific/Guam",
    "latitude": 13.33438,
    "longitude": 144.7614
  },
  {
    "city": "Ylig",
    "city_zh": "Ylig",
    "country": "Guam",
    "country_zh": "Guam",
    "country_iso_code": "GU",
    "timezone": "Pacific/Guam",
    "latitude": 13.39014,
    "longitude": 144.77139
  },
  {
    "city": "Lower Talisay",
    "city_zh": "Lower Talisay",
    "country": "Guam",
    "country_zh": "Guam",
    "country_iso_code": "GU",
    "timezone": "Pacific/Guam",
    "latitude": 13.39983,
    "longitude": 144.6917
  },
  {
    "city": "Maimai",
    "city_zh": "Maimai",
    "country": "Guam",
    "country_zh": "Guam",
    "country_iso_code": "GU",
    "timezone": "Pacific/Guam",
    "latitude": 13.44627,
    "longitude": 144.77787
  },
  {
    "city": "Apusento Garden",
    "city_zh": "Apusento Garden",
    "country": "Guam",
    "country_zh": "Guam",
    "country_iso_code": "GU",
    "timezone": "Pacific/Guam",
    "latitude": 13.44656,
    "longitude": 144.76964
  },
  {
    "city": "Pago Bay",
    "city_zh": "Pago Bay",
    "country": "Guam",
    "country_zh": "Guam",
    "country_iso_code": "GU",
    "timezone": "Pacific/Guam",
    "latitude": 13.42673,
    "longitude": 144.78929
  },
  {
    "city": "Andersen AFB Andy South Housing",
    "city_zh": "Andersen AFB Andy South Housing",
    "country": "Guam",
    "country_zh": "Guam",
    "country_iso_code": "GU",
    "timezone": "Pacific/Guam",
    "latitude": 13.49881,
    "longitude": 144.8686
  },
  {
    "city": "Tai",
    "city_zh": "Tai",
    "country": "Guam",
    "country_zh": "Guam",
    "country_iso_code": "GU",
    "timezone": "Pacific/Guam",
    "latitude": 13.4417,
    "longitude": 144.79124
  },
  {
    "city": "Salisbury",
    "city_zh": "Salisbury",
    "country": "Guam",
    "country_zh": "Guam",
    "country_iso_code": "GU",
    "timezone": "Pacific/Guam",
    "latitude": 13.55941,
    "longitude": 144.90136
  },
  {
    "city": "Central Dededo",
    "city_zh": "Central Dededo",
    "country": "Guam",
    "country_zh": "Guam",
    "country_iso_code": "GU",
    "timezone": "Pacific/Guam",
    "latitude": 13.51709,
    "longitude": 144.83966
  },
  {
    "city": "Santa Ana",
    "city_zh": "Santa Ana",
    "country": "Guam",
    "country_zh": "Guam",
    "country_iso_code": "GU",
    "timezone": "Pacific/Guam",
    "latitude": 13.58666,
    "longitude": 144.8657
  },
  {
    "city": "Astumbo Gardens",
    "city_zh": "Astumbo Gardens",
    "country": "Guam",
    "country_zh": "Guam",
    "country_iso_code": "GU",
    "timezone": "Pacific/Guam",
    "latitude": 13.55117,
    "longitude": 144.84023
  },
  {
    "city": "Liguan Terrace",
    "city_zh": "Liguan Terrace",
    "country": "Guam",
    "country_zh": "Guam",
    "country_iso_code": "GU",
    "timezone": "Pacific/Guam",
    "latitude": 13.52103,
    "longitude": 144.82259
  },
  {
    "city": "Ukudo",
    "city_zh": "Ukudo",
    "country": "Guam",
    "country_zh": "Guam",
    "country_iso_code": "GU",
    "timezone": "Pacific/Guam",
    "latitude": 13.54091,
    "longitude": 144.84349
  },
  {
    "city": "NCS Machanao",
    "city_zh": "NCS Machanao",
    "country": "Guam",
    "country_zh": "Guam",
    "country_iso_code": "GU",
    "timezone": "Pacific/Guam",
    "latitude": 13.58038,
    "longitude": 144.8583
  },
  {
    "city": "Ghura",
    "city_zh": "Ghura",
    "country": "Guam",
    "country_zh": "Guam",
    "country_iso_code": "GU",
    "timezone": "Pacific/Guam",
    "latitude": 13.52748,
    "longitude": 144.86967
  },
  {
    "city": "Las Palmas",
    "city_zh": "Las Palmas",
    "country": "Guam",
    "country_zh": "Guam",
    "country_iso_code": "GU",
    "timezone": "Pacific/Guam",
    "latitude": 13.50261,
    "longitude": 144.84276
  },
  {
    "city": "Mogfog",
    "city_zh": "Mogfog",
    "country": "Guam",
    "country_zh": "Guam",
    "country_iso_code": "GU",
    "timezone": "Pacific/Guam",
    "latitude": 13.50282,
    "longitude": 144.85139
  },
  {
    "city": "Harmon",
    "city_zh": "Harmon",
    "country": "Guam",
    "country_zh": "Guam",
    "country_iso_code": "GU",
    "timezone": "Pacific/Guam",
    "latitude": 13.50688,
    "longitude": 144.81098
  },
  {
    "city": "Mongmong-Toto-Maite Village",
    "city_zh": "Mongmong-Toto-Maite Village",
    "country": "Guam",
    "country_zh": "Guam",
    "country_iso_code": "GU",
    "timezone": "Pacific/Guam",
    "latitude": 13.46857,
    "longitude": 144.78214
  },
  {
    "city": "West Airport Terrace",
    "city_zh": "West Airport Terrace",
    "country": "Guam",
    "country_zh": "Guam",
    "country_iso_code": "GU",
    "timezone": "Pacific/Guam",
    "latitude": 13.47984,
    "longitude": 144.77383
  },
  {
    "city": "Fonte",
    "city_zh": "Fonte",
    "country": "Guam",
    "country_zh": "Guam",
    "country_iso_code": "GU",
    "timezone": "Pacific/Guam",
    "latitude": 13.46119,
    "longitude": 144.74211
  },
  {
    "city": "Hagåtña Village",
    "city_zh": "Hagåtña Village",
    "country": "Guam",
    "country_zh": "Guam",
    "country_iso_code": "GU",
    "timezone": "Pacific/Guam",
    "latitude": 13.47279,
    "longitude": 144.75802
  },
  {
    "city": "Flag Circle - USN Top Brass Housing",
    "city_zh": "Flag Circle - USN Top Brass Housing",
    "country": "Guam",
    "country_zh": "Guam",
    "country_iso_code": "GU",
    "timezone": "Pacific/Guam",
    "latitude": 13.46713,
    "longitude": 144.72327
  },
  {
    "city": "Upper Tumon",
    "city_zh": "Upper Tumon",
    "country": "Guam",
    "country_zh": "Guam",
    "country_iso_code": "GU",
    "timezone": "Pacific/Guam",
    "latitude": 13.512,
    "longitude": 144.81367
  },
  {
    "city": "Apotgan",
    "city_zh": "Apotgan",
    "country": "Guam",
    "country_zh": "Guam",
    "country_iso_code": "GU",
    "timezone": "Pacific/Guam",
    "latitude": 13.48817,
    "longitude": 144.77644
  },
  {
    "city": "Asan",
    "city_zh": "Asan",
    "country": "Guam",
    "country_zh": "Guam",
    "country_iso_code": "GU",
    "timezone": "Pacific/Guam",
    "latitude": 13.47174,
    "longitude": 144.71581
  },
  {
    "city": "Tamuning",
    "city_zh": "塔穆宁",
    "country": "Guam",
    "country_zh": "Guam",
    "country_iso_code": "GU",
    "timezone": "Pacific/Guam",
    "latitude": 13.48754,
    "longitude": 144.78143
  },
  {
    "city": "Adacao",
    "city_zh": "Adacao",
    "country": "Guam",
    "country_zh": "Guam",
    "country_iso_code": "GU",
    "timezone": "Pacific/Guam",
    "latitude": 13.49242,
    "longitude": 144.8447
  },
  {
    "city": "Anao",
    "city_zh": "Anao",
    "country": "Guam",
    "country_zh": "Guam",
    "country_iso_code": "GU",
    "timezone": "Pacific/Guam",
    "latitude": 13.5289,
    "longitude": 144.9182
  },
  {
    "city": "Apra Harbor",
    "city_zh": "Apra Harbor",
    "country": "Guam",
    "country_zh": "Guam",
    "country_iso_code": "GU",
    "timezone": "Pacific/Guam",
    "latitude": 13.42827,
    "longitude": 144.65252
  },
  {
    "city": "Chaguian",
    "city_zh": "Chaguian",
    "country": "Guam",
    "country_zh": "Guam",
    "country_iso_code": "GU",
    "timezone": "Pacific/Guam",
    "latitude": 13.57175,
    "longitude": 144.88058
  },
  {
    "city": "Finegayan Station",
    "city_zh": "Finegayan Station",
    "country": "Guam",
    "country_zh": "Guam",
    "country_iso_code": "GU",
    "timezone": "Pacific/Guam",
    "latitude": 13.57239,
    "longitude": 144.84433
  }
]