[
  {
    "city": "Adidomé",
    "city_zh": "Adidomé",
    "country": "Togo",
    "country_zh": "多哥",
    "country_iso_code": "TG",
    "timezone": "Africa/Lome",
    "latitude": 6.23417,
    "longitude": 1.15722
  },
  {
    "city": "Zozokondji",
    "city_zh": "Zozokondji",
    "country": "Togo",
    "country_zh": "多哥",
    "country_iso_code": "TG",
    "timezone": "Africa/Lome",
    "latitude": 6.81667,
    "longitude": 0.85
  },
  {
    "city": "Zowola Kpoguédé",
    "city_zh": "Zowola Kpoguédé",
    "country": "Togo",
    "country_zh": "多哥",
    "country_iso_code": "TG",
    "timezone": "Africa/Lome",
    "latitude": 6.28333,
    "longitude": 1.58333
  },
  {
    "city": "Zowolagan",
    "city_zh": "Zowolagan",
    "country": "Togo",
    "country_zh": "多哥",
    "country_iso_code": "TG",
    "timezone": "Africa/Lome",
    "latitude": 6.26667,
    "longitude": 1.58333
  },
  {
    "city": "Zouvi",
    "city_zh": "Zouvi",
    "country": "Togo",
    "country_zh": "多哥",
    "country_iso_code": "TG",
    "timezone": "Africa/Lome",
    "latitude": 6.78333,
    "longitude": 1.51667
  },
  {
    "city": "Zoumé",
    "city_zh": "Zoumé",
    "country": "Togo",
    "country_zh": "多哥",
    "country_iso_code": "TG",
    "timezone": "Africa/Lome",
    "latitude": 6.56667,
    "longitude": 1.45
  },
  {
    "city": "Zoumé",
    "city_zh": "Zoumé",
    "country": "Togo",
    "country_zh": "多哥",
    "country_iso_code": "TG",
    "timezone": "Africa/Lome",
    "latitude": 6.4,
    "longitude": 1.58333
  },
  {
    "city": "Zougbéga Ouga",
    "city_zh": "Zougbéga Ouga",
    "country": "Togo",
    "country_zh": "多哥",
    "country_iso_code": "TG",
    "timezone": "Africa/Lome",
    "latitude": 7.56667,
    "longitude": 0.66667
  },
  {
    "city": "Zougbéga",
    "city_zh": "Zougbéga",
    "country": "Togo",
    "country_zh": "多哥",
    "country_iso_code": "TG",
    "timezone": "Africa/Lome",
    "latitude": 7.56667,
    "longitude": 0.68333
  },
  {
    "city": "Zoubégan",
    "city_zh": "Zoubégan",
    "country": "Togo",
    "country_zh": "多哥",
    "country_iso_code": "TG",
    "timezone": "Africa/Lome",
    "latitude": 6.38333,
    "longitude": 0.91667
  },
  {
    "city": "Zotchi Kpota",
    "city_zh": "Zotchi Kpota",
    "country": "Togo",
    "country_zh": "多哥",
    "country_iso_code": "TG",
    "timezone": "Africa/Lome",
    "latitude": 6.45,
    "longitude": 1.61667
  },
  {
    "city": "Zopomarhé",
    "city_zh": "Zopomarhé",
    "country": "Togo",
    "country_zh": "多哥",
    "country_iso_code": "TG",
    "timezone": "Africa/Lome",
    "latitude": 6.23361,
    "longitude": 1.14333
  },
  {
    "city": "Zooti Segbedji",
    "city_zh": "Zooti Segbedji",
    "country": "Togo",
    "country_zh": "多哥",
    "country_iso_code": "TG",
    "timezone": "Africa/Lome",
    "latitude": 6.41667,
    "longitude": 1.6
  },
  {
    "city": "Zooti",
    "city_zh": "Zooti",
    "country": "Togo",
    "country_zh": "多哥",
    "country_iso_code": "TG",
    "timezone": "Africa/Lome",
    "latitude": 6.41667,
    "longitude": 1.61667
  },
  {
    "city": "Zongo",
    "city_zh": "Zongo",
    "country": "Togo",
    "country_zh": "多哥",
    "country_iso_code": "TG",
    "timezone": "Africa/Lome",
    "latitude": 7.81667,
    "longitude": 1.6
  },
  {
    "city": "Zongo",
    "city_zh": "Zongo",
    "country": "Togo",
    "country_zh": "多哥",
    "country_iso_code": "TG",
    "timezone": "Africa/Lome",
    "latitude": 6.56667,
    "longitude": 0.9
  },
  {
    "city": "Zongo",
    "city_zh": "Zongo",
    "country": "Togo",
    "country_zh": "多哥",
    "country_iso_code": "TG",
    "timezone": "Africa/Lome",
    "latitude": 6.35,
    "longitude": 1.71667
  },
  {
    "city": "Zongo",
    "city_zh": "Zongo",
    "country": "Togo",
    "country_zh": "多哥",
    "country_iso_code": "TG",
    "timezone": "Africa/Lome",
    "latitude": 6.23333,
    "longitude": 1.61667
  },
  {
    "city": "Zonachrakopé",
    "city_zh": "Zonachrakopé",
    "country": "Togo",
    "country_zh": "多哥",
    "country_iso_code": "TG",
    "timezone": "Africa/Lome",
    "latitude": 7.58333,
    "longitude": 1.41667
  },
  {
    "city": "Zomaé",
    "city_zh": "Zomaé",
    "country": "Togo",
    "country_zh": "多哥",
    "country_iso_code": "TG",
    "timezone": "Africa/Lome",
    "latitude": 7.1,
    "longitude": 1.05
  },
  {
    "city": "Zolou",
    "city_zh": "Zolou",
    "country": "Togo",
    "country_zh": "多哥",
    "country_iso_code": "TG",
    "timezone": "Africa/Lome",
    "latitude": 7.3,
    "longitude": 1.15
  },
  {
    "city": "Zolo",
    "city_zh": "Zolo",
    "country": "Togo",
    "country_zh": "多哥",
    "country_iso_code": "TG",
    "timezone": "Africa/Lome",
    "latitude": 6.36667,
    "longitude": 0.88333
  },
  {
    "city": "Zokouvé Kpoguédé",
    "city_zh": "Zokouvé Kpoguédé",
    "country": "Togo",
    "country_zh": "多哥",
    "country_iso_code": "TG",
    "timezone": "Africa/Lome",
    "latitude": 7.01667,
    "longitude": 1.51667
  },
  {
    "city": "Zohoudji",
    "city_zh": "Zohoudji",
    "country": "Togo",
    "country_zh": "多哥",
    "country_iso_code": "TG",
    "timezone": "Africa/Lome",
    "latitude": 6.76667,
    "longitude": 1.55
  },
  {
    "city": "Zogbépémé",
    "city_zh": "Zogbépémé",
    "country": "Togo",
    "country_zh": "多哥",
    "country_iso_code": "TG",
    "timezone": "Africa/Lome",
    "latitude": 6.45,
    "longitude": 0.98333
  },
  {
    "city": "Zogbé Kopé",
    "city_zh": "Zogbé Kopé",
    "country": "Togo",
    "country_zh": "多哥",
    "country_iso_code": "TG",
    "timezone": "Africa/Lome",
    "latitude": 6.42528,
    "longitude": 1.09083
  },
  {
    "city": "Zogbé Kopé",
    "city_zh": "Zogbé Kopé",
    "country": "Togo",
    "country_zh": "多哥",
    "country_iso_code": "TG",
    "timezone": "Africa/Lome",
    "latitude": 6.43861,
    "longitude": 1.04056
  },
  {
    "city": "Zogbégan",
    "city_zh": "Zogbégan",
    "country": "Togo",
    "country_zh": "多哥",
    "country_iso_code": "TG",
    "timezone": "Africa/Lome",
    "latitude": 6.35,
    "longitude": 1.65
  },
  {
    "city": "Zogbedji Papédomé",
    "city_zh": "Zogbedji Papédomé",
    "country": "Togo",
    "country_zh": "多哥",
    "country_iso_code": "TG",
    "timezone": "Africa/Lome",
    "latitude": 6.4,
    "longitude": 1.61667
  },
  {
    "city": "Zogbedji",
    "city_zh": "Zogbedji",
    "country": "Togo",
    "country_zh": "多哥",
    "country_iso_code": "TG",
    "timezone": "Africa/Lome",
    "latitude": 6.51667,
    "longitude": 1.61667
  },
  {
    "city": "Zogbédji",
    "city_zh": "Zogbédji",
    "country": "Togo",
    "country_zh": "多哥",
    "country_iso_code": "TG",
    "timezone": "Africa/Lome",
    "latitude": 6.4,
    "longitude": 1.61667
  },
  {
    "city": "Zogbedji",
    "city_zh": "Zogbedji",
    "country": "Togo",
    "country_zh": "多哥",
    "country_iso_code": "TG",
    "timezone": "Africa/Lome",
    "latitude": 6.3,
    "longitude": 1.65
  },
  {
    "city": "Zobékopé",
    "city_zh": "Zobékopé",
    "country": "Togo",
    "country_zh": "多哥",
    "country_iso_code": "TG",
    "timezone": "Africa/Lome",
    "latitude": 6.36278,
    "longitude": 1.11806
  },
  {
    "city": "Ziwo",
    "city_zh": "Ziwo",
    "country": "Togo",
    "country_zh": "多哥",
    "country_iso_code": "TG",
    "timezone": "Africa/Lome",
    "latitude": 6.48333,
    "longitude": 0.9
  },
  {
    "city": "Zivé",
    "city_zh": "Zivé",
    "country": "Togo",
    "country_zh": "多哥",
    "country_iso_code": "TG",
    "timezone": "Africa/Lome",
    "latitude": 6.73333,
    "longitude": 1.11667
  },
  {
    "city": "Ziovounou",
    "city_zh": "Ziovounou",
    "country": "Togo",
    "country_zh": "多哥",
    "country_iso_code": "TG",
    "timezone": "Africa/Lome",
    "latitude": 6.39528,
    "longitude": 1.11139
  },
  {
    "city": "Ziovémé",
    "city_zh": "Ziovémé",
    "country": "Togo",
    "country_zh": "多哥",
    "country_iso_code": "TG",
    "timezone": "Africa/Lome",
    "latitude": 6.51667,
    "longitude": 1.01667
  },
  {
    "city": "Ziogba",
    "city_zh": "Ziogba",
    "country": "Togo",
    "country_zh": "多哥",
    "country_iso_code": "TG",
    "timezone": "Africa/Lome",
    "latitude": 6.21556,
    "longitude": 1.38167
  },
  {
    "city": "Zinnglakopé",
    "city_zh": "Zinnglakopé",
    "country": "Togo",
    "country_zh": "多哥",
    "country_iso_code": "TG",
    "timezone": "Africa/Lome",
    "latitude": 7.25,
    "longitude": 1.13333
  },
  {
    "city": "Zikpé",
    "city_zh": "Zikpé",
    "country": "Togo",
    "country_zh": "多哥",
    "country_iso_code": "TG",
    "timezone": "Africa/Lome",
    "latitude": 6.55,
    "longitude": 0.81667
  },
  {
    "city": "Zévé",
    "city_zh": "Zévé",
    "country": "Togo",
    "country_zh": "多哥",
    "country_iso_code": "TG",
    "timezone": "Africa/Lome",
    "latitude": 6.55,
    "longitude": 0.98333
  },
  {
    "city": "Zenkplémé",
    "city_zh": "Zenkplémé",
    "country": "Togo",
    "country_zh": "多哥",
    "country_iso_code": "TG",
    "timezone": "Africa/Lome",
    "latitude": 6.35,
    "longitude": 1.45
  },
  {
    "city": "Zéglégan",
    "city_zh": "Zéglégan",
    "country": "Togo",
    "country_zh": "多哥",
    "country_iso_code": "TG",
    "timezone": "Africa/Lome",
    "latitude": 6.28333,
    "longitude": 1.31667
  },
  {
    "city": "Zébédé",
    "city_zh": "Zébédé",
    "country": "Togo",
    "country_zh": "多哥",
    "country_iso_code": "TG",
    "timezone": "Africa/Lome",
    "latitude": 6.35,
    "longitude": 0.93333
  },
  {
    "city": "Zébé",
    "city_zh": "Zébé",
    "country": "Togo",
    "country_zh": "多哥",
    "country_iso_code": "TG",
    "timezone": "Africa/Lome",
    "latitude": 6.6,
    "longitude": 1.5
  },
  {
    "city": "Zébé",
    "city_zh": "Zébé",
    "country": "Togo",
    "country_zh": "多哥",
    "country_iso_code": "TG",
    "timezone": "Africa/Lome",
    "latitude": 6.6,
    "longitude": 1.03333
  },
  {
    "city": "Zébé",
    "city_zh": "Zébé",
    "country": "Togo",
    "country_zh": "多哥",
    "country_iso_code": "TG",
    "timezone": "Africa/Lome",
    "latitude": 6.25,
    "longitude": 1.61667
  },
  {
    "city": "Zawagou",
    "city_zh": "Zawagou",
    "country": "Togo",
    "country_zh": "多哥",
    "country_iso_code": "TG",
    "timezone": "Africa/Lome",
    "latitude": 10.13333,
    "longitude": 0.51667
  },
  {
    "city": "Zavé",
    "city_zh": "Zavé",
    "country": "Togo",
    "country_zh": "多哥",
    "country_iso_code": "TG",
    "timezone": "Africa/Lome",
    "latitude": 7.41667,
    "longitude": 1.08333
  },
  {
    "city": "Zanvé",
    "city_zh": "Zanvé",
    "country": "Togo",
    "country_zh": "多哥",
    "country_iso_code": "TG",
    "timezone": "Africa/Lome",
    "latitude": 6.28333,
    "longitude": 1.75
  },
  {
    "city": "Zamoué",
    "city_zh": "Zamoué",
    "country": "Togo",
    "country_zh": "多哥",
    "country_iso_code": "TG",
    "timezone": "Africa/Lome",
    "latitude": 7.61667,
    "longitude": 1.5
  },
  {
    "city": "Zalivé",
    "city_zh": "Zalivé",
    "country": "Togo",
    "country_zh": "多哥",
    "country_iso_code": "TG",
    "timezone": "Africa/Lome",
    "latitude": 6.25,
    "longitude": 1.6
  },
  {
    "city": "Yovovi Kondji",
    "city_zh": "Yovovi Kondji",
    "country": "Togo",
    "country_zh": "多哥",
    "country_iso_code": "TG",
    "timezone": "Africa/Lome",
    "latitude": 6.23333,
    "longitude": 1.66667
  },
  {
    "city": "Yovokodji",
    "city_zh": "Yovokodji",
    "country": "Togo",
    "country_zh": "多哥",
    "country_iso_code": "TG",
    "timezone": "Africa/Lome",
    "latitude": 7.71667,
    "longitude": 1.21667
  },
  {
    "city": "Youssakofé",
    "city_zh": "Youssakofé",
    "country": "Togo",
    "country_zh": "多哥",
    "country_iso_code": "TG",
    "timezone": "Africa/Lome",
    "latitude": 6.78333,
    "longitude": 0.58333
  },
  {
    "city": "Younabé",
    "city_zh": "Younabé",
    "country": "Togo",
    "country_zh": "多哥",
    "country_iso_code": "TG",
    "timezone": "Africa/Lome",
    "latitude": 7.35,
    "longitude": 0.91667
  },
  {
    "city": "Youabu",
    "city_zh": "Youabu",
    "country": "Togo",
    "country_zh": "多哥",
    "country_iso_code": "TG",
    "timezone": "Africa/Lome",
    "latitude": 10.95,
    "longitude": 0.08333
  },
  {
    "city": "Yoto Kopé",
    "city_zh": "Yoto Kopé",
    "country": "Togo",
    "country_zh": "多哥",
    "country_iso_code": "TG",
    "timezone": "Africa/Lome",
    "latitude": 6.7,
    "longitude": 1.31667
  },
  {
    "city": "Yoto",
    "city_zh": "Yoto",
    "country": "Togo",
    "country_zh": "多哥",
    "country_iso_code": "TG",
    "timezone": "Africa/Lome",
    "latitude": 6.48333,
    "longitude": 0.85
  },
  {
    "city": "Yosiou",
    "city_zh": "Yosiou",
    "country": "Togo",
    "country_zh": "多哥",
    "country_iso_code": "TG",
    "timezone": "Africa/Lome",
    "latitude": 7.1,
    "longitude": 0.8
  },
  {
    "city": "Yorokoudji",
    "city_zh": "Yorokoudji",
    "country": "Togo",
    "country_zh": "多哥",
    "country_iso_code": "TG",
    "timezone": "Africa/Lome",
    "latitude": 7.6,
    "longitude": 1.16667
  },
  {
    "city": "Yorokoto",
    "city_zh": "Yorokoto",
    "country": "Togo",
    "country_zh": "多哥",
    "country_iso_code": "TG",
    "timezone": "Africa/Lome",
    "latitude": 7.56667,
    "longitude": 1.26667
  },
  {
    "city": "Yorodo",
    "city_zh": "Yorodo",
    "country": "Togo",
    "country_zh": "多哥",
    "country_iso_code": "TG",
    "timezone": "Africa/Lome",
    "latitude": 6.65,
    "longitude": 0.98333
  },
  {
    "city": "Yoro Démadéli",
    "city_zh": "Yoro Démadéli",
    "country": "Togo",
    "country_zh": "多哥",
    "country_iso_code": "TG",
    "timezone": "Africa/Lome",
    "latitude": 7.6,
    "longitude": 1.13333
  },
  {
    "city": "Yoro",
    "city_zh": "Yoro",
    "country": "Togo",
    "country_zh": "多哥",
    "country_iso_code": "TG",
    "timezone": "Africa/Lome",
    "latitude": 10.9,
    "longitude": 0.75
  },
  {
    "city": "Yorhonou",
    "city_zh": "Yorhonou",
    "country": "Togo",
    "country_zh": "多哥",
    "country_iso_code": "TG",
    "timezone": "Africa/Lome",
    "latitude": 6.45,
    "longitude": 1.56667
  },
  {
    "city": "Yométié",
    "city_zh": "Yométié",
    "country": "Togo",
    "country_zh": "多哥",
    "country_iso_code": "TG",
    "timezone": "Africa/Lome",
    "latitude": 6.46667,
    "longitude": 0.98333
  },
  {
    "city": "Yométchin",
    "city_zh": "Yométchin",
    "country": "Togo",
    "country_zh": "多哥",
    "country_iso_code": "TG",
    "timezone": "Africa/Lome",
    "latitude": 6.47944,
    "longitude": 1.01167
  },
  {
    "city": "Yolikopé",
    "city_zh": "Yolikopé",
    "country": "Togo",
    "country_zh": "多哥",
    "country_iso_code": "TG",
    "timezone": "Africa/Lome",
    "latitude": 7.48333,
    "longitude": 1.3
  },
  {
    "city": "Yokoé",
    "city_zh": "Yokoé",
    "country": "Togo",
    "country_zh": "多哥",
    "country_iso_code": "TG",
    "timezone": "Africa/Lome",
    "latitude": 6.17583,
    "longitude": 1.14667
  },
  {
    "city": "Yokélé",
    "city_zh": "Yokélé",
    "country": "Togo",
    "country_zh": "多哥",
    "country_iso_code": "TG",
    "timezone": "Africa/Lome",
    "latitude": 6.95,
    "longitude": 0.66667
  },
  {
    "city": "Yobo",
    "city_zh": "Yobo",
    "country": "Togo",
    "country_zh": "多哥",
    "country_iso_code": "TG",
    "timezone": "Africa/Lome",
    "latitude": 6.41278,
    "longitude": 1.32889
  },
  {
    "city": "Yibouékopé",
    "city_zh": "Yibouékopé",
    "country": "Togo",
    "country_zh": "多哥",
    "country_iso_code": "TG",
    "timezone": "Africa/Lome",
    "latitude": 7.83333,
    "longitude": 1.2
  },
  {
    "city": "Yéyéhoué",
    "city_zh": "Yéyéhoué",
    "country": "Togo",
    "country_zh": "多哥",
    "country_iso_code": "TG",
    "timezone": "Africa/Lome",
    "latitude": 7.33333,
    "longitude": 1.55
  },
  {
    "city": "Yéviéfé",
    "city_zh": "Yéviéfé",
    "country": "Togo",
    "country_zh": "多哥",
    "country_iso_code": "TG",
    "timezone": "Africa/Lome",
    "latitude": 6.81667,
    "longitude": 0.58333
  },
  {
    "city": "Yérangué",
    "city_zh": "Yérangué",
    "country": "Togo",
    "country_zh": "多哥",
    "country_iso_code": "TG",
    "timezone": "Africa/Lome",
    "latitude": 10.75,
    "longitude": 0.25
  },
  {
    "city": "Yéoum",
    "city_zh": "Yéoum",
    "country": "Togo",
    "country_zh": "多哥",
    "country_iso_code": "TG",
    "timezone": "Africa/Lome",
    "latitude": 8.16667,
    "longitude": 1.03333
  },
  {
    "city": "Yéloum",
    "city_zh": "Yéloum",
    "country": "Togo",
    "country_zh": "多哥",
    "country_iso_code": "TG",
    "timezone": "Africa/Lome",
    "latitude": 8.1,
    "longitude": 0.98333
  },
  {
    "city": "Yélempa",
    "city_zh": "Yélempa",
    "country": "Togo",
    "country_zh": "多哥",
    "country_iso_code": "TG",
    "timezone": "Africa/Lome",
    "latitude": 8.9,
    "longitude": 1.58333
  },
  {
    "city": "Yekplékodji",
    "city_zh": "Yekplékodji",
    "country": "Togo",
    "country_zh": "多哥",
    "country_iso_code": "TG",
    "timezone": "Africa/Lome",
    "latitude": 6.46667,
    "longitude": 0.86667
  },
  {
    "city": "Yékou",
    "city_zh": "Yékou",
    "country": "Togo",
    "country_zh": "多哥",
    "country_iso_code": "TG",
    "timezone": "Africa/Lome",
    "latitude": 7.76667,
    "longitude": 1.13333
  },
  {
    "city": "Yégué",
    "city_zh": "Yégué",
    "country": "Togo",
    "country_zh": "多哥",
    "country_iso_code": "TG",
    "timezone": "Africa/Lome",
    "latitude": 8.18333,
    "longitude": 0.65
  },
  {
    "city": "Yébou Yébou",
    "city_zh": "Yébou Yébou",
    "country": "Togo",
    "country_zh": "多哥",
    "country_iso_code": "TG",
    "timezone": "Africa/Lome",
    "latitude": 8.05,
    "longitude": 1.38333
  },
  {
    "city": "Yayago",
    "city_zh": "Yayago",
    "country": "Togo",
    "country_zh": "多哥",
    "country_iso_code": "TG",
    "timezone": "Africa/Lome",
    "latitude": 10.73333,
    "longitude": 0.25
  },
  {
    "city": "Yawaka",
    "city_zh": "Yawaka",
    "country": "Togo",
    "country_zh": "多哥",
    "country_iso_code": "TG",
    "timezone": "Africa/Lome",
    "latitude": 9.76667,
    "longitude": 0.86667
  },
  {
    "city": "Yaré Yaré",
    "city_zh": "Yaré Yaré",
    "country": "Togo",
    "country_zh": "多哥",
    "country_iso_code": "TG",
    "timezone": "Africa/Lome",
    "latitude": 8.81667,
    "longitude": 1.08333
  },
  {
    "city": "Yaré Kabré",
    "city_zh": "Yaré Kabré",
    "country": "Togo",
    "country_zh": "多哥",
    "country_iso_code": "TG",
    "timezone": "Africa/Lome",
    "latitude": 8.8,
    "longitude": 1.08333
  },
  {
    "city": "Yapoutando",
    "city_zh": "Yapoutando",
    "country": "Togo",
    "country_zh": "多哥",
    "country_iso_code": "TG",
    "timezone": "Africa/Lome",
    "latitude": 9.8,
    "longitude": 0.45
  },
  {
    "city": "Yaouté",
    "city_zh": "Yaouté",
    "country": "Togo",
    "country_zh": "多哥",
    "country_iso_code": "TG",
    "timezone": "Africa/Lome",
    "latitude": 9.7,
    "longitude": 0.96667
  },
  {
    "city": "Yaokopé",
    "city_zh": "Yaokopé",
    "country": "Togo",
    "country_zh": "多哥",
    "country_iso_code": "TG",
    "timezone": "Africa/Lome",
    "latitude": 8.86667,
    "longitude": 1.08333
  },
  {
    "city": "Yaokopé",
    "city_zh": "Yaokopé",
    "country": "Togo",
    "country_zh": "多哥",
    "country_iso_code": "TG",
    "timezone": "Africa/Lome",
    "latitude": 7.51667,
    "longitude": 1.03333
  },
  {
    "city": "Yanyane",
    "city_zh": "Yanyane",
    "country": "Togo",
    "country_zh": "多哥",
    "country_iso_code": "TG",
    "timezone": "Africa/Lome",
    "latitude": 10.83333,
    "longitude": 0.15
  },
  {
    "city": "Yanou Kopé",
    "city_zh": "Yanou Kopé",
    "country": "Togo",
    "country_zh": "多哥",
    "country_iso_code": "TG",
    "timezone": "Africa/Lome",
    "latitude": 6.55,
    "longitude": 1.5
  },
  {
    "city": "Yankassia",
    "city_zh": "Yankassia",
    "country": "Togo",
    "country_zh": "多哥",
    "country_iso_code": "TG",
    "timezone": "Africa/Lome",
    "latitude": 9.06667,
    "longitude": 0.63333
  },
  {
    "city": "Yamboul",
    "city_zh": "Yamboul",
    "country": "Togo",
    "country_zh": "多哥",
    "country_iso_code": "TG",
    "timezone": "Africa/Lome",
    "latitude": 10.53333,
    "longitude": 0.15
  },
  {
    "city": "Yalla",
    "city_zh": "Yalla",
    "country": "Togo",
    "country_zh": "多哥",
    "country_iso_code": "TG",
    "timezone": "Africa/Lome",
    "latitude": 7.65,
    "longitude": 1.01667
  },
  {
    "city": "Yala",
    "city_zh": "Yala",
    "country": "Togo",
    "country_zh": "多哥",
    "country_iso_code": "TG",
    "timezone": "Africa/Lome",
    "latitude": 7.78333,
    "longitude": 0.75
  },
  {
    "city": "Yakoubokopé",
    "city_zh": "Yakoubokopé",
    "country": "Togo",
    "country_zh": "多哥",
    "country_iso_code": "TG",
    "timezone": "Africa/Lome",
    "latitude": 7.35,
    "longitude": 1.15
  },
  {
    "city": "Yakassi",
    "city_zh": "Yakassi",
    "country": "Togo",
    "country_zh": "多哥",
    "country_iso_code": "TG",
    "timezone": "Africa/Lome",
    "latitude": 9.38333,
    "longitude": 0.6
  },
  {
    "city": "Yaka",
    "city_zh": "Yaka",
    "country": "Togo",
    "country_zh": "多哥",
    "country_iso_code": "TG",
    "timezone": "Africa/Lome",
    "latitude": 9.73333,
    "longitude": 1.1
  },
  {
    "city": "Yaka",
    "city_zh": "Yaka",
    "country": "Togo",
    "country_zh": "多哥",
    "country_iso_code": "TG",
    "timezone": "Africa/Lome",
    "latitude": 9.65,
    "longitude": 0.95
  },
  {
    "city": "Yaka",
    "city_zh": "Yaka",
    "country": "Togo",
    "country_zh": "多哥",
    "country_iso_code": "TG",
    "timezone": "Africa/Lome",
    "latitude": 9.48333,
    "longitude": 1.05
  },
  {
    "city": "Yagou",
    "city_zh": "Yagou",
    "country": "Togo",
    "country_zh": "多哥",
    "country_iso_code": "TG",
    "timezone": "Africa/Lome",
    "latitude": 10.73333,
    "longitude": 0.66667
  },
  {
    "city": "Yagou",
    "city_zh": "Yagou",
    "country": "Togo",
    "country_zh": "多哥",
    "country_iso_code": "TG",
    "timezone": "Africa/Lome",
    "latitude": 10.7,
    "longitude": 0.65
  },
  {
    "city": "Yadékopé",
    "city_zh": "Yadékopé",
    "country": "Togo",
    "country_zh": "多哥",
    "country_iso_code": "TG",
    "timezone": "Africa/Lome",
    "latitude": 8.05,
    "longitude": 1.03333
  },
  {
    "city": "Yadé",
    "city_zh": "Yadé",
    "country": "Togo",
    "country_zh": "多哥",
    "country_iso_code": "TG",
    "timezone": "Africa/Lome",
    "latitude": 9.61111,
    "longitude": 1.15333
  },
  {
    "city": "Yadé",
    "city_zh": "Yadé",
    "country": "Togo",
    "country_zh": "多哥",
    "country_iso_code": "TG",
    "timezone": "Africa/Lome",
    "latitude": 8.03333,
    "longitude": 1.03333
  },
  {
    "city": "Yadé",
    "city_zh": "Yadé",
    "country": "Togo",
    "country_zh": "多哥",
    "country_iso_code": "TG",
    "timezone": "Africa/Lome",
    "latitude": 7.71667,
    "longitude": 0.65
  },
  {
    "city": "Yachiboulé",
    "city_zh": "Yachiboulé",
    "country": "Togo",
    "country_zh": "多哥",
    "country_iso_code": "TG",
    "timezone": "Africa/Lome",
    "latitude": 9.26667,
    "longitude": 0.55
  },
  {
    "city": "Yabido",
    "city_zh": "Yabido",
    "country": "Togo",
    "country_zh": "多哥",
    "country_iso_code": "TG",
    "timezone": "Africa/Lome",
    "latitude": 9.93333,
    "longitude": 0.38333
  },
  {
    "city": "Yabdouaré",
    "city_zh": "Yabdouaré",
    "country": "Togo",
    "country_zh": "多哥",
    "country_iso_code": "TG",
    "timezone": "Africa/Lome",
    "latitude": 10.95,
    "longitude": 0.61667
  },
  {
    "city": "Yabangolé",
    "city_zh": "Yabangolé",
    "country": "Togo",
    "country_zh": "多哥",
    "country_iso_code": "TG",
    "timezone": "Africa/Lome",
    "latitude": 10.15,
    "longitude": 0.56667
  },
  {
    "city": "Woumé",
    "city_zh": "Woumé",
    "country": "Togo",
    "country_zh": "多哥",
    "country_iso_code": "TG",
    "timezone": "Africa/Lome",
    "latitude": 6.98333,
    "longitude": 0.65
  },
  {
    "city": "Wouley",
    "city_zh": "Wouley",
    "country": "Togo",
    "country_zh": "多哥",
    "country_iso_code": "TG",
    "timezone": "Africa/Lome",
    "latitude": 6.91667,
    "longitude": 1.08333
  },
  {
    "city": "Wouhokoué",
    "city_zh": "Wouhokoué",
    "country": "Togo",
    "country_zh": "多哥",
    "country_iso_code": "TG",
    "timezone": "Africa/Lome",
    "latitude": 6.86667,
    "longitude": 0.93333
  },
  {
    "city": "Wotokou",
    "city_zh": "Wotokou",
    "country": "Togo",
    "country_zh": "多哥",
    "country_iso_code": "TG",
    "timezone": "Africa/Lome",
    "latitude": 6.75,
    "longitude": 0.66667
  },
  {
    "city": "Wonyomé",
    "city_zh": "Wonyomé",
    "country": "Togo",
    "country_zh": "多哥",
    "country_iso_code": "TG",
    "timezone": "Africa/Lome",
    "latitude": 6.18806,
    "longitude": 1.15
  },
  {
    "city": "Wonougba Séva",
    "city_zh": "Wonougba Séva",
    "country": "Togo",
    "country_zh": "多哥",
    "country_iso_code": "TG",
    "timezone": "Africa/Lome",
    "latitude": 6.75,
    "longitude": 0.88333
  },
  {
    "city": "Wonougba",
    "city_zh": "Wonougba",
    "country": "Togo",
    "country_zh": "多哥",
    "country_iso_code": "TG",
    "timezone": "Africa/Lome",
    "latitude": 6.75,
    "longitude": 0.91667
  },
  {
    "city": "Womé",
    "city_zh": "Womé",
    "country": "Togo",
    "country_zh": "多哥",
    "country_iso_code": "TG",
    "timezone": "Africa/Lome",
    "latitude": 6.85,
    "longitude": 0.56667
  },
  {
    "city": "Wo Kopé",
    "city_zh": "Wo Kopé",
    "country": "Togo",
    "country_zh": "多哥",
    "country_iso_code": "TG",
    "timezone": "Africa/Lome",
    "latitude": 6.51667,
    "longitude": 0.75
  },
  {
    "city": "Wokon",
    "city_zh": "Wokon",
    "country": "Togo",
    "country_zh": "多哥",
    "country_iso_code": "TG",
    "timezone": "Africa/Lome",
    "latitude": 10.78333,
    "longitude": 0.73333
  },
  {
    "city": "Warkambou",
    "city_zh": "Warkambou",
    "country": "Togo",
    "country_zh": "多哥",
    "country_iso_code": "TG",
    "timezone": "Africa/Lome",
    "latitude": 10.80194,
    "longitude": -0.01306
  },
  {
    "city": "Wodou",
    "city_zh": "Wodou",
    "country": "Togo",
    "country_zh": "多哥",
    "country_iso_code": "TG",
    "timezone": "Africa/Lome",
    "latitude": 6.51667,
    "longitude": 1.16667
  },
  {
    "city": "Wihoté",
    "city_zh": "Wihoté",
    "country": "Togo",
    "country_zh": "多哥",
    "country_iso_code": "TG",
    "timezone": "Africa/Lome",
    "latitude": 9.98333,
    "longitude": 0.93333
  },
  {
    "city": "Wianné",
    "city_zh": "Wianné",
    "country": "Togo",
    "country_zh": "多哥",
    "country_iso_code": "TG",
    "timezone": "Africa/Lome",
    "latitude": 9.96667,
    "longitude": 1.25
  },
  {
    "city": "Wéripi",
    "city_zh": "Wéripi",
    "country": "Togo",
    "country_zh": "多哥",
    "country_iso_code": "TG",
    "timezone": "Africa/Lome",
    "latitude": 9.51667,
    "longitude": 0.48333
  },
  {
    "city": "Wéripi",
    "city_zh": "Wéripi",
    "country": "Togo",
    "country_zh": "多哥",
    "country_iso_code": "TG",
    "timezone": "Africa/Lome",
    "latitude": 9.5,
    "longitude": 0.48333
  },
  {
    "city": "Wélou",
    "city_zh": "Wélou",
    "country": "Togo",
    "country_zh": "多哥",
    "country_iso_code": "TG",
    "timezone": "Africa/Lome",
    "latitude": 9.51667,
    "longitude": 1.16667
  },
  {
    "city": "Wédémé",
    "city_zh": "Wédémé",
    "country": "Togo",
    "country_zh": "多哥",
    "country_iso_code": "TG",
    "timezone": "Africa/Lome",
    "latitude": 6.95,
    "longitude": 1.3
  },
  {
    "city": "Waya",
    "city_zh": "Waya",
    "country": "Togo",
    "country_zh": "多哥",
    "country_iso_code": "TG",
    "timezone": "Africa/Lome",
    "latitude": 9.48333,
    "longitude": 1.08333
  },
  {
    "city": "Wato",
    "city_zh": "Wato",
    "country": "Togo",
    "country_zh": "多哥",
    "country_iso_code": "TG",
    "timezone": "Africa/Lome",
    "latitude": 6.56667,
    "longitude": 1.1
  },
  {
    "city": "Watalangue",
    "city_zh": "Watalangue",
    "country": "Togo",
    "country_zh": "多哥",
    "country_iso_code": "TG",
    "timezone": "Africa/Lome",
    "latitude": 9.36667,
    "longitude": 1.06667
  },
  {
    "city": "Wassouké",
    "city_zh": "Wassouké",
    "country": "Togo",
    "country_zh": "多哥",
    "country_iso_code": "TG",
    "timezone": "Africa/Lome",
    "latitude": 6.31111,
    "longitude": 1.26389
  },
  {
    "city": "Wasséra Kadéro",
    "city_zh": "Wasséra Kadéro",
    "country": "Togo",
    "country_zh": "多哥",
    "country_iso_code": "TG",
    "timezone": "Africa/Lome",
    "latitude": 9.08333,
    "longitude": 1.26667
  },
  {
    "city": "Wassara Bo",
    "city_zh": "Wassara Bo",
    "country": "Togo",
    "country_zh": "多哥",
    "country_iso_code": "TG",
    "timezone": "Africa/Lome",
    "latitude": 9.0,
    "longitude": 1.25
  },
  {
    "city": "Warté",
    "city_zh": "Warté",
    "country": "Togo",
    "country_zh": "多哥",
    "country_iso_code": "TG",
    "timezone": "Africa/Lome",
    "latitude": 9.9,
    "longitude": 0.93333
  },
  {
    "city": "Warké",
    "city_zh": "Warké",
    "country": "Togo",
    "country_zh": "多哥",
    "country_iso_code": "TG",
    "timezone": "Africa/Lome",
    "latitude": 10.73333,
    "longitude": 0.01667
  },
  {
    "city": "Wapambouni",
    "city_zh": "Wapambouni",
    "country": "Togo",
    "country_zh": "多哥",
    "country_iso_code": "TG",
    "timezone": "Africa/Lome",
    "latitude": 9.56667,
    "longitude": 0.43333
  },
  {
    "city": "Wania",
    "city_zh": "Wania",
    "country": "Togo",
    "country_zh": "多哥",
    "country_iso_code": "TG",
    "timezone": "Africa/Lome",
    "latitude": 10.95,
    "longitude": 0.05
  },
  {
    "city": "Wango",
    "city_zh": "Wango",
    "country": "Togo",
    "country_zh": "多哥",
    "country_iso_code": "TG",
    "timezone": "Africa/Lome",
    "latitude": 9.81667,
    "longitude": 0.8
  },
  {
    "city": "Wangbane",
    "city_zh": "Wangbane",
    "country": "Togo",
    "country_zh": "多哥",
    "country_iso_code": "TG",
    "timezone": "Africa/Lome",
    "latitude": 10.85,
    "longitude": 0.05
  },
  {
    "city": "Wangbalé",
    "city_zh": "Wangbalé",
    "country": "Togo",
    "country_zh": "多哥",
    "country_iso_code": "TG",
    "timezone": "Africa/Lome",
    "latitude": 10.0,
    "longitude": 0.38333
  },
  {
    "city": "Wangbalé",
    "city_zh": "Wangbalé",
    "country": "Togo",
    "country_zh": "多哥",
    "country_iso_code": "TG",
    "timezone": "Africa/Lome",
    "latitude": 9.75,
    "longitude": 0.75
  },
  {
    "city": "Wandé Nadoum",
    "city_zh": "Wandé Nadoum",
    "country": "Togo",
    "country_zh": "多哥",
    "country_iso_code": "TG",
    "timezone": "Africa/Lome",
    "latitude": 10.01667,
    "longitude": 0.4
  },
  {
    "city": "Wandégué",
    "city_zh": "Wandégué",
    "country": "Togo",
    "country_zh": "多哥",
    "country_iso_code": "TG",
    "timezone": "Africa/Lome",
    "latitude": 10.43333,
    "longitude": 0.26667
  },
  {
    "city": "Waman",
    "city_zh": "Waman",
    "country": "Togo",
    "country_zh": "多哥",
    "country_iso_code": "TG",
    "timezone": "Africa/Lome",
    "latitude": 9.36667,
    "longitude": 0.7
  },
  {
    "city": "Waladé",
    "city_zh": "Waladé",
    "country": "Togo",
    "country_zh": "多哥",
    "country_iso_code": "TG",
    "timezone": "Africa/Lome",
    "latitude": 9.95,
    "longitude": 1.2
  },
  {
    "city": "Waladé",
    "city_zh": "Waladé",
    "country": "Togo",
    "country_zh": "多哥",
    "country_iso_code": "TG",
    "timezone": "Africa/Lome",
    "latitude": 9.85,
    "longitude": 1.06667
  },
  {
    "city": "Wakadé",
    "city_zh": "Wakadé",
    "country": "Togo",
    "country_zh": "多哥",
    "country_iso_code": "TG",
    "timezone": "Africa/Lome",
    "latitude": 9.46667,
    "longitude": 0.93333
  },
  {
    "city": "Wakadé",
    "city_zh": "Wakadé",
    "country": "Togo",
    "country_zh": "多哥",
    "country_iso_code": "TG",
    "timezone": "Africa/Lome",
    "latitude": 9.41667,
    "longitude": 0.93333
  },
  {
    "city": "Wagante",
    "city_zh": "Wagante",
    "country": "Togo",
    "country_zh": "多哥",
    "country_iso_code": "TG",
    "timezone": "Africa/Lome",
    "latitude": 10.86667,
    "longitude": 0.1
  },
  {
    "city": "Wagam",
    "city_zh": "Wagam",
    "country": "Togo",
    "country_zh": "多哥",
    "country_iso_code": "TG",
    "timezone": "Africa/Lome",
    "latitude": 9.66667,
    "longitude": 0.56667
  },
  {
    "city": "Wadiado",
    "city_zh": "Wadiado",
    "country": "Togo",
    "country_zh": "多哥",
    "country_iso_code": "TG",
    "timezone": "Africa/Lome",
    "latitude": 9.65,
    "longitude": 0.53333
  },
  {
    "city": "Wadandé",
    "city_zh": "Wadandé",
    "country": "Togo",
    "country_zh": "多哥",
    "country_iso_code": "TG",
    "timezone": "Africa/Lome",
    "latitude": 9.26667,
    "longitude": 0.76667
  },
  {
    "city": "Wabounian",
    "city_zh": "Wabounian",
    "country": "Togo",
    "country_zh": "多哥",
    "country_iso_code": "TG",
    "timezone": "Africa/Lome",
    "latitude": 9.76667,
    "longitude": 0.53333
  },
  {
    "city": "Vouto",
    "city_zh": "Vouto",
    "country": "Togo",
    "country_zh": "多哥",
    "country_iso_code": "TG",
    "timezone": "Africa/Lome",
    "latitude": 6.45,
    "longitude": 0.93333
  },
  {
    "city": "Voutégblé",
    "city_zh": "Voutégblé",
    "country": "Togo",
    "country_zh": "多哥",
    "country_iso_code": "TG",
    "timezone": "Africa/Lome",
    "latitude": 6.71667,
    "longitude": 0.85
  },
  {
    "city": "Voumé",
    "city_zh": "Voumé",
    "country": "Togo",
    "country_zh": "多哥",
    "country_iso_code": "TG",
    "timezone": "Africa/Lome",
    "latitude": 6.31667,
    "longitude": 1.06667
  },
  {
    "city": "Voulè Kopé",
    "city_zh": "Voulè Kopé",
    "country": "Togo",
    "country_zh": "多哥",
    "country_iso_code": "TG",
    "timezone": "Africa/Lome",
    "latitude": 6.66667,
    "longitude": 1.3
  },
  {
    "city": "Voukpo",
    "city_zh": "Voukpo",
    "country": "Togo",
    "country_zh": "多哥",
    "country_iso_code": "TG",
    "timezone": "Africa/Lome",
    "latitude": 6.68333,
    "longitude": 0.85
  },
  {
    "city": "Voukpé",
    "city_zh": "Voukpé",
    "country": "Togo",
    "country_zh": "多哥",
    "country_iso_code": "TG",
    "timezone": "Africa/Lome",
    "latitude": 6.56667,
    "longitude": 1.2
  },
  {
    "city": "Voui",
    "city_zh": "Voui",
    "country": "Togo",
    "country_zh": "多哥",
    "country_iso_code": "TG",
    "timezone": "Africa/Lome",
    "latitude": 6.41667,
    "longitude": 0.95
  },
  {
    "city": "Voudoukopé",
    "city_zh": "Voudoukopé",
    "country": "Togo",
    "country_zh": "多哥",
    "country_iso_code": "TG",
    "timezone": "Africa/Lome",
    "latitude": 6.75,
    "longitude": 1.1
  },
  {
    "city": "Voudjagblé",
    "city_zh": "Voudjagblé",
    "country": "Togo",
    "country_zh": "多哥",
    "country_iso_code": "TG",
    "timezone": "Africa/Lome",
    "latitude": 6.38333,
    "longitude": 1.51667
  },
  {
    "city": "Vou Apéga",
    "city_zh": "Vou Apéga",
    "country": "Togo",
    "country_zh": "多哥",
    "country_iso_code": "TG",
    "timezone": "Africa/Lome",
    "latitude": 7.53333,
    "longitude": 1.05
  },
  {
    "city": "Vou",
    "city_zh": "Vou",
    "country": "Togo",
    "country_zh": "多哥",
    "country_iso_code": "TG",
    "timezone": "Africa/Lome",
    "latitude": 7.53333,
    "longitude": 1.03333
  },
  {
    "city": "Votromé",
    "city_zh": "Votromé",
    "country": "Togo",
    "country_zh": "多哥",
    "country_iso_code": "TG",
    "timezone": "Africa/Lome",
    "latitude": 6.81667,
    "longitude": 0.78333
  },
  {
    "city": "Vo Tokpli",
    "city_zh": "Vo Tokpli",
    "country": "Togo",
    "country_zh": "多哥",
    "country_iso_code": "TG",
    "timezone": "Africa/Lome",
    "latitude": 6.36667,
    "longitude": 1.56667
  },
  {
    "city": "Vontou",
    "city_zh": "Vontou",
    "country": "Togo",
    "country_zh": "多哥",
    "country_iso_code": "TG",
    "timezone": "Africa/Lome",
    "latitude": 6.53333,
    "longitude": 1.68333
  },
  {
    "city": "Vonougba",
    "city_zh": "Vonougba",
    "country": "Togo",
    "country_zh": "多哥",
    "country_iso_code": "TG",
    "timezone": "Africa/Lome",
    "latitude": 6.41667,
    "longitude": 1.03333
  },
  {
    "city": "Voméno Kopé",
    "city_zh": "Voméno Kopé",
    "country": "Togo",
    "country_zh": "多哥",
    "country_iso_code": "TG",
    "timezone": "Africa/Lome",
    "latitude": 6.7,
    "longitude": 0.66667
  },
  {
    "city": "Volové",
    "city_zh": "Volové",
    "country": "Togo",
    "country_zh": "多哥",
    "country_iso_code": "TG",
    "timezone": "Africa/Lome",
    "latitude": 6.88333,
    "longitude": 0.61667
  },
  {
    "city": "Vo Koutimé",
    "city_zh": "Vo Koutimé",
    "country": "Togo",
    "country_zh": "多哥",
    "country_iso_code": "TG",
    "timezone": "Africa/Lome",
    "latitude": 6.36667,
    "longitude": 1.56667
  },
  {
    "city": "Vogba",
    "city_zh": "Vogba",
    "country": "Togo",
    "country_zh": "多哥",
    "country_iso_code": "TG",
    "timezone": "Africa/Lome",
    "latitude": 6.28333,
    "longitude": 1.51667
  },
  {
    "city": "Vogan",
    "city_zh": "Vogan",
    "country": "Togo",
    "country_zh": "多哥",
    "country_iso_code": "TG",
    "timezone": "Africa/Lome",
    "latitude": 6.33333,
    "longitude": 1.53333
  },
  {
    "city": "Voévé",
    "city_zh": "Voévé",
    "country": "Togo",
    "country_zh": "多哥",
    "country_iso_code": "TG",
    "timezone": "Africa/Lome",
    "latitude": 6.38333,
    "longitude": 1.23333
  },
  {
    "city": "Vodomé Gbétounou",
    "city_zh": "Vodomé Gbétounou",
    "country": "Togo",
    "country_zh": "多哥",
    "country_iso_code": "TG",
    "timezone": "Africa/Lome",
    "latitude": 6.43333,
    "longitude": 1.78333
  },
  {
    "city": "Vodomé",
    "city_zh": "Vodomé",
    "country": "Togo",
    "country_zh": "多哥",
    "country_iso_code": "TG",
    "timezone": "Africa/Lome",
    "latitude": 6.35,
    "longitude": 0.93333
  },
  {
    "city": "Vodjé",
    "city_zh": "Vodjé",
    "country": "Togo",
    "country_zh": "多哥",
    "country_iso_code": "TG",
    "timezone": "Africa/Lome",
    "latitude": 6.40611,
    "longitude": 1.39917
  },
  {
    "city": "Vo Ativé",
    "city_zh": "Vo Ativé",
    "country": "Togo",
    "country_zh": "多哥",
    "country_iso_code": "TG",
    "timezone": "Africa/Lome",
    "latitude": 6.41667,
    "longitude": 1.5
  },
  {
    "city": "Vo Asso",
    "city_zh": "Vo Asso",
    "country": "Togo",
    "country_zh": "多哥",
    "country_iso_code": "TG",
    "timezone": "Africa/Lome",
    "latitude": 6.48917,
    "longitude": 1.47417
  },
  {
    "city": "Witi",
    "city_zh": "Witi",
    "country": "Togo",
    "country_zh": "多哥",
    "country_iso_code": "TG",
    "timezone": "Africa/Lome",
    "latitude": 6.16056,
    "longitude": 1.23333
  },
  {
    "city": "Vévé",
    "city_zh": "Vévé",
    "country": "Togo",
    "country_zh": "多哥",
    "country_iso_code": "TG",
    "timezone": "Africa/Lome",
    "latitude": 6.65,
    "longitude": 1.0
  },
  {
    "city": "Venkounia",
    "city_zh": "Venkounia",
    "country": "Togo",
    "country_zh": "多哥",
    "country_iso_code": "TG",
    "timezone": "Africa/Lome",
    "latitude": 7.66667,
    "longitude": 0.73333
  },
  {
    "city": "Végouémé",
    "city_zh": "Végouémé",
    "country": "Togo",
    "country_zh": "多哥",
    "country_iso_code": "TG",
    "timezone": "Africa/Lome",
    "latitude": 6.38333,
    "longitude": 1.23333
  },
  {
    "city": "Vedomé",
    "city_zh": "Vedomé",
    "country": "Togo",
    "country_zh": "多哥",
    "country_iso_code": "TG",
    "timezone": "Africa/Lome",
    "latitude": 6.83333,
    "longitude": 1.0
  },
  {
    "city": "Védékou",
    "city_zh": "Védékou",
    "country": "Togo",
    "country_zh": "多哥",
    "country_iso_code": "TG",
    "timezone": "Africa/Lome",
    "latitude": 6.43333,
    "longitude": 1.28333
  },
  {
    "city": "Vamatchi",
    "city_zh": "Vamatchi",
    "country": "Togo",
    "country_zh": "多哥",
    "country_iso_code": "TG",
    "timezone": "Africa/Lome",
    "latitude": 6.44694,
    "longitude": 1.14667
  },
  {
    "city": "Valoufou",
    "city_zh": "Valoufou",
    "country": "Togo",
    "country_zh": "多哥",
    "country_iso_code": "TG",
    "timezone": "Africa/Lome",
    "latitude": 6.51667,
    "longitude": 1.13333
  },
  {
    "city": "Valakopé",
    "city_zh": "Valakopé",
    "country": "Togo",
    "country_zh": "多哥",
    "country_iso_code": "TG",
    "timezone": "Africa/Lome",
    "latitude": 6.37444,
    "longitude": 1.13083
  },
  {
    "city": "Vakpo",
    "city_zh": "Vakpo",
    "country": "Togo",
    "country_zh": "多哥",
    "country_iso_code": "TG",
    "timezone": "Africa/Lome",
    "latitude": 6.55,
    "longitude": 0.76667
  },
  {
    "city": "Vakpo",
    "city_zh": "Vakpo",
    "country": "Togo",
    "country_zh": "多哥",
    "country_iso_code": "TG",
    "timezone": "Africa/Lome",
    "latitude": 6.43333,
    "longitude": 0.95
  },
  {
    "city": "Vakpo",
    "city_zh": "Vakpo",
    "country": "Togo",
    "country_zh": "多哥",
    "country_iso_code": "TG",
    "timezone": "Africa/Lome",
    "latitude": 6.21333,
    "longitude": 1.15722
  },
  {
    "city": "Tyélakopé",
    "city_zh": "Tyélakopé",
    "country": "Togo",
    "country_zh": "多哥",
    "country_iso_code": "TG",
    "timezone": "Africa/Lome",
    "latitude": 7.2,
    "longitude": 1.4
  },
  {
    "city": "Tyaloumikopé",
    "city_zh": "Tyaloumikopé",
    "country": "Togo",
    "country_zh": "多哥",
    "country_iso_code": "TG",
    "timezone": "Africa/Lome",
    "latitude": 7.31667,
    "longitude": 1.2
  },
  {
    "city": "Tyaloum",
    "city_zh": "Tyaloum",
    "country": "Togo",
    "country_zh": "多哥",
    "country_iso_code": "TG",
    "timezone": "Africa/Lome",
    "latitude": 7.31667,
    "longitude": 1.2
  },
  {
    "city": "Tuandi",
    "city_zh": "Tuandi",
    "country": "Togo",
    "country_zh": "多哥",
    "country_iso_code": "TG",
    "timezone": "Africa/Lome",
    "latitude": 10.78333,
    "longitude": 0.85
  },
  {
    "city": "Tsriravokoué",
    "city_zh": "Tsriravokoué",
    "country": "Togo",
    "country_zh": "多哥",
    "country_iso_code": "TG",
    "timezone": "Africa/Lome",
    "latitude": 6.88333,
    "longitude": 1.01667
  },
  {
    "city": "Tsologou",
    "city_zh": "Tsologou",
    "country": "Togo",
    "country_zh": "多哥",
    "country_iso_code": "TG",
    "timezone": "Africa/Lome",
    "latitude": 6.38333,
    "longitude": 1.3
  },
  {
    "city": "Tsiviépé",
    "city_zh": "Tsiviépé",
    "country": "Togo",
    "country_zh": "多哥",
    "country_iso_code": "TG",
    "timezone": "Africa/Lome",
    "latitude": 6.41667,
    "longitude": 0.91667
  },
  {
    "city": "Tsivé",
    "city_zh": "Tsivé",
    "country": "Togo",
    "country_zh": "多哥",
    "country_iso_code": "TG",
    "timezone": "Africa/Lome",
    "latitude": 6.33667,
    "longitude": 1.07722
  },
  {
    "city": "Tsipé",
    "city_zh": "Tsipé",
    "country": "Togo",
    "country_zh": "多哥",
    "country_iso_code": "TG",
    "timezone": "Africa/Lome",
    "latitude": 6.65,
    "longitude": 0.93333
  },
  {
    "city": "Tsinngoé",
    "city_zh": "Tsinngoé",
    "country": "Togo",
    "country_zh": "多哥",
    "country_iso_code": "TG",
    "timezone": "Africa/Lome",
    "latitude": 6.53333,
    "longitude": 1.08333
  },
  {
    "city": "Tsikplonou",
    "city_zh": "Tsikplonou",
    "country": "Togo",
    "country_zh": "多哥",
    "country_iso_code": "TG",
    "timezone": "Africa/Lome",
    "latitude": 6.35,
    "longitude": 1.23333
  },
  {
    "city": "Tsikoé",
    "city_zh": "Tsikoé",
    "country": "Togo",
    "country_zh": "多哥",
    "country_iso_code": "TG",
    "timezone": "Africa/Lome",
    "latitude": 6.71667,
    "longitude": 0.68333
  },
  {
    "city": "Tsiko",
    "city_zh": "Tsiko",
    "country": "Togo",
    "country_zh": "多哥",
    "country_iso_code": "TG",
    "timezone": "Africa/Lome",
    "latitude": 7.11667,
    "longitude": 0.71667
  },
  {
    "city": "Tséviétokopé",
    "city_zh": "Tséviétokopé",
    "country": "Togo",
    "country_zh": "多哥",
    "country_iso_code": "TG",
    "timezone": "Africa/Lome",
    "latitude": 6.53333,
    "longitude": 1.15
  },
  {
    "city": "Tsévié",
    "city_zh": "策維埃",
    "country": "Togo",
    "country_zh": "多哥",
    "country_iso_code": "TG",
    "timezone": "Africa/Lome",
    "latitude": 6.42611,
    "longitude": 1.21333
  },
  {
    "city": "Tséva",
    "city_zh": "Tséva",
    "country": "Togo",
    "country_zh": "多哥",
    "country_iso_code": "TG",
    "timezone": "Africa/Lome",
    "latitude": 6.86667,
    "longitude": 1.13333
  },
  {
    "city": "Tsétsé Kopé",
    "city_zh": "Tsétsé Kopé",
    "country": "Togo",
    "country_zh": "多哥",
    "country_iso_code": "TG",
    "timezone": "Africa/Lome",
    "latitude": 6.71667,
    "longitude": 0.65
  },
  {
    "city": "Tsavié",
    "city_zh": "Tsavié",
    "country": "Togo",
    "country_zh": "多哥",
    "country_iso_code": "TG",
    "timezone": "Africa/Lome",
    "latitude": 7.18333,
    "longitude": 0.76667
  },
  {
    "city": "Tsamé",
    "city_zh": "Tsamé",
    "country": "Togo",
    "country_zh": "多哥",
    "country_iso_code": "TG",
    "timezone": "Africa/Lome",
    "latitude": 6.95,
    "longitude": 0.63333
  },
  {
    "city": "Tsamé",
    "city_zh": "Tsamé",
    "country": "Togo",
    "country_zh": "多哥",
    "country_iso_code": "TG",
    "timezone": "Africa/Lome",
    "latitude": 6.32306,
    "longitude": 1.34611
  },
  {
    "city": "Tsamanyé",
    "city_zh": "Tsamanyé",
    "country": "Togo",
    "country_zh": "多哥",
    "country_iso_code": "TG",
    "timezone": "Africa/Lome",
    "latitude": 6.61667,
    "longitude": 0.75
  },
  {
    "city": "Tsagba",
    "city_zh": "Tsagba",
    "country": "Togo",
    "country_zh": "多哥",
    "country_iso_code": "TG",
    "timezone": "Africa/Lome",
    "latitude": 6.98333,
    "longitude": 1.33333
  },
  {
    "city": "Trémahonlé",
    "city_zh": "Trémahonlé",
    "country": "Togo",
    "country_zh": "多哥",
    "country_iso_code": "TG",
    "timezone": "Africa/Lome",
    "latitude": 6.91667,
    "longitude": 1.28333
  },
  {
    "city": "Tovouganou",
    "city_zh": "Tovouganou",
    "country": "Togo",
    "country_zh": "多哥",
    "country_iso_code": "TG",
    "timezone": "Africa/Lome",
    "latitude": 6.27917,
    "longitude": 1.1925
  },
  {
    "city": "Tové Kpedji",
    "city_zh": "Tové Kpedji",
    "country": "Togo",
    "country_zh": "多哥",
    "country_iso_code": "TG",
    "timezone": "Africa/Lome",
    "latitude": 6.46667,
    "longitude": 0.8
  },
  {
    "city": "Tovégblé",
    "city_zh": "Tovégblé",
    "country": "Togo",
    "country_zh": "多哥",
    "country_iso_code": "TG",
    "timezone": "Africa/Lome",
    "latitude": 6.28639,
    "longitude": 1.14222
  },
  {
    "city": "Tovégblé",
    "city_zh": "Tovégblé",
    "country": "Togo",
    "country_zh": "多哥",
    "country_iso_code": "TG",
    "timezone": "Africa/Lome",
    "latitude": 6.28333,
    "longitude": 1.11667
  },
  {
    "city": "Tovégan",
    "city_zh": "Tovégan",
    "country": "Togo",
    "country_zh": "多哥",
    "country_iso_code": "TG",
    "timezone": "Africa/Lome",
    "latitude": 6.56667,
    "longitude": 0.9
  },
  {
    "city": "Tové",
    "city_zh": "Tové",
    "country": "Togo",
    "country_zh": "多哥",
    "country_iso_code": "TG",
    "timezone": "Africa/Lome",
    "latitude": 6.88333,
    "longitude": 0.65
  },
  {
    "city": "Tové",
    "city_zh": "Tové",
    "country": "Togo",
    "country_zh": "多哥",
    "country_iso_code": "TG",
    "timezone": "Africa/Lome",
    "latitude": 6.71667,
    "longitude": 1.25
  },
  {
    "city": "Touvoui",
    "city_zh": "Touvoui",
    "country": "Togo",
    "country_zh": "多哥",
    "country_iso_code": "TG",
    "timezone": "Africa/Lome",
    "latitude": 6.51667,
    "longitude": 0.88333
  },
  {
    "city": "Toutou Kopé",
    "city_zh": "Toutou Kopé",
    "country": "Togo",
    "country_zh": "多哥",
    "country_iso_code": "TG",
    "timezone": "Africa/Lome",
    "latitude": 6.58333,
    "longitude": 1.08333
  },
  {
    "city": "Toutougou",
    "city_zh": "Toutougou",
    "country": "Togo",
    "country_zh": "多哥",
    "country_iso_code": "TG",
    "timezone": "Africa/Lome",
    "latitude": 10.86667,
    "longitude": 0.13333
  },
  {
    "city": "Toutoug",
    "city_zh": "Toutoug",
    "country": "Togo",
    "country_zh": "多哥",
    "country_iso_code": "TG",
    "timezone": "Africa/Lome",
    "latitude": 10.91667,
    "longitude": 0.01667
  },
  {
    "city": "Toutou",
    "city_zh": "Toutou",
    "country": "Togo",
    "country_zh": "多哥",
    "country_iso_code": "TG",
    "timezone": "Africa/Lome",
    "latitude": 7.1,
    "longitude": 0.73333
  },
  {
    "city": "Toutionga",
    "city_zh": "Toutionga",
    "country": "Togo",
    "country_zh": "多哥",
    "country_iso_code": "TG",
    "timezone": "Africa/Lome",
    "latitude": 10.35,
    "longitude": 0.53333
  },
  {
    "city": "Toutchikopé",
    "city_zh": "Toutchikopé",
    "country": "Togo",
    "country_zh": "多哥",
    "country_iso_code": "TG",
    "timezone": "Africa/Lome",
    "latitude": 7.2,
    "longitude": 1.03333
  },
  {
    "city": "Tourondé",
    "city_zh": "Tourondé",
    "country": "Togo",
    "country_zh": "多哥",
    "country_iso_code": "TG",
    "timezone": "Africa/Lome",
    "latitude": 10.2,
    "longitude": 0.63333
  },
  {
    "city": "Tourhassikopé",
    "city_zh": "Tourhassikopé",
    "country": "Togo",
    "country_zh": "多哥",
    "country_iso_code": "TG",
    "timezone": "Africa/Lome",
    "latitude": 6.41667,
    "longitude": 1.61667
  },
  {
    "city": "Tountiounga",
    "city_zh": "Tountiounga",
    "country": "Togo",
    "country_zh": "多哥",
    "country_iso_code": "TG",
    "timezone": "Africa/Lome",
    "latitude": 10.36667,
    "longitude": 0.58333
  },
  {
    "city": "Tountionga",
    "city_zh": "Tountionga",
    "country": "Togo",
    "country_zh": "多哥",
    "country_iso_code": "TG",
    "timezone": "Africa/Lome",
    "latitude": 10.35,
    "longitude": 0.6
  },
  {
    "city": "Tounta",
    "city_zh": "Tounta",
    "country": "Togo",
    "country_zh": "多哥",
    "country_iso_code": "TG",
    "timezone": "Africa/Lome",
    "latitude": 9.9,
    "longitude": 0.98333
  },
  {
    "city": "Tounoumassé",
    "city_zh": "Tounoumassé",
    "country": "Togo",
    "country_zh": "多哥",
    "country_iso_code": "TG",
    "timezone": "Africa/Lome",
    "latitude": 6.61667,
    "longitude": 1.08333
  },
  {
    "city": "Toungbandangou",
    "city_zh": "Toungbandangou",
    "country": "Togo",
    "country_zh": "多哥",
    "country_iso_code": "TG",
    "timezone": "Africa/Lome",
    "latitude": 10.68333,
    "longitude": 0.25
  },
  {
    "city": "Tounato Kondji",
    "city_zh": "Tounato Kondji",
    "country": "Togo",
    "country_zh": "多哥",
    "country_iso_code": "TG",
    "timezone": "Africa/Lome",
    "latitude": 6.4,
    "longitude": 1.7
  },
  {
    "city": "Tounabopi",
    "city_zh": "Tounabopi",
    "country": "Togo",
    "country_zh": "多哥",
    "country_iso_code": "TG",
    "timezone": "Africa/Lome",
    "latitude": 9.86667,
    "longitude": 0.56667
  },
  {
    "city": "Toumoulmou",
    "city_zh": "Toumoulmou",
    "country": "Togo",
    "country_zh": "多哥",
    "country_iso_code": "TG",
    "timezone": "Africa/Lome",
    "latitude": 8.15,
    "longitude": 0.68333
  },
  {
    "city": "Toumé",
    "city_zh": "Toumé",
    "country": "Togo",
    "country_zh": "多哥",
    "country_iso_code": "TG",
    "timezone": "Africa/Lome",
    "latitude": 6.51667,
    "longitude": 1.13333
  },
  {
    "city": "Toumali",
    "city_zh": "Toumali",
    "country": "Togo",
    "country_zh": "多哥",
    "country_iso_code": "TG",
    "timezone": "Africa/Lome",
    "latitude": 6.55,
    "longitude": 1.13333
  },
  {
    "city": "Toulounkarga",
    "city_zh": "Toulounkarga",
    "country": "Togo",
    "country_zh": "多哥",
    "country_iso_code": "TG",
    "timezone": "Africa/Lome",
    "latitude": 10.96667,
    "longitude": 0.46667
  },
  {
    "city": "Toulounbongou",
    "city_zh": "Toulounbongou",
    "country": "Togo",
    "country_zh": "多哥",
    "country_iso_code": "TG",
    "timezone": "Africa/Lome",
    "latitude": 10.0,
    "longitude": 0.55
  },
  {
    "city": "Toulong",
    "city_zh": "Toulong",
    "country": "Togo",
    "country_zh": "多哥",
    "country_iso_code": "TG",
    "timezone": "Africa/Lome",
    "latitude": 10.86667,
    "longitude": 0.13333
  },
  {
    "city": "Toulankataka",
    "city_zh": "Toulankataka",
    "country": "Togo",
    "country_zh": "多哥",
    "country_iso_code": "TG",
    "timezone": "Africa/Lome",
    "latitude": 10.95,
    "longitude": 0.46667
  },
  {
    "city": "Toukouikopé",
    "city_zh": "Toukouikopé",
    "country": "Togo",
    "country_zh": "多哥",
    "country_iso_code": "TG",
    "timezone": "Africa/Lome",
    "latitude": 6.53333,
    "longitude": 0.88333
  },
  {
    "city": "Toukou",
    "city_zh": "Toukou",
    "country": "Togo",
    "country_zh": "多哥",
    "country_iso_code": "TG",
    "timezone": "Africa/Lome",
    "latitude": 7.53333,
    "longitude": 1.28333
  },
  {
    "city": "Toubigou",
    "city_zh": "Toubigou",
    "country": "Togo",
    "country_zh": "多哥",
    "country_iso_code": "TG",
    "timezone": "Africa/Lome",
    "latitude": 10.73333,
    "longitude": 0.78333
  },
  {
    "city": "Toubéloélhou",
    "city_zh": "Toubéloélhou",
    "country": "Togo",
    "country_zh": "多哥",
    "country_iso_code": "TG",
    "timezone": "Africa/Lome",
    "latitude": 10.8,
    "longitude": 0.81667
  },
  {
    "city": "Touazi",
    "city_zh": "Touazi",
    "country": "Togo",
    "country_zh": "多哥",
    "country_iso_code": "TG",
    "timezone": "Africa/Lome",
    "latitude": 9.38333,
    "longitude": 1.38333
  },
  {
    "city": "Touangou",
    "city_zh": "Touangou",
    "country": "Togo",
    "country_zh": "多哥",
    "country_iso_code": "TG",
    "timezone": "Africa/Lome",
    "latitude": 10.68333,
    "longitude": 0.31667
  },
  {
    "city": "Totoki",
    "city_zh": "Totoki",
    "country": "Togo",
    "country_zh": "多哥",
    "country_iso_code": "TG",
    "timezone": "Africa/Lome",
    "latitude": 6.96667,
    "longitude": 1.13333
  },
  {
    "city": "Totoï",
    "city_zh": "Totoï",
    "country": "Togo",
    "country_zh": "多哥",
    "country_iso_code": "TG",
    "timezone": "Africa/Lome",
    "latitude": 8.25,
    "longitude": 1.33333
  },
  {
    "city": "Totigan",
    "city_zh": "Totigan",
    "country": "Togo",
    "country_zh": "多哥",
    "country_iso_code": "TG",
    "timezone": "Africa/Lome",
    "latitude": 6.18778,
    "longitude": 1.18833
  },
  {
    "city": "Totchenti",
    "city_zh": "Totchenti",
    "country": "Togo",
    "country_zh": "多哥",
    "country_iso_code": "TG",
    "timezone": "Africa/Lome",
    "latitude": 6.38333,
    "longitude": 1.63333
  },
  {
    "city": "Totchagni",
    "city_zh": "Totchagni",
    "country": "Togo",
    "country_zh": "多哥",
    "country_iso_code": "TG",
    "timezone": "Africa/Lome",
    "latitude": 7.01667,
    "longitude": 1.58333
  },
  {
    "city": "Totagan",
    "city_zh": "Totagan",
    "country": "Togo",
    "country_zh": "多哥",
    "country_iso_code": "TG",
    "timezone": "Africa/Lome",
    "latitude": 6.4,
    "longitude": 1.65
  },
  {
    "city": "Tota",
    "city_zh": "Tota",
    "country": "Togo",
    "country_zh": "多哥",
    "country_iso_code": "TG",
    "timezone": "Africa/Lome",
    "latitude": 7.43333,
    "longitude": 1.21667
  },
  {
    "city": "Tossiégou",
    "city_zh": "Tossiégou",
    "country": "Togo",
    "country_zh": "多哥",
    "country_iso_code": "TG",
    "timezone": "Africa/Lome",
    "latitude": 10.9,
    "longitude": 0.28333
  },
  {
    "city": "Torossi",
    "city_zh": "Torossi",
    "country": "Togo",
    "country_zh": "多哥",
    "country_iso_code": "TG",
    "timezone": "Africa/Lome",
    "latitude": 7.11667,
    "longitude": 0.85
  },
  {
    "city": "Torégadé",
    "city_zh": "Torégadé",
    "country": "Togo",
    "country_zh": "多哥",
    "country_iso_code": "TG",
    "timezone": "Africa/Lome",
    "latitude": 9.18333,
    "longitude": 1.2
  },
  {
    "city": "Tola",
    "city_zh": "Tola",
    "country": "Togo",
    "country_zh": "多哥",
    "country_iso_code": "TG",
    "timezone": "Africa/Lome",
    "latitude": 10.88266,
    "longitude": 0.89396
  },
  {
    "city": "Tontondi",
    "city_zh": "Tontondi",
    "country": "Togo",
    "country_zh": "多哥",
    "country_iso_code": "TG",
    "timezone": "Africa/Lome",
    "latitude": 10.55,
    "longitude": 0.55
  },
  {
    "city": "Tontondi",
    "city_zh": "Tontondi",
    "country": "Togo",
    "country_zh": "多哥",
    "country_iso_code": "TG",
    "timezone": "Africa/Lome",
    "latitude": 10.48333,
    "longitude": 0.55
  },
  {
    "city": "Tonte",
    "city_zh": "Tonte",
    "country": "Togo",
    "country_zh": "多哥",
    "country_iso_code": "TG",
    "timezone": "Africa/Lome",
    "latitude": 10.83333,
    "longitude": 0.1
  },
  {
    "city": "Tonou Kondji",
    "city_zh": "Tonou Kondji",
    "country": "Togo",
    "country_zh": "多哥",
    "country_iso_code": "TG",
    "timezone": "Africa/Lome",
    "latitude": 6.28333,
    "longitude": 1.41667
  },
  {
    "city": "Tométikondji",
    "city_zh": "Tométikondji",
    "country": "Togo",
    "country_zh": "多哥",
    "country_iso_code": "TG",
    "timezone": "Africa/Lome",
    "latitude": 6.78333,
    "longitude": 1.53333
  },
  {
    "city": "Tométihonou",
    "city_zh": "Tométihonou",
    "country": "Togo",
    "country_zh": "多哥",
    "country_iso_code": "TG",
    "timezone": "Africa/Lome",
    "latitude": 6.4,
    "longitude": 1.5
  },
  {
    "city": "Tomegboué",
    "city_zh": "Tomegboué",
    "country": "Togo",
    "country_zh": "多哥",
    "country_iso_code": "TG",
    "timezone": "Africa/Lome",
    "latitude": 7.88333,
    "longitude": 0.81667
  },
  {
    "city": "Tomegbé",
    "city_zh": "Tomegbé",
    "country": "Togo",
    "country_zh": "多哥",
    "country_iso_code": "TG",
    "timezone": "Africa/Lome",
    "latitude": 7.51667,
    "longitude": 0.6
  },
  {
    "city": "Tomégbé",
    "city_zh": "Tomégbé",
    "country": "Togo",
    "country_zh": "多哥",
    "country_iso_code": "TG",
    "timezone": "Africa/Lome",
    "latitude": 6.96667,
    "longitude": 0.65
  },
  {
    "city": "Tomégbé",
    "city_zh": "Tomégbé",
    "country": "Togo",
    "country_zh": "多哥",
    "country_iso_code": "TG",
    "timezone": "Africa/Lome",
    "latitude": 6.95,
    "longitude": 0.55
  },
  {
    "city": "Tomégbé",
    "city_zh": "Tomégbé",
    "country": "Togo",
    "country_zh": "多哥",
    "country_iso_code": "TG",
    "timezone": "Africa/Lome",
    "latitude": 6.66667,
    "longitude": 1.13333
  },
  {
    "city": "Tomé",
    "city_zh": "Tomé",
    "country": "Togo",
    "country_zh": "多哥",
    "country_iso_code": "TG",
    "timezone": "Africa/Lome",
    "latitude": 6.81667,
    "longitude": 0.66667
  },
  {
    "city": "Tomé",
    "city_zh": "Tomé",
    "country": "Togo",
    "country_zh": "多哥",
    "country_iso_code": "TG",
    "timezone": "Africa/Lome",
    "latitude": 6.33333,
    "longitude": 1.56667
  },
  {
    "city": "Tomané",
    "city_zh": "Tomané",
    "country": "Togo",
    "country_zh": "多哥",
    "country_iso_code": "TG",
    "timezone": "Africa/Lome",
    "latitude": 7.2,
    "longitude": 0.85
  },
  {
    "city": "Toman",
    "city_zh": "Toman",
    "country": "Togo",
    "country_zh": "多哥",
    "country_iso_code": "TG",
    "timezone": "Africa/Lome",
    "latitude": 10.71667,
    "longitude": 0.03333
  },
  {
    "city": "Tolon",
    "city_zh": "Tolon",
    "country": "Togo",
    "country_zh": "多哥",
    "country_iso_code": "TG",
    "timezone": "Africa/Lome",
    "latitude": 10.68333,
    "longitude": 0.05
  },
  {
    "city": "Tokoin",
    "city_zh": "Tokoin",
    "country": "Togo",
    "country_zh": "多哥",
    "country_iso_code": "TG",
    "timezone": "Africa/Lome",
    "latitude": 6.15,
    "longitude": 1.21667
  },
  {
    "city": "Tokpo Kondji",
    "city_zh": "Tokpo Kondji",
    "country": "Togo",
    "country_zh": "多哥",
    "country_iso_code": "TG",
    "timezone": "Africa/Lome",
    "latitude": 6.3,
    "longitude": 1.65
  },
  {
    "city": "Tokpognikopé",
    "city_zh": "Tokpognikopé",
    "country": "Togo",
    "country_zh": "多哥",
    "country_iso_code": "TG",
    "timezone": "Africa/Lome",
    "latitude": 7.11667,
    "longitude": 0.8
  },
  {
    "city": "Tokpo",
    "city_zh": "Tokpo",
    "country": "Togo",
    "country_zh": "多哥",
    "country_iso_code": "TG",
    "timezone": "Africa/Lome",
    "latitude": 6.78333,
    "longitude": 0.91667
  },
  {
    "city": "Tokplikopé",
    "city_zh": "Tokplikopé",
    "country": "Togo",
    "country_zh": "多哥",
    "country_iso_code": "TG",
    "timezone": "Africa/Lome",
    "latitude": 7.26667,
    "longitude": 0.83333
  },
  {
    "city": "Tokplikopé",
    "city_zh": "Tokplikopé",
    "country": "Togo",
    "country_zh": "多哥",
    "country_iso_code": "TG",
    "timezone": "Africa/Lome",
    "latitude": 7.25,
    "longitude": 0.83333
  },
  {
    "city": "Djobédji Agokpo Tokpli",
    "city_zh": "Djobédji Agokpo Tokpli",
    "country": "Togo",
    "country_zh": "多哥",
    "country_iso_code": "TG",
    "timezone": "Africa/Lome",
    "latitude": 6.68333,
    "longitude": 1.03333
  },
  {
    "city": "Tokpli",
    "city_zh": "Tokpli",
    "country": "Togo",
    "country_zh": "多哥",
    "country_iso_code": "TG",
    "timezone": "Africa/Lome",
    "latitude": 7.15,
    "longitude": 0.78333
  },
  {
    "city": "Tokpli",
    "city_zh": "Tokpli",
    "country": "Togo",
    "country_zh": "多哥",
    "country_iso_code": "TG",
    "timezone": "Africa/Lome",
    "latitude": 6.96667,
    "longitude": 0.58333
  },
  {
    "city": "Tokpli",
    "city_zh": "Tokpli",
    "country": "Togo",
    "country_zh": "多哥",
    "country_iso_code": "TG",
    "timezone": "Africa/Lome",
    "latitude": 6.73333,
    "longitude": 0.95
  },
  {
    "city": "Tokpli",
    "city_zh": "Tokpli",
    "country": "Togo",
    "country_zh": "多哥",
    "country_iso_code": "TG",
    "timezone": "Africa/Lome",
    "latitude": 6.66667,
    "longitude": 1.6
  },
  {
    "city": "Tokpévié",
    "city_zh": "Tokpévié",
    "country": "Togo",
    "country_zh": "多哥",
    "country_iso_code": "TG",
    "timezone": "Africa/Lome",
    "latitude": 6.76667,
    "longitude": 1.06667
  },
  {
    "city": "Tokpa",
    "city_zh": "Tokpa",
    "country": "Togo",
    "country_zh": "多哥",
    "country_iso_code": "TG",
    "timezone": "Africa/Lome",
    "latitude": 7.28333,
    "longitude": 1.46667
  },
  {
    "city": "Tokou",
    "city_zh": "Tokou",
    "country": "Togo",
    "country_zh": "多哥",
    "country_iso_code": "TG",
    "timezone": "Africa/Lome",
    "latitude": 6.86667,
    "longitude": 1.03333
  },
  {
    "city": "Tokoro",
    "city_zh": "Tokoro",
    "country": "Togo",
    "country_zh": "多哥",
    "country_iso_code": "TG",
    "timezone": "Africa/Lome",
    "latitude": 7.46667,
    "longitude": 1.41667
  },
  {
    "city": "Tokodié",
    "city_zh": "Tokodié",
    "country": "Togo",
    "country_zh": "多哥",
    "country_iso_code": "TG",
    "timezone": "Africa/Lome",
    "latitude": 8.01667,
    "longitude": 1.35
  },
  {
    "city": "Toklolo",
    "city_zh": "Toklolo",
    "country": "Togo",
    "country_zh": "多哥",
    "country_iso_code": "TG",
    "timezone": "Africa/Lome",
    "latitude": 6.78333,
    "longitude": 1.1
  },
  {
    "city": "Tokélé",
    "city_zh": "Tokélé",
    "country": "Togo",
    "country_zh": "多哥",
    "country_iso_code": "TG",
    "timezone": "Africa/Lome",
    "latitude": 7.16667,
    "longitude": 0.78333
  },
  {
    "city": "Toka",
    "city_zh": "Toka",
    "country": "Togo",
    "country_zh": "多哥",
    "country_iso_code": "TG",
    "timezone": "Africa/Lome",
    "latitude": 6.44111,
    "longitude": 1.47222
  },
  {
    "city": "Toï Kopé",
    "city_zh": "Toï Kopé",
    "country": "Togo",
    "country_zh": "多哥",
    "country_iso_code": "TG",
    "timezone": "Africa/Lome",
    "latitude": 6.75,
    "longitude": 1.23333
  },
  {
    "city": "Toïgbokopé",
    "city_zh": "Toïgbokopé",
    "country": "Togo",
    "country_zh": "多哥",
    "country_iso_code": "TG",
    "timezone": "Africa/Lome",
    "latitude": 7.51667,
    "longitude": 1.31667
  },
  {
    "city": "Toïgbo",
    "city_zh": "Toïgbo",
    "country": "Togo",
    "country_zh": "多哥",
    "country_iso_code": "TG",
    "timezone": "Africa/Lome",
    "latitude": 7.9,
    "longitude": 1.06667
  },
  {
    "city": "Tohoun",
    "city_zh": "Tohoun",
    "country": "Togo",
    "country_zh": "多哥",
    "country_iso_code": "TG",
    "timezone": "Africa/Lome",
    "latitude": 7.03333,
    "longitude": 1.61667
  },
  {
    "city": "Tohoum",
    "city_zh": "Tohoum",
    "country": "Togo",
    "country_zh": "多哥",
    "country_iso_code": "TG",
    "timezone": "Africa/Lome",
    "latitude": 6.9,
    "longitude": 0.78333
  },
  {
    "city": "Tohou Kopé",
    "city_zh": "Tohou Kopé",
    "country": "Togo",
    "country_zh": "多哥",
    "country_iso_code": "TG",
    "timezone": "Africa/Lome",
    "latitude": 6.7,
    "longitude": 0.68333
  },
  {
    "city": "Toguèn",
    "city_zh": "Toguèn",
    "country": "Togo",
    "country_zh": "多哥",
    "country_iso_code": "TG",
    "timezone": "Africa/Lome",
    "latitude": 9.83333,
    "longitude": 0.7
  },
  {
    "city": "Togoville",
    "city_zh": "多哥维尔",
    "country": "Togo",
    "country_zh": "多哥",
    "country_iso_code": "TG",
    "timezone": "Africa/Lome",
    "latitude": 6.22806,
    "longitude": 1.47806
  },
  {
    "city": "Togourka",
    "city_zh": "Togourka",
    "country": "Togo",
    "country_zh": "多哥",
    "country_iso_code": "TG",
    "timezone": "Africa/Lome",
    "latitude": 10.25,
    "longitude": 0.61667
  },
  {
    "city": "Togou",
    "city_zh": "Togou",
    "country": "Togo",
    "country_zh": "多哥",
    "country_iso_code": "TG",
    "timezone": "Africa/Lome",
    "latitude": 10.13333,
    "longitude": 0.53333
  },
  {
    "city": "Togomé",
    "city_zh": "Togomé",
    "country": "Togo",
    "country_zh": "多哥",
    "country_iso_code": "TG",
    "timezone": "Africa/Lome",
    "latitude": 6.22833,
    "longitude": 1.22194
  },
  {
    "city": "Togokomé",
    "city_zh": "Togokomé",
    "country": "Togo",
    "country_zh": "多哥",
    "country_iso_code": "TG",
    "timezone": "Africa/Lome",
    "latitude": 6.21028,
    "longitude": 1.42306
  },
  {
    "city": "Togodué",
    "city_zh": "Togodué",
    "country": "Togo",
    "country_zh": "多哥",
    "country_iso_code": "TG",
    "timezone": "Africa/Lome",
    "latitude": 6.66667,
    "longitude": 1.03333
  },
  {
    "city": "Togodo Azimaglé",
    "city_zh": "Togodo Azimaglé",
    "country": "Togo",
    "country_zh": "多哥",
    "country_iso_code": "TG",
    "timezone": "Africa/Lome",
    "latitude": 6.33333,
    "longitude": 1.58333
  },
  {
    "city": "Togodo",
    "city_zh": "Togodo",
    "country": "Togo",
    "country_zh": "多哥",
    "country_iso_code": "TG",
    "timezone": "Africa/Lome",
    "latitude": 7.43333,
    "longitude": 0.93333
  },
  {
    "city": "Togblé Kopé",
    "city_zh": "Togblé Kopé",
    "country": "Togo",
    "country_zh": "多哥",
    "country_iso_code": "TG",
    "timezone": "Africa/Lome",
    "latitude": 6.27333,
    "longitude": 1.21361
  },
  {
    "city": "Togbé Sokou",
    "city_zh": "Togbé Sokou",
    "country": "Togo",
    "country_zh": "多哥",
    "country_iso_code": "TG",
    "timezone": "Africa/Lome",
    "latitude": 6.21667,
    "longitude": 1.58333
  },
  {
    "city": "Togbé Ayiho",
    "city_zh": "Togbé Ayiho",
    "country": "Togo",
    "country_zh": "多哥",
    "country_iso_code": "TG",
    "timezone": "Africa/Lome",
    "latitude": 7.46667,
    "longitude": 1.6
  },
  {
    "city": "Togba",
    "city_zh": "Togba",
    "country": "Togo",
    "country_zh": "多哥",
    "country_iso_code": "TG",
    "timezone": "Africa/Lome",
    "latitude": 6.75,
    "longitude": 1.15
  },
  {
    "city": "Togarhaouidé",
    "city_zh": "Togarhaouidé",
    "country": "Togo",
    "country_zh": "多哥",
    "country_iso_code": "TG",
    "timezone": "Africa/Lome",
    "latitude": 9.96667,
    "longitude": 1.21667
  },
  {
    "city": "Todomékopé",
    "city_zh": "Todomékopé",
    "country": "Togo",
    "country_zh": "多哥",
    "country_iso_code": "TG",
    "timezone": "Africa/Lome",
    "latitude": 7.5,
    "longitude": 0.68333
  },
  {
    "city": "Todomé Kopé",
    "city_zh": "Todomé Kopé",
    "country": "Togo",
    "country_zh": "多哥",
    "country_iso_code": "TG",
    "timezone": "Africa/Lome",
    "latitude": 6.4,
    "longitude": 1.7
  },
  {
    "city": "Todomé",
    "city_zh": "Todomé",
    "country": "Togo",
    "country_zh": "多哥",
    "country_iso_code": "TG",
    "timezone": "Africa/Lome",
    "latitude": 7.55,
    "longitude": 0.71667
  },
  {
    "city": "Todomé",
    "city_zh": "Todomé",
    "country": "Togo",
    "country_zh": "多哥",
    "country_iso_code": "TG",
    "timezone": "Africa/Lome",
    "latitude": 7.33333,
    "longitude": 0.7
  },
  {
    "city": "Todomé",
    "city_zh": "Todomé",
    "country": "Togo",
    "country_zh": "多哥",
    "country_iso_code": "TG",
    "timezone": "Africa/Lome",
    "latitude": 6.65,
    "longitude": 1.13333
  },
  {
    "city": "Todji",
    "city_zh": "Todji",
    "country": "Togo",
    "country_zh": "多哥",
    "country_iso_code": "TG",
    "timezone": "Africa/Lome",
    "latitude": 6.9,
    "longitude": 0.56667
  },
  {
    "city": "Todjaï",
    "city_zh": "Todjaï",
    "country": "Togo",
    "country_zh": "多哥",
    "country_iso_code": "TG",
    "timezone": "Africa/Lome",
    "latitude": 7.65,
    "longitude": 1.25
  },
  {
    "city": "Toboni",
    "city_zh": "Toboni",
    "country": "Togo",
    "country_zh": "多哥",
    "country_iso_code": "TG",
    "timezone": "Africa/Lome",
    "latitude": 9.25,
    "longitude": 1.36667
  },
  {
    "city": "Toboïchré",
    "city_zh": "Toboïchré",
    "country": "Togo",
    "country_zh": "多哥",
    "country_iso_code": "TG",
    "timezone": "Africa/Lome",
    "latitude": 7.26667,
    "longitude": 1.5
  },
  {
    "city": "Toboéssé",
    "city_zh": "Toboéssé",
    "country": "Togo",
    "country_zh": "多哥",
    "country_iso_code": "TG",
    "timezone": "Africa/Lome",
    "latitude": 7.33333,
    "longitude": 1.28333
  },
  {
    "city": "Toaga",
    "city_zh": "Toaga",
    "country": "Togo",
    "country_zh": "多哥",
    "country_iso_code": "TG",
    "timezone": "Africa/Lome",
    "latitude": 10.88333,
    "longitude": 0.23333
  },
  {
    "city": "Titira",
    "city_zh": "Titira",
    "country": "Togo",
    "country_zh": "多哥",
    "country_iso_code": "TG",
    "timezone": "Africa/Lome",
    "latitude": 10.0,
    "longitude": 1.11667
  },
  {
    "city": "Titigbé",
    "city_zh": "Titigbé",
    "country": "Togo",
    "country_zh": "多哥",
    "country_iso_code": "TG",
    "timezone": "Africa/Lome",
    "latitude": 8.61667,
    "longitude": 1.13333
  },
  {
    "city": "Titiégou",
    "city_zh": "Titiégou",
    "country": "Togo",
    "country_zh": "多哥",
    "country_iso_code": "TG",
    "timezone": "Africa/Lome",
    "latitude": 10.68333,
    "longitude": 0.36667
  },
  {
    "city": "Titiar",
    "city_zh": "Titiar",
    "country": "Togo",
    "country_zh": "多哥",
    "country_iso_code": "TG",
    "timezone": "Africa/Lome",
    "latitude": 9.88333,
    "longitude": 0.8
  },
  {
    "city": "Tirté",
    "city_zh": "Tirté",
    "country": "Togo",
    "country_zh": "多哥",
    "country_iso_code": "TG",
    "timezone": "Africa/Lome",
    "latitude": 9.9,
    "longitude": 0.95
  },
  {
    "city": "Tirka",
    "city_zh": "Tirka",
    "country": "Togo",
    "country_zh": "多哥",
    "country_iso_code": "TG",
    "timezone": "Africa/Lome",
    "latitude": 9.8,
    "longitude": 0.75
  },
  {
    "city": "Tipil",
    "city_zh": "Tipil",
    "country": "Togo",
    "country_zh": "多哥",
    "country_iso_code": "TG",
    "timezone": "Africa/Lome",
    "latitude": 9.71667,
    "longitude": 0.38333
  },
  {
    "city": "Tipakpane",
    "city_zh": "Tipakpane",
    "country": "Togo",
    "country_zh": "多哥",
    "country_iso_code": "TG",
    "timezone": "Africa/Lome",
    "latitude": 9.81667,
    "longitude": 0.68333
  },
  {
    "city": "Tioutiou",
    "city_zh": "Tioutiou",
    "country": "Togo",
    "country_zh": "多哥",
    "country_iso_code": "TG",
    "timezone": "Africa/Lome",
    "latitude": 9.56667,
    "longitude": 0.86667
  },
  {
    "city": "Tiouk",
    "city_zh": "Tiouk",
    "country": "Togo",
    "country_zh": "多哥",
    "country_iso_code": "TG",
    "timezone": "Africa/Lome",
    "latitude": 10.6,
    "longitude": 0.23333
  },
  {
    "city": "Tioré",
    "city_zh": "Tioré",
    "country": "Togo",
    "country_zh": "多哥",
    "country_iso_code": "TG",
    "timezone": "Africa/Lome",
    "latitude": 9.4,
    "longitude": 0.8
  },
  {
    "city": "Tiokou",
    "city_zh": "Tiokou",
    "country": "Togo",
    "country_zh": "多哥",
    "country_iso_code": "TG",
    "timezone": "Africa/Lome",
    "latitude": 6.91667,
    "longitude": 1.13333
  },
  {
    "city": "Tiofolèmpo",
    "city_zh": "Tiofolèmpo",
    "country": "Togo",
    "country_zh": "多哥",
    "country_iso_code": "TG",
    "timezone": "Africa/Lome",
    "latitude": 9.96667,
    "longitude": 0.75
  },
  {
    "city": "Tiodiga",
    "city_zh": "Tiodiga",
    "country": "Togo",
    "country_zh": "多哥",
    "country_iso_code": "TG",
    "timezone": "Africa/Lome",
    "latitude": 9.08333,
    "longitude": 1.18333
  },
  {
    "city": "Tinkiro",
    "city_zh": "Tinkiro",
    "country": "Togo",
    "country_zh": "多哥",
    "country_iso_code": "TG",
    "timezone": "Africa/Lome",
    "latitude": 8.08333,
    "longitude": 0.76667
  },
  {
    "city": "Tinipé",
    "city_zh": "Tinipé",
    "country": "Togo",
    "country_zh": "多哥",
    "country_iso_code": "TG",
    "timezone": "Africa/Lome",
    "latitude": 7.28333,
    "longitude": 0.66667
  },
  {
    "city": "Tingué",
    "city_zh": "Tingué",
    "country": "Togo",
    "country_zh": "多哥",
    "country_iso_code": "TG",
    "timezone": "Africa/Lome",
    "latitude": 7.38333,
    "longitude": 1.15
  },
  {
    "city": "Tinandé",
    "city_zh": "Tinandé",
    "country": "Togo",
    "country_zh": "多哥",
    "country_iso_code": "TG",
    "timezone": "Africa/Lome",
    "latitude": 8.51667,
    "longitude": 1.3
  },
  {
    "city": "Timbou",
    "city_zh": "Timbou",
    "country": "Togo",
    "country_zh": "多哥",
    "country_iso_code": "TG",
    "timezone": "Africa/Lome",
    "latitude": 11.03944,
    "longitude": 0.10944
  },
  {
    "city": "Tikplé",
    "city_zh": "Tikplé",
    "country": "Togo",
    "country_zh": "多哥",
    "country_iso_code": "TG",
    "timezone": "Africa/Lome",
    "latitude": 7.6,
    "longitude": 1.25
  },
  {
    "city": "Tikou",
    "city_zh": "Tikou",
    "country": "Togo",
    "country_zh": "多哥",
    "country_iso_code": "TG",
    "timezone": "Africa/Lome",
    "latitude": 9.6,
    "longitude": 1.25
  },
  {
    "city": "Tikarè",
    "city_zh": "Tikarè",
    "country": "Togo",
    "country_zh": "多哥",
    "country_iso_code": "TG",
    "timezone": "Africa/Lome",
    "latitude": 9.76667,
    "longitude": 1.23333
  },
  {
    "city": "Tikamou",
    "city_zh": "Tikamou",
    "country": "Togo",
    "country_zh": "多哥",
    "country_iso_code": "TG",
    "timezone": "Africa/Lome",
    "latitude": 7.75,
    "longitude": 0.86667
  },
  {
    "city": "Tikakan",
    "city_zh": "Tikakan",
    "country": "Togo",
    "country_zh": "多哥",
    "country_iso_code": "TG",
    "timezone": "Africa/Lome",
    "latitude": 9.6,
    "longitude": 0.71667
  },
  {
    "city": "Tihaléa",
    "city_zh": "Tihaléa",
    "country": "Togo",
    "country_zh": "多哥",
    "country_iso_code": "TG",
    "timezone": "Africa/Lome",
    "latitude": 9.61667,
    "longitude": 0.98333
  },
  {
    "city": "Tigoé",
    "city_zh": "Tigoé",
    "country": "Togo",
    "country_zh": "多哥",
    "country_iso_code": "TG",
    "timezone": "Africa/Lome",
    "latitude": 6.40083,
    "longitude": 1.46778
  },
  {
    "city": "Tigou",
    "city_zh": "Tigou",
    "country": "Togo",
    "country_zh": "多哥",
    "country_iso_code": "TG",
    "timezone": "Africa/Lome",
    "latitude": 10.6,
    "longitude": 0.25
  },
  {
    "city": "Tigbada",
    "city_zh": "Tigbada",
    "country": "Togo",
    "country_zh": "多哥",
    "country_iso_code": "TG",
    "timezone": "Africa/Lome",
    "latitude": 8.5,
    "longitude": 0.98333
  },
  {
    "city": "Tiéressou",
    "city_zh": "Tiéressou",
    "country": "Togo",
    "country_zh": "多哥",
    "country_iso_code": "TG",
    "timezone": "Africa/Lome",
    "latitude": 9.91667,
    "longitude": 0.41667
  },
  {
    "city": "Tiépakdo",
    "city_zh": "Tiépakdo",
    "country": "Togo",
    "country_zh": "多哥",
    "country_iso_code": "TG",
    "timezone": "Africa/Lome",
    "latitude": 9.51667,
    "longitude": 0.41667
  },
  {
    "city": "Tientéléga",
    "city_zh": "Tientéléga",
    "country": "Togo",
    "country_zh": "多哥",
    "country_iso_code": "TG",
    "timezone": "Africa/Lome",
    "latitude": 10.4,
    "longitude": 0.6
  },
  {
    "city": "Tienbiengou",
    "city_zh": "Tienbiengou",
    "country": "Togo",
    "country_zh": "多哥",
    "country_iso_code": "TG",
    "timezone": "Africa/Lome",
    "latitude": 10.9,
    "longitude": 0.38333
  },
  {
    "city": "Tiékou",
    "city_zh": "Tiékou",
    "country": "Togo",
    "country_zh": "多哥",
    "country_iso_code": "TG",
    "timezone": "Africa/Lome",
    "latitude": 10.38333,
    "longitude": 0.51667
  },
  {
    "city": "Tsifama",
    "city_zh": "Tsifama",
    "country": "Togo",
    "country_zh": "多哥",
    "country_iso_code": "TG",
    "timezone": "Africa/Lome",
    "latitude": 8.1902,
    "longitude": 0.80752
  },
  {
    "city": "Tidira",
    "city_zh": "Tidira",
    "country": "Togo",
    "country_zh": "多哥",
    "country_iso_code": "TG",
    "timezone": "Africa/Lome",
    "latitude": 9.83333,
    "longitude": 0.98333
  },
  {
    "city": "Tibado",
    "city_zh": "Tibado",
    "country": "Togo",
    "country_zh": "多哥",
    "country_iso_code": "TG",
    "timezone": "Africa/Lome",
    "latitude": 9.56667,
    "longitude": 0.36667
  },
  {
    "city": "Tiavé",
    "city_zh": "Tiavé",
    "country": "Togo",
    "country_zh": "多哥",
    "country_iso_code": "TG",
    "timezone": "Africa/Lome",
    "latitude": 6.93333,
    "longitude": 1.31667
  },
  {
    "city": "Tiavalème",
    "city_zh": "Tiavalème",
    "country": "Togo",
    "country_zh": "多哥",
    "country_iso_code": "TG",
    "timezone": "Africa/Lome",
    "latitude": 9.31667,
    "longitude": 1.05
  },
  {
    "city": "Tiati",
    "city_zh": "Tiati",
    "country": "Togo",
    "country_zh": "多哥",
    "country_iso_code": "TG",
    "timezone": "Africa/Lome",
    "latitude": 8.05,
    "longitude": 1.43333
  },
  {
    "city": "Tiassidé",
    "city_zh": "Tiassidé",
    "country": "Togo",
    "country_zh": "多哥",
    "country_iso_code": "TG",
    "timezone": "Africa/Lome",
    "latitude": 9.88333,
    "longitude": 0.93333
  },
  {
    "city": "Tiaromé",
    "city_zh": "Tiaromé",
    "country": "Togo",
    "country_zh": "多哥",
    "country_iso_code": "TG",
    "timezone": "Africa/Lome",
    "latitude": 7.08333,
    "longitude": 1.16667
  },
  {
    "city": "Tiankpuéré",
    "city_zh": "Tiankpuéré",
    "country": "Togo",
    "country_zh": "多哥",
    "country_iso_code": "TG",
    "timezone": "Africa/Lome",
    "latitude": 10.48333,
    "longitude": 0.6
  },
  {
    "city": "Tiankouéné",
    "city_zh": "Tiankouéné",
    "country": "Togo",
    "country_zh": "多哥",
    "country_iso_code": "TG",
    "timezone": "Africa/Lome",
    "latitude": 10.23333,
    "longitude": 0.86667
  },
  {
    "city": "Tiankalhou",
    "city_zh": "Tiankalhou",
    "country": "Togo",
    "country_zh": "多哥",
    "country_iso_code": "TG",
    "timezone": "Africa/Lome",
    "latitude": 10.61667,
    "longitude": 0.56667
  },
  {
    "city": "Tiandé",
    "city_zh": "Tiandé",
    "country": "Togo",
    "country_zh": "多哥",
    "country_iso_code": "TG",
    "timezone": "Africa/Lome",
    "latitude": 10.21667,
    "longitude": 0.4
  },
  {
    "city": "Tianaka",
    "city_zh": "Tianaka",
    "country": "Togo",
    "country_zh": "多哥",
    "country_iso_code": "TG",
    "timezone": "Africa/Lome",
    "latitude": 10.58333,
    "longitude": 0.58333
  },
  {
    "city": "Tiamou",
    "city_zh": "Tiamou",
    "country": "Togo",
    "country_zh": "多哥",
    "country_iso_code": "TG",
    "timezone": "Africa/Lome",
    "latitude": 9.71667,
    "longitude": 0.83333
  },
  {
    "city": "Tiambilibi",
    "city_zh": "Tiambilibi",
    "country": "Togo",
    "country_zh": "多哥",
    "country_iso_code": "TG",
    "timezone": "Africa/Lome",
    "latitude": 9.83333,
    "longitude": 0.43333
  },
  {
    "city": "Tiamanga",
    "city_zh": "Tiamanga",
    "country": "Togo",
    "country_zh": "多哥",
    "country_iso_code": "TG",
    "timezone": "Africa/Lome",
    "latitude": 10.56667,
    "longitude": 0.75
  },
  {
    "city": "Tialemdé",
    "city_zh": "Tialemdé",
    "country": "Togo",
    "country_zh": "多哥",
    "country_iso_code": "TG",
    "timezone": "Africa/Lome",
    "latitude": 7.06667,
    "longitude": 1.2
  },
  {
    "city": "Tialakopé",
    "city_zh": "Tialakopé",
    "country": "Togo",
    "country_zh": "多哥",
    "country_iso_code": "TG",
    "timezone": "Africa/Lome",
    "latitude": 7.48333,
    "longitude": 1.3
  },
  {
    "city": "Tialaïdè",
    "city_zh": "Tialaïdè",
    "country": "Togo",
    "country_zh": "多哥",
    "country_iso_code": "TG",
    "timezone": "Africa/Lome",
    "latitude": 9.58333,
    "longitude": 1.33333
  },
  {
    "city": "Tiakbal",
    "city_zh": "Tiakbal",
    "country": "Togo",
    "country_zh": "多哥",
    "country_iso_code": "TG",
    "timezone": "Africa/Lome",
    "latitude": 9.61667,
    "longitude": 0.4
  },
  {
    "city": "Tiakasso",
    "city_zh": "Tiakasso",
    "country": "Togo",
    "country_zh": "多哥",
    "country_iso_code": "TG",
    "timezone": "Africa/Lome",
    "latitude": 9.63333,
    "longitude": 0.88333
  },
  {
    "city": "Tiadikoffé",
    "city_zh": "Tiadikoffé",
    "country": "Togo",
    "country_zh": "多哥",
    "country_iso_code": "TG",
    "timezone": "Africa/Lome",
    "latitude": 8.1,
    "longitude": 1.48333
  },
  {
    "city": "Tiadi",
    "city_zh": "Tiadi",
    "country": "Togo",
    "country_zh": "多哥",
    "country_iso_code": "TG",
    "timezone": "Africa/Lome",
    "latitude": 7.5,
    "longitude": 1.21667
  },
  {
    "city": "Tiaba",
    "city_zh": "Tiaba",
    "country": "Togo",
    "country_zh": "多哥",
    "country_iso_code": "TG",
    "timezone": "Africa/Lome",
    "latitude": 10.01667,
    "longitude": 0.56667
  },
  {
    "city": "Tétouiabakopé",
    "city_zh": "Tétouiabakopé",
    "country": "Togo",
    "country_zh": "多哥",
    "country_iso_code": "TG",
    "timezone": "Africa/Lome",
    "latitude": 7.91667,
    "longitude": 1.2
  },
  {
    "city": "Tététou",
    "city_zh": "Tététou",
    "country": "Togo",
    "country_zh": "多哥",
    "country_iso_code": "TG",
    "timezone": "Africa/Lome",
    "latitude": 7.01667,
    "longitude": 1.5
  },
  {
    "city": "Tétékpokoudji",
    "city_zh": "Tétékpokoudji",
    "country": "Togo",
    "country_zh": "多哥",
    "country_iso_code": "TG",
    "timezone": "Africa/Lome",
    "latitude": 6.78333,
    "longitude": 1.5
  },
  {
    "city": "Tessiam",
    "city_zh": "Tessiam",
    "country": "Togo",
    "country_zh": "多哥",
    "country_iso_code": "TG",
    "timezone": "Africa/Lome",
    "latitude": 7.71667,
    "longitude": 0.66667
  },
  {
    "city": "Téréouda",
    "city_zh": "Téréouda",
    "country": "Togo",
    "country_zh": "多哥",
    "country_iso_code": "TG",
    "timezone": "Africa/Lome",
    "latitude": 9.7,
    "longitude": 1.35
  },
  {
    "city": "Ténouvé",
    "city_zh": "Ténouvé",
    "country": "Togo",
    "country_zh": "多哥",
    "country_iso_code": "TG",
    "timezone": "Africa/Lome",
    "latitude": 6.45,
    "longitude": 0.96667
  },
  {
    "city": "Ténéga",
    "city_zh": "Ténéga",
    "country": "Togo",
    "country_zh": "多哥",
    "country_iso_code": "TG",
    "timezone": "Africa/Lome",
    "latitude": 9.82806,
    "longitude": 1.12806
  },
  {
    "city": "Ténanékopé",
    "city_zh": "Ténanékopé",
    "country": "Togo",
    "country_zh": "多哥",
    "country_iso_code": "TG",
    "timezone": "Africa/Lome",
    "latitude": 7.0,
    "longitude": 1.28333
  },
  {
    "city": "Tempiendjoaga",
    "city_zh": "Tempiendjoaga",
    "country": "Togo",
    "country_zh": "多哥",
    "country_iso_code": "TG",
    "timezone": "Africa/Lome",
    "latitude": 11.05,
    "longitude": 0.3
  },
  {
    "city": "Témédjolo",
    "city_zh": "Témédjolo",
    "country": "Togo",
    "country_zh": "多哥",
    "country_iso_code": "TG",
    "timezone": "Africa/Lome",
    "latitude": 7.53333,
    "longitude": 1.01667
  },
  {
    "city": "Témédja",
    "city_zh": "Témédja",
    "country": "Togo",
    "country_zh": "多哥",
    "country_iso_code": "TG",
    "timezone": "Africa/Lome",
    "latitude": 7.51667,
    "longitude": 1.05
  },
  {
    "city": "Témé",
    "city_zh": "Témé",
    "country": "Togo",
    "country_zh": "多哥",
    "country_iso_code": "TG",
    "timezone": "Africa/Lome",
    "latitude": 7.48333,
    "longitude": 1.03333
  },
  {
    "city": "Téma",
    "city_zh": "Téma",
    "country": "Togo",
    "country_zh": "多哥",
    "country_iso_code": "TG",
    "timezone": "Africa/Lome",
    "latitude": 9.81667,
    "longitude": 0.51667
  },
  {
    "city": "Téma",
    "city_zh": "Téma",
    "country": "Togo",
    "country_zh": "多哥",
    "country_iso_code": "TG",
    "timezone": "Africa/Lome",
    "latitude": 8.83333,
    "longitude": 1.13333
  },
  {
    "city": "Tekpohoé",
    "city_zh": "Tekpohoé",
    "country": "Togo",
    "country_zh": "多哥",
    "country_iso_code": "TG",
    "timezone": "Africa/Lome",
    "latitude": 7.11667,
    "longitude": 1.6
  },
  {
    "city": "Tékpo",
    "city_zh": "Tékpo",
    "country": "Togo",
    "country_zh": "多哥",
    "country_iso_code": "TG",
    "timezone": "Africa/Lome",
    "latitude": 6.38333,
    "longitude": 1.18333
  },
  {
    "city": "Tékou",
    "city_zh": "Tékou",
    "country": "Togo",
    "country_zh": "多哥",
    "country_iso_code": "TG",
    "timezone": "Africa/Lome",
    "latitude": 6.98333,
    "longitude": 1.38333
  },
  {
    "city": "Tekfaté",
    "city_zh": "Tekfaté",
    "country": "Togo",
    "country_zh": "多哥",
    "country_iso_code": "TG",
    "timezone": "Africa/Lome",
    "latitude": 9.2,
    "longitude": 0.98333
  },
  {
    "city": "Téfia",
    "city_zh": "Téfia",
    "country": "Togo",
    "country_zh": "多哥",
    "country_iso_code": "TG",
    "timezone": "Africa/Lome",
    "latitude": 6.28333,
    "longitude": 1.1
  },
  {
    "city": "Tédo",
    "city_zh": "Tédo",
    "country": "Togo",
    "country_zh": "多哥",
    "country_iso_code": "TG",
    "timezone": "Africa/Lome",
    "latitude": 6.29861,
    "longitude": 1.08333
  },
  {
    "city": "Tédahoé",
    "city_zh": "Tédahoé",
    "country": "Togo",
    "country_zh": "多哥",
    "country_iso_code": "TG",
    "timezone": "Africa/Lome",
    "latitude": 6.66667,
    "longitude": 0.91667
  },
  {
    "city": "Téba",
    "city_zh": "Téba",
    "country": "Togo",
    "country_zh": "多哥",
    "country_iso_code": "TG",
    "timezone": "Africa/Lome",
    "latitude": 7.33333,
    "longitude": 1.13333
  },
  {
    "city": "Tiwoli",
    "city_zh": "Tiwoli",
    "country": "Togo",
    "country_zh": "多哥",
    "country_iso_code": "TG",
    "timezone": "Africa/Lome",
    "latitude": 10.943,
    "longitude": 0.85018
  },
  {
    "city": "Tchoutchoubeni",
    "city_zh": "Tchoutchoubeni",
    "country": "Togo",
    "country_zh": "多哥",
    "country_iso_code": "TG",
    "timezone": "Africa/Lome",
    "latitude": 9.4,
    "longitude": 0.95
  },
  {
    "city": "Tchoumouri",
    "city_zh": "Tchoumouri",
    "country": "Togo",
    "country_zh": "多哥",
    "country_iso_code": "TG",
    "timezone": "Africa/Lome",
    "latitude": 10.94735,
    "longitude": 0.5479
  },
  {
    "city": "Tchouboupoué",
    "city_zh": "Tchouboupoué",
    "country": "Togo",
    "country_zh": "多哥",
    "country_iso_code": "TG",
    "timezone": "Africa/Lome",
    "latitude": 7.4,
    "longitude": 1.4
  },
  {
    "city": "Tchoubona",
    "city_zh": "Tchoubona",
    "country": "Togo",
    "country_zh": "多哥",
    "country_iso_code": "TG",
    "timezone": "Africa/Lome",
    "latitude": 9.31667,
    "longitude": 1.08333
  },
  {
    "city": "Tchotchopola",
    "city_zh": "Tchotchopola",
    "country": "Togo",
    "country_zh": "多哥",
    "country_iso_code": "TG",
    "timezone": "Africa/Lome",
    "latitude": 9.5,
    "longitude": 0.55
  },
  {
    "city": "Tchonou",
    "city_zh": "Tchonou",
    "country": "Togo",
    "country_zh": "多哥",
    "country_iso_code": "TG",
    "timezone": "Africa/Lome",
    "latitude": 7.5,
    "longitude": 1.25
  },
  {
    "city": "Tchonoro",
    "city_zh": "Tchonoro",
    "country": "Togo",
    "country_zh": "多哥",
    "country_iso_code": "TG",
    "timezone": "Africa/Lome",
    "latitude": 9.35,
    "longitude": 1.26667
  },
  {
    "city": "Tchoglitcho",
    "city_zh": "Tchoglitcho",
    "country": "Togo",
    "country_zh": "多哥",
    "country_iso_code": "TG",
    "timezone": "Africa/Lome",
    "latitude": 7.45,
    "longitude": 1.16667
  },
  {
    "city": "Tchitchoa",
    "city_zh": "Tchitchoa",
    "country": "Togo",
    "country_zh": "多哥",
    "country_iso_code": "TG",
    "timezone": "Africa/Lome",
    "latitude": 9.43333,
    "longitude": 0.9
  },
  {
    "city": "Tchitchidé Taré",
    "city_zh": "Tchitchidé Taré",
    "country": "Togo",
    "country_zh": "多哥",
    "country_iso_code": "TG",
    "timezone": "Africa/Lome",
    "latitude": 9.96667,
    "longitude": 1.16667
  },
  {
    "city": "Tchitchidé",
    "city_zh": "Tchitchidé",
    "country": "Togo",
    "country_zh": "多哥",
    "country_iso_code": "TG",
    "timezone": "Africa/Lome",
    "latitude": 9.9,
    "longitude": 1.13333
  },
  {
    "city": "Tchitchao",
    "city_zh": "Tchitchao",
    "country": "Togo",
    "country_zh": "多哥",
    "country_iso_code": "TG",
    "timezone": "Africa/Lome",
    "latitude": 9.62306,
    "longitude": 1.14778
  },
  {
    "city": "Tchirkpambo",
    "city_zh": "Tchirkpambo",
    "country": "Togo",
    "country_zh": "多哥",
    "country_iso_code": "TG",
    "timezone": "Africa/Lome",
    "latitude": 9.68333,
    "longitude": 0.66667
  },
  {
    "city": "Tchiri",
    "city_zh": "Tchiri",
    "country": "Togo",
    "country_zh": "多哥",
    "country_iso_code": "TG",
    "timezone": "Africa/Lome",
    "latitude": 10.35,
    "longitude": 0.51667
  },
  {
    "city": "Tchiorgo",
    "city_zh": "Tchiorgo",
    "country": "Togo",
    "country_zh": "多哥",
    "country_iso_code": "TG",
    "timezone": "Africa/Lome",
    "latitude": 9.41667,
    "longitude": 0.85
  },
  {
    "city": "Tchintchingou",
    "city_zh": "Tchintchingou",
    "country": "Togo",
    "country_zh": "多哥",
    "country_iso_code": "TG",
    "timezone": "Africa/Lome",
    "latitude": 10.13333,
    "longitude": 0.96667
  },
  {
    "city": "Tchilémé",
    "city_zh": "Tchilémé",
    "country": "Togo",
    "country_zh": "多哥",
    "country_iso_code": "TG",
    "timezone": "Africa/Lome",
    "latitude": 6.37194,
    "longitude": 1.42139
  },
  {
    "city": "Tchikplonoukondji",
    "city_zh": "Tchikplonoukondji",
    "country": "Togo",
    "country_zh": "多哥",
    "country_iso_code": "TG",
    "timezone": "Africa/Lome",
    "latitude": 6.29333,
    "longitude": 1.21583
  },
  {
    "city": "Tchikoué",
    "city_zh": "Tchikoué",
    "country": "Togo",
    "country_zh": "多哥",
    "country_iso_code": "TG",
    "timezone": "Africa/Lome",
    "latitude": 7.06667,
    "longitude": 1.6
  },
  {
    "city": "Tchikoé",
    "city_zh": "Tchikoé",
    "country": "Togo",
    "country_zh": "多哥",
    "country_iso_code": "TG",
    "timezone": "Africa/Lome",
    "latitude": 7.01667,
    "longitude": 1.13333
  },
  {
    "city": "Tchihémé",
    "city_zh": "Tchihémé",
    "country": "Togo",
    "country_zh": "多哥",
    "country_iso_code": "TG",
    "timezone": "Africa/Lome",
    "latitude": 7.3,
    "longitude": 1.56667
  },
  {
    "city": "Tchidémé",
    "city_zh": "Tchidémé",
    "country": "Togo",
    "country_zh": "多哥",
    "country_iso_code": "TG",
    "timezone": "Africa/Lome",
    "latitude": 6.32556,
    "longitude": 1.41639
  },
  {
    "city": "Tchialè",
    "city_zh": "Tchialè",
    "country": "Togo",
    "country_zh": "多哥",
    "country_iso_code": "TG",
    "timezone": "Africa/Lome",
    "latitude": 9.55,
    "longitude": 0.28333
  },
  {
    "city": "Tchépakopé",
    "city_zh": "Tchépakopé",
    "country": "Togo",
    "country_zh": "多哥",
    "country_iso_code": "TG",
    "timezone": "Africa/Lome",
    "latitude": 7.33333,
    "longitude": 1.03333
  },
  {
    "city": "Tchéoka",
    "city_zh": "Tchéoka",
    "country": "Togo",
    "country_zh": "多哥",
    "country_iso_code": "TG",
    "timezone": "Africa/Lome",
    "latitude": 9.41667,
    "longitude": 0.85
  },
  {
    "city": "Tchékpo Dévé",
    "city_zh": "Tchékpo Dévé",
    "country": "Togo",
    "country_zh": "多哥",
    "country_iso_code": "TG",
    "timezone": "Africa/Lome",
    "latitude": 6.48278,
    "longitude": 1.37028
  },
  {
    "city": "Tchekpo Dédékpoé",
    "city_zh": "Tchekpo Dédékpoé",
    "country": "Togo",
    "country_zh": "多哥",
    "country_iso_code": "TG",
    "timezone": "Africa/Lome",
    "latitude": 6.53333,
    "longitude": 1.36667
  },
  {
    "city": "Tchekpo Anagani",
    "city_zh": "Tchekpo Anagani",
    "country": "Togo",
    "country_zh": "多哥",
    "country_iso_code": "TG",
    "timezone": "Africa/Lome",
    "latitude": 6.5,
    "longitude": 1.36667
  },
  {
    "city": "Tchékita",
    "city_zh": "Tchékita",
    "country": "Togo",
    "country_zh": "多哥",
    "country_iso_code": "TG",
    "timezone": "Africa/Lome",
    "latitude": 8.18333,
    "longitude": 1.35
  },
  {
    "city": "Tchékélé",
    "city_zh": "Tchékélé",
    "country": "Togo",
    "country_zh": "多哥",
    "country_iso_code": "TG",
    "timezone": "Africa/Lome",
    "latitude": 8.1,
    "longitude": 1.35
  },
  {
    "city": "Tchébébé",
    "city_zh": "Tchébébé",
    "country": "Togo",
    "country_zh": "多哥",
    "country_iso_code": "TG",
    "timezone": "Africa/Lome",
    "latitude": 8.43333,
    "longitude": 0.98333
  },
  {
    "city": "Tché",
    "city_zh": "Tché",
    "country": "Togo",
    "country_zh": "多哥",
    "country_iso_code": "TG",
    "timezone": "Africa/Lome",
    "latitude": 8.0,
    "longitude": 1.11667
  },
  {
    "city": "Tchavadé",
    "city_zh": "Tchavadé",
    "country": "Togo",
    "country_zh": "多哥",
    "country_iso_code": "TG",
    "timezone": "Africa/Lome",
    "latitude": 9.01667,
    "longitude": 1.2
  },
  {
    "city": "Tchati",
    "city_zh": "Tchati",
    "country": "Togo",
    "country_zh": "多哥",
    "country_iso_code": "TG",
    "timezone": "Africa/Lome",
    "latitude": 6.48333,
    "longitude": 1.1
  },
  {
    "city": "Tchati",
    "city_zh": "Tchati",
    "country": "Togo",
    "country_zh": "多哥",
    "country_iso_code": "TG",
    "timezone": "Africa/Lome",
    "latitude": 6.45,
    "longitude": 1.16667
  },
  {
    "city": "Tchatchaminadé",
    "city_zh": "Tchatchaminadé",
    "country": "Togo",
    "country_zh": "多哥",
    "country_iso_code": "TG",
    "timezone": "Africa/Lome",
    "latitude": 9.3,
    "longitude": 0.9
  },
  {
    "city": "Tcharé",
    "city_zh": "Tcharé",
    "country": "Togo",
    "country_zh": "多哥",
    "country_iso_code": "TG",
    "timezone": "Africa/Lome",
    "latitude": 9.66444,
    "longitude": 1.18333
  },
  {
    "city": "Tcharé",
    "city_zh": "Tcharé",
    "country": "Togo",
    "country_zh": "多哥",
    "country_iso_code": "TG",
    "timezone": "Africa/Lome",
    "latitude": 8.08333,
    "longitude": 1.0
  },
  {
    "city": "Tcharabaou",
    "city_zh": "Tcharabaou",
    "country": "Togo",
    "country_zh": "多哥",
    "country_iso_code": "TG",
    "timezone": "Africa/Lome",
    "latitude": 8.05,
    "longitude": 1.01667
  },
  {
    "city": "Tchapritchapra",
    "city_zh": "Tchapritchapra",
    "country": "Togo",
    "country_zh": "多哥",
    "country_iso_code": "TG",
    "timezone": "Africa/Lome",
    "latitude": 7.81667,
    "longitude": 1.53333
  },
  {
    "city": "Tchapossi",
    "city_zh": "Tchapossi",
    "country": "Togo",
    "country_zh": "多哥",
    "country_iso_code": "TG",
    "timezone": "Africa/Lome",
    "latitude": 9.06667,
    "longitude": 0.61667
  },
  {
    "city": "Tchapali",
    "city_zh": "Tchapali",
    "country": "Togo",
    "country_zh": "多哥",
    "country_iso_code": "TG",
    "timezone": "Africa/Lome",
    "latitude": 7.35,
    "longitude": 1.01667
  },
  {
    "city": "Tchaourondé",
    "city_zh": "Tchaourondé",
    "country": "Togo",
    "country_zh": "多哥",
    "country_iso_code": "TG",
    "timezone": "Africa/Lome",
    "latitude": 9.1,
    "longitude": 1.23333
  },
  {
    "city": "Tchaoro",
    "city_zh": "Tchaoro",
    "country": "Togo",
    "country_zh": "多哥",
    "country_iso_code": "TG",
    "timezone": "Africa/Lome",
    "latitude": 7.26667,
    "longitude": 1.06667
  },
  {
    "city": "Tchantcha",
    "city_zh": "Tchantcha",
    "country": "Togo",
    "country_zh": "多哥",
    "country_iso_code": "TG",
    "timezone": "Africa/Lome",
    "latitude": 7.38333,
    "longitude": 1.31667
  },
  {
    "city": "Tchanié",
    "city_zh": "Tchanié",
    "country": "Togo",
    "country_zh": "多哥",
    "country_iso_code": "TG",
    "timezone": "Africa/Lome",
    "latitude": 8.16667,
    "longitude": 1.0
  },
  {
    "city": "Tchangui",
    "city_zh": "Tchangui",
    "country": "Togo",
    "country_zh": "多哥",
    "country_iso_code": "TG",
    "timezone": "Africa/Lome",
    "latitude": 10.81667,
    "longitude": 0.03333
  },
  {
    "city": "Tchandana",
    "city_zh": "Tchandana",
    "country": "Togo",
    "country_zh": "多哥",
    "country_iso_code": "TG",
    "timezone": "Africa/Lome",
    "latitude": 10.9,
    "longitude": 0.11667
  },
  {
    "city": "Tchanagakan",
    "city_zh": "Tchanagakan",
    "country": "Togo",
    "country_zh": "多哥",
    "country_iso_code": "TG",
    "timezone": "Africa/Lome",
    "latitude": 10.3,
    "longitude": 0.58333
  },
  {
    "city": "Tchanaga",
    "city_zh": "Tchanaga",
    "country": "Togo",
    "country_zh": "多哥",
    "country_iso_code": "TG",
    "timezone": "Africa/Lome",
    "latitude": 10.49896,
    "longitude": 0.49114
  },
  {
    "city": "Tchambao",
    "city_zh": "Tchambao",
    "country": "Togo",
    "country_zh": "多哥",
    "country_iso_code": "TG",
    "timezone": "Africa/Lome",
    "latitude": 9.33333,
    "longitude": 1.01667
  },
  {
    "city": "Tchamba Kabré",
    "city_zh": "Tchamba Kabré",
    "country": "Togo",
    "country_zh": "多哥",
    "country_iso_code": "TG",
    "timezone": "Africa/Lome",
    "latitude": 9.13333,
    "longitude": 1.51667
  },
  {
    "city": "Tchamba",
    "city_zh": "昌巴",
    "country": "Togo",
    "country_zh": "多哥",
    "country_iso_code": "TG",
    "timezone": "Africa/Lome",
    "latitude": 9.03333,
    "longitude": 1.41667
  },
  {
    "city": "Tchalo",
    "city_zh": "Tchalo",
    "country": "Togo",
    "country_zh": "多哥",
    "country_iso_code": "TG",
    "timezone": "Africa/Lome",
    "latitude": 8.93333,
    "longitude": 1.11667
  },