[
  {
    "city": "Ziogouin",
    "city_zh": "Ziogouin",
    "country": "Ivory Coast",
    "country_zh": "象牙海岸",
    "country_iso_code": "CI",
    "timezone": "Africa/Abidjan",
    "latitude": 7.24536,
    "longitude": -7.55026
  },
  {
    "city": "Zyogouiné",
    "city_zh": "Zyogouiné",
    "country": "Ivory Coast",
    "country_zh": "象牙海岸",
    "country_iso_code": "CI",
    "timezone": "Africa/Abidjan",
    "latitude": 7.19246,
    "longitude": -7.64056
  },
  {
    "city": "Zyékaha",
    "city_zh": "Zyékaha",
    "country": "Ivory Coast",
    "country_zh": "象牙海岸",
    "country_iso_code": "CI",
    "timezone": "Africa/Abidjan",
    "latitude": 9.5932,
    "longitude": -5.44057
  },
  {
    "city": "Zyébatogo",
    "city_zh": "Zyébatogo",
    "country": "Ivory Coast",
    "country_zh": "象牙海岸",
    "country_iso_code": "CI",
    "timezone": "Africa/Abidjan",
    "latitude": 9.15,
    "longitude": -5.56667
  },
  {
    "city": "Zuzua",
    "city_zh": "Zuzua",
    "country": "Ivory Coast",
    "country_zh": "象牙海岸",
    "country_iso_code": "CI",
    "timezone": "Africa/Abidjan",
    "latitude": 6.62394,
    "longitude": -6.47849
  },
  {
    "city": "Zumé",
    "city_zh": "Zumé",
    "country": "Ivory Coast",
    "country_zh": "象牙海岸",
    "country_iso_code": "CI",
    "timezone": "Africa/Abidjan",
    "latitude": 7.28819,
    "longitude": -5.3635
  },
  {
    "city": "Zuézuéko",
    "city_zh": "Zuézuéko",
    "country": "Ivory Coast",
    "country_zh": "象牙海岸",
    "country_iso_code": "CI",
    "timezone": "Africa/Abidjan",
    "latitude": 5.05093,
    "longitude": -5.7696
  },
  {
    "city": "Zuénoula",
    "city_zh": "Zuénoula",
    "country": "Ivory Coast",
    "country_zh": "象牙海岸",
    "country_iso_code": "CI",
    "timezone": "Africa/Abidjan",
    "latitude": 7.43027,
    "longitude": -6.05054
  },
  {
    "city": "Zuenda",
    "city_zh": "Zuenda",
    "country": "Ivory Coast",
    "country_zh": "象牙海岸",
    "country_iso_code": "CI",
    "timezone": "Africa/Abidjan",
    "latitude": 7.69915,
    "longitude": -5.59069
  },
  {
    "city": "Zuenda",
    "city_zh": "Zuenda",
    "country": "Ivory Coast",
    "country_zh": "象牙海岸",
    "country_iso_code": "CI",
    "timezone": "Africa/Abidjan",
    "latitude": 7.36861,
    "longitude": -5.48806
  },
  {
    "city": "Zuékokoré",
    "city_zh": "Zuékokoré",
    "country": "Ivory Coast",
    "country_zh": "象牙海岸",
    "country_iso_code": "CI",
    "timezone": "Africa/Abidjan",
    "latitude": 6.56831,
    "longitude": -4.28911
  },
  {
    "city": "Zro",
    "city_zh": "Zro",
    "country": "Ivory Coast",
    "country_zh": "象牙海岸",
    "country_iso_code": "CI",
    "timezone": "Africa/Abidjan",
    "latitude": 6.30276,
    "longitude": -7.51229
  },
  {
    "city": "Zriglo",
    "city_zh": "Zriglo",
    "country": "Ivory Coast",
    "country_zh": "象牙海岸",
    "country_iso_code": "CI",
    "timezone": "Africa/Abidjan",
    "latitude": 5.63333,
    "longitude": -7.36667
  },
  {
    "city": "Zribouo",
    "city_zh": "Zribouo",
    "country": "Ivory Coast",
    "country_zh": "象牙海岸",
    "country_iso_code": "CI",
    "timezone": "Africa/Abidjan",
    "latitude": 5.6,
    "longitude": -6.1
  },
  {
    "city": "Zrangouiné",
    "city_zh": "Zrangouiné",
    "country": "Ivory Coast",
    "country_zh": "象牙海岸",
    "country_iso_code": "CI",
    "timezone": "Africa/Abidjan",
    "latitude": 7.25713,
    "longitude": -7.61862
  },
  {
    "city": "Zangbatouo",
    "city_zh": "Zangbatouo",
    "country": "Ivory Coast",
    "country_zh": "象牙海岸",
    "country_iso_code": "CI",
    "timezone": "Africa/Abidjan",
    "latitude": 7.16692,
    "longitude": -8.26736
  },
  {
    "city": "Zraluo",
    "city_zh": "Zraluo",
    "country": "Ivory Coast",
    "country_zh": "象牙海岸",
    "country_iso_code": "CI",
    "timezone": "Africa/Abidjan",
    "latitude": 7.57237,
    "longitude": -5.88859
  },
  {
    "city": "Zrabisséifla",
    "city_zh": "Zrabisséifla",
    "country": "Ivory Coast",
    "country_zh": "象牙海岸",
    "country_iso_code": "CI",
    "timezone": "Africa/Abidjan",
    "latitude": 7.46806,
    "longitude": -5.91361
  },
  {
    "city": "Zozo Oliziriboué",
    "city_zh": "Zozo Oliziriboué",
    "country": "Ivory Coast",
    "country_zh": "象牙海岸",
    "country_iso_code": "CI",
    "timezone": "Africa/Abidjan",
    "latitude": 5.73133,
    "longitude": -5.67773
  },
  {
    "city": "Zouzoua",
    "city_zh": "Zouzoua",
    "country": "Ivory Coast",
    "country_zh": "象牙海岸",
    "country_iso_code": "CI",
    "timezone": "Africa/Abidjan",
    "latitude": 6.55842,
    "longitude": -6.3505
  },
  {
    "city": "Zoutouo",
    "city_zh": "Zoutouo",
    "country": "Ivory Coast",
    "country_zh": "象牙海岸",
    "country_iso_code": "CI",
    "timezone": "Africa/Abidjan",
    "latitude": 7.00812,
    "longitude": -8.24212
  },
  {
    "city": "Zoupleu",
    "city_zh": "Zoupleu",
    "country": "Ivory Coast",
    "country_zh": "象牙海岸",
    "country_iso_code": "CI",
    "timezone": "Africa/Abidjan",
    "latitude": 7.65854,
    "longitude": -8.06695
  },
  {
    "city": "Zoupangbeu",
    "city_zh": "Zoupangbeu",
    "country": "Ivory Coast",
    "country_zh": "象牙海岸",
    "country_iso_code": "CI",
    "timezone": "Africa/Abidjan",
    "latitude": 6.79634,
    "longitude": -6.76506
  },
  {
    "city": "Zangokro",
    "city_zh": "Zangokro",
    "country": "Ivory Coast",
    "country_zh": "象牙海岸",
    "country_iso_code": "CI",
    "timezone": "Africa/Abidjan",
    "latitude": 7.85,
    "longitude": -5.57099
  },
  {
    "city": "Zoumènè",
    "city_zh": "Zoumènè",
    "country": "Ivory Coast",
    "country_zh": "象牙海岸",
    "country_iso_code": "CI",
    "timezone": "Africa/Abidjan",
    "latitude": 9.4464,
    "longitude": -5.8725
  },
  {
    "city": "Zoula",
    "city_zh": "Zoula",
    "country": "Ivory Coast",
    "country_zh": "象牙海岸",
    "country_iso_code": "CI",
    "timezone": "Africa/Abidjan",
    "latitude": 7.1725,
    "longitude": -5.92889
  },
  {
    "city": "Zoukougbeu",
    "city_zh": "Zoukougbeu",
    "country": "Ivory Coast",
    "country_zh": "象牙海岸",
    "country_iso_code": "CI",
    "timezone": "Africa/Abidjan",
    "latitude": 6.76229,
    "longitude": -6.8638
  },
  {
    "city": "Zoukouboué",
    "city_zh": "Zoukouboué",
    "country": "Ivory Coast",
    "country_zh": "象牙海岸",
    "country_iso_code": "CI",
    "timezone": "Africa/Abidjan",
    "latitude": 7.1112,
    "longitude": -6.78102
  },
  {
    "city": "Zuoké",
    "city_zh": "Zuoké",
    "country": "Ivory Coast",
    "country_zh": "象牙海岸",
    "country_iso_code": "CI",
    "timezone": "Africa/Abidjan",
    "latitude": 6.40249,
    "longitude": -5.51509
  },
  {
    "city": "Zouhan",
    "city_zh": "Zouhan",
    "country": "Ivory Coast",
    "country_zh": "象牙海岸",
    "country_iso_code": "CI",
    "timezone": "Africa/Abidjan",
    "latitude": 6.59077,
    "longitude": -8.11671
  },
  {
    "city": "Zougoussou",
    "city_zh": "Zougoussou",
    "country": "Ivory Coast",
    "country_zh": "象牙海岸",
    "country_iso_code": "CI",
    "timezone": "Africa/Abidjan",
    "latitude": 6.92226,
    "longitude": -5.57583
  },
  {
    "city": "Zouzousso I",
    "city_zh": "Zouzousso I",
    "country": "Ivory Coast",
    "country_zh": "象牙海岸",
    "country_iso_code": "CI",
    "timezone": "Africa/Abidjan",
    "latitude": 7.83797,
    "longitude": -7.61923
  },
  {
    "city": "Zougourouta",
    "city_zh": "Zougourouta",
    "country": "Ivory Coast",
    "country_zh": "象牙海岸",
    "country_iso_code": "CI",
    "timezone": "Africa/Abidjan",
    "latitude": 6.64576,
    "longitude": -5.82422
  },
  {
    "city": "Zougounou",
    "city_zh": "Zougounou",
    "country": "Ivory Coast",
    "country_zh": "象牙海岸",
    "country_iso_code": "CI",
    "timezone": "Africa/Abidjan",
    "latitude": 6.86974,
    "longitude": -5.47278
  },
  {
    "city": "Zouhounou",
    "city_zh": "Zouhounou",
    "country": "Ivory Coast",
    "country_zh": "象牙海岸",
    "country_iso_code": "CI",
    "timezone": "Africa/Abidjan",
    "latitude": 6.61217,
    "longitude": -3.29229
  },
  {
    "city": "Zougounéfla",
    "city_zh": "Zougounéfla",
    "country": "Ivory Coast",
    "country_zh": "象牙海岸",
    "country_iso_code": "CI",
    "timezone": "Africa/Abidjan",
    "latitude": 7.71034,
    "longitude": -5.92868
  },
  {
    "city": "Zogouiné",
    "city_zh": "Zogouiné",
    "country": "Ivory Coast",
    "country_zh": "象牙海岸",
    "country_iso_code": "CI",
    "timezone": "Africa/Abidjan",
    "latitude": 7.096,
    "longitude": -7.98045
  },
  {
    "city": "Zougouboko",
    "city_zh": "Zougouboko",
    "country": "Ivory Coast",
    "country_zh": "象牙海岸",
    "country_iso_code": "CI",
    "timezone": "Africa/Abidjan",
    "latitude": 5.62948,
    "longitude": -5.41459
  },
  {
    "city": "Zodri",
    "city_zh": "Zodri",
    "country": "Ivory Coast",
    "country_zh": "象牙海岸",
    "country_iso_code": "CI",
    "timezone": "Africa/Abidjan",
    "latitude": 7.00079,
    "longitude": -7.75593
  },
  {
    "city": "Zouayo",
    "city_zh": "Zouayo",
    "country": "Ivory Coast",
    "country_zh": "象牙海岸",
    "country_iso_code": "CI",
    "timezone": "Africa/Abidjan",
    "latitude": 5.6932,
    "longitude": -6.1482
  },
  {
    "city": "Zouata",
    "city_zh": "Zouata",
    "country": "Ivory Coast",
    "country_zh": "象牙海岸",
    "country_iso_code": "CI",
    "timezone": "Africa/Abidjan",
    "latitude": 7.47231,
    "longitude": -7.34831
  },
  {
    "city": "Zouani",
    "city_zh": "Zouani",
    "country": "Ivory Coast",
    "country_zh": "象牙海岸",
    "country_iso_code": "CI",
    "timezone": "Africa/Abidjan",
    "latitude": 9.85502,
    "longitude": -6.1194
  },
  {
    "city": "Zouan-Hounien",
    "city_zh": "Zouan-Hounien",
    "country": "Ivory Coast",
    "country_zh": "象牙海岸",
    "country_iso_code": "CI",
    "timezone": "Africa/Abidjan",
    "latitude": 6.91937,
    "longitude": -8.2065
  },
  {
    "city": "Zouan",
    "city_zh": "Zouan",
    "country": "Ivory Coast",
    "country_zh": "象牙海岸",
    "country_iso_code": "CI",
    "timezone": "Africa/Abidjan",
    "latitude": 6.54502,
    "longitude": -7.59902
  },
  {
    "city": "Zou",
    "city_zh": "Zou",
    "country": "Ivory Coast",
    "country_zh": "象牙海岸",
    "country_iso_code": "CI",
    "timezone": "Africa/Abidjan",
    "latitude": 6.97647,
    "longitude": -7.79834
  },
  {
    "city": "Zotro Darra",
    "city_zh": "Zotro Darra",
    "country": "Ivory Coast",
    "country_zh": "象牙海岸",
    "country_iso_code": "CI",
    "timezone": "Africa/Abidjan",
    "latitude": 6.92891,
    "longitude": -8.2848
  },
  {
    "city": "Zoroyo",
    "city_zh": "Zoroyo",
    "country": "Ivory Coast",
    "country_zh": "象牙海岸",
    "country_iso_code": "CI",
    "timezone": "Africa/Abidjan",
    "latitude": 5.89548,
    "longitude": -6.65079
  },
  {
    "city": "Zoronko",
    "city_zh": "Zoronko",
    "country": "Ivory Coast",
    "country_zh": "象牙海岸",
    "country_iso_code": "CI",
    "timezone": "Africa/Abidjan",
    "latitude": 9.51015,
    "longitude": -3.21042
  },
  {
    "city": "Zorofla",
    "city_zh": "Zorofla",
    "country": "Ivory Coast",
    "country_zh": "象牙海岸",
    "country_iso_code": "CI",
    "timezone": "Africa/Abidjan",
    "latitude": 7.24415,
    "longitude": -6.2643
  },
  {
    "city": "Zonlé I",
    "city_zh": "Zonlé I",
    "country": "Ivory Coast",
    "country_zh": "象牙海岸",
    "country_iso_code": "CI",
    "timezone": "Africa/Abidjan",
    "latitude": 7.36466,
    "longitude": -7.7695
  },
  {
    "city": "Zonokoi",
    "city_zh": "Zonokoi",
    "country": "Ivory Coast",
    "country_zh": "象牙海岸",
    "country_iso_code": "CI",
    "timezone": "Africa/Abidjan",
    "latitude": 6.41833,
    "longitude": -3.64028
  },
  {
    "city": "Zonneu",
    "city_zh": "Zonneu",
    "country": "Ivory Coast",
    "country_zh": "象牙海岸",
    "country_iso_code": "CI",
    "timezone": "Africa/Abidjan",
    "latitude": 7.17144,
    "longitude": -8.06675
  },
  {
    "city": "Zonguétouo",
    "city_zh": "Zonguétouo",
    "country": "Ivory Coast",
    "country_zh": "象牙海岸",
    "country_iso_code": "CI",
    "timezone": "Africa/Abidjan",
    "latitude": 7.09394,
    "longitude": -8.23481
  },
  {
    "city": "Zongotakaha",
    "city_zh": "Zongotakaha",
    "country": "Ivory Coast",
    "country_zh": "象牙海岸",
    "country_iso_code": "CI",
    "timezone": "Africa/Abidjan",
    "latitude": 9.4107,
    "longitude": -5.6804
  },
  {
    "city": "Zongopleu",
    "city_zh": "Zongopleu",
    "country": "Ivory Coast",
    "country_zh": "象牙海岸",
    "country_iso_code": "CI",
    "timezone": "Africa/Abidjan",
    "latitude": 7.11619,
    "longitude": -8.27681
  },
  {
    "city": "Zonfla",
    "city_zh": "Zonfla",
    "country": "Ivory Coast",
    "country_zh": "象牙海岸",
    "country_iso_code": "CI",
    "timezone": "Africa/Abidjan",
    "latitude": 7.4132,
    "longitude": -5.9089
  },
  {
    "city": "Zomplou",
    "city_zh": "Zomplou",
    "country": "Ivory Coast",
    "country_zh": "象牙海岸",
    "country_iso_code": "CI",
    "timezone": "Africa/Abidjan",
    "latitude": 6.61944,
    "longitude": -8.155
  },
  {
    "city": "Zomédougou",
    "city_zh": "Zomédougou",
    "country": "Ivory Coast",
    "country_zh": "象牙海岸",
    "country_iso_code": "CI",
    "timezone": "Africa/Abidjan",
    "latitude": 8.47915,
    "longitude": -8.13436
  },
  {
    "city": "Zoleu",
    "city_zh": "Zoleu",
    "country": "Ivory Coast",
    "country_zh": "象牙海岸",
    "country_iso_code": "CI",
    "timezone": "Africa/Abidjan",
    "latitude": 6.80782,
    "longitude": -8.299
  },
  {
    "city": "Zolé",
    "city_zh": "Zolé",
    "country": "Ivory Coast",
    "country_zh": "象牙海岸",
    "country_iso_code": "CI",
    "timezone": "Africa/Abidjan",
    "latitude": 7.19893,
    "longitude": -8.17315
  },
  {
    "city": "Zokrodépié",
    "city_zh": "Zokrodépié",
    "country": "Ivory Coast",
    "country_zh": "象牙海岸",
    "country_iso_code": "CI",
    "timezone": "Africa/Abidjan",
    "latitude": 6.63103,
    "longitude": -6.445
  },
  {
    "city": "Zokrobouo",
    "city_zh": "Zokrobouo",
    "country": "Ivory Coast",
    "country_zh": "象牙海岸",
    "country_iso_code": "CI",
    "timezone": "Africa/Abidjan",
    "latitude": 6.00705,
    "longitude": -6.04273
  },
  {
    "city": "Zokassou",
    "city_zh": "Zokassou",
    "country": "Ivory Coast",
    "country_zh": "象牙海岸",
    "country_iso_code": "CI",
    "timezone": "Africa/Abidjan",
    "latitude": 7.45486,
    "longitude": -5.32052
  },
  {
    "city": "Zokoma",
    "city_zh": "Zokoma",
    "country": "Ivory Coast",
    "country_zh": "象牙海岸",
    "country_iso_code": "CI",
    "timezone": "Africa/Abidjan",
    "latitude": 7.7926,
    "longitude": -7.85959
  },
  {
    "city": "Zohouéleu",
    "city_zh": "Zohouéleu",
    "country": "Ivory Coast",
    "country_zh": "象牙海岸",
    "country_iso_code": "CI",
    "timezone": "Africa/Abidjan",
    "latitude": 7.05912,
    "longitude": -8.16835
  },
  {
    "city": "Zoguiné",
    "city_zh": "Zoguiné",
    "country": "Ivory Coast",
    "country_zh": "象牙海岸",
    "country_iso_code": "CI",
    "timezone": "Africa/Abidjan",
    "latitude": 6.54183,
    "longitude": -8.46914
  },
  {
    "city": "Zogoualé",
    "city_zh": "Zogoualé",
    "country": "Ivory Coast",
    "country_zh": "象牙海岸",
    "country_iso_code": "CI",
    "timezone": "Africa/Abidjan",
    "latitude": 7.43549,
    "longitude": -7.54835
  },
  {
    "city": "Zogonigbé",
    "city_zh": "Zogonigbé",
    "country": "Ivory Coast",
    "country_zh": "象牙海岸",
    "country_iso_code": "CI",
    "timezone": "Africa/Abidjan",
    "latitude": 5.2037,
    "longitude": -5.32017
  },
  {
    "city": "Zogbeu",
    "city_zh": "Zogbeu",
    "country": "Ivory Coast",
    "country_zh": "象牙海岸",
    "country_iso_code": "CI",
    "timezone": "Africa/Abidjan",
    "latitude": 6.79172,
    "longitude": -8.29005
  },
  {
    "city": "Zogba",
    "city_zh": "Zogba",
    "country": "Ivory Coast",
    "country_zh": "象牙海岸",
    "country_iso_code": "CI",
    "timezone": "Africa/Abidjan",
    "latitude": 6.48409,
    "longitude": -6.57214
  },
  {
    "city": "Zodofouma",
    "city_zh": "Zodofouma",
    "country": "Ivory Coast",
    "country_zh": "象牙海岸",
    "country_iso_code": "CI",
    "timezone": "Africa/Abidjan",
    "latitude": 8.42862,
    "longitude": -8.0603
  },
  {
    "city": "Zodji",
    "city_zh": "Zodji",
    "country": "Ivory Coast",
    "country_zh": "象牙海岸",
    "country_iso_code": "CI",
    "timezone": "Africa/Abidjan",
    "latitude": 6.0217,
    "longitude": -3.90665
  },
  {
    "city": "Zédékan",
    "city_zh": "Zédékan",
    "country": "Ivory Coast",
    "country_zh": "象牙海岸",
    "country_iso_code": "CI",
    "timezone": "Africa/Abidjan",
    "latitude": 7.62877,
    "longitude": -5.56916
  },
  {
    "city": "Zoboua",
    "city_zh": "Zoboua",
    "country": "Ivory Coast",
    "country_zh": "象牙海岸",
    "country_iso_code": "CI",
    "timezone": "Africa/Abidjan",
    "latitude": 6.70205,
    "longitude": -6.55527
  },
  {
    "city": "Zoboua I",
    "city_zh": "Zoboua I",
    "country": "Ivory Coast",
    "country_zh": "象牙海岸",
    "country_iso_code": "CI",
    "timezone": "Africa/Abidjan",
    "latitude": 6.71937,
    "longitude": -6.55685
  },
  {
    "city": "Zobiré",
    "city_zh": "Zobiré",
    "country": "Ivory Coast",
    "country_zh": "象牙海岸",
    "country_iso_code": "CI",
    "timezone": "Africa/Abidjan",
    "latitude": 7.00278,
    "longitude": -7.34694
  },
  {
    "city": "Zobia",
    "city_zh": "Zobia",
    "country": "Ivory Coast",
    "country_zh": "象牙海岸",
    "country_iso_code": "CI",
    "timezone": "Africa/Abidjan",
    "latitude": 6.69408,
    "longitude": -6.6437
  },
  {
    "city": "Zobia",
    "city_zh": "Zobia",
    "country": "Ivory Coast",
    "country_zh": "象牙海岸",
    "country_iso_code": "CI",
    "timezone": "Africa/Abidjan",
    "latitude": 6.47976,
    "longitude": -6.60487
  },
  {
    "city": "Zoazon",
    "city_zh": "Zoazon",
    "country": "Ivory Coast",
    "country_zh": "象牙海岸",
    "country_iso_code": "CI",
    "timezone": "Africa/Abidjan",
    "latitude": 6.5571,
    "longitude": -7.8159
  },
  {
    "city": "Zouangouen",
    "city_zh": "Zouangouen",
    "country": "Ivory Coast",
    "country_zh": "象牙海岸",
    "country_iso_code": "CI",
    "timezone": "Africa/Abidjan",
    "latitude": 7.62828,
    "longitude": -7.56075
  },
  {
    "city": "Zoandié",
    "city_zh": "Zoandié",
    "country": "Ivory Coast",
    "country_zh": "象牙海岸",
    "country_iso_code": "CI",
    "timezone": "Africa/Abidjan",
    "latitude": 7.66319,
    "longitude": -7.31943
  },
  {
    "city": "Zo",
    "city_zh": "Zo",
    "country": "Ivory Coast",
    "country_zh": "象牙海岸",
    "country_iso_code": "CI",
    "timezone": "Africa/Abidjan",
    "latitude": 8.16777,
    "longitude": -7.60041
  },
  {
    "city": "Zizézom",
    "city_zh": "Zizézom",
    "country": "Ivory Coast",
    "country_zh": "象牙海岸",
    "country_iso_code": "CI",
    "timezone": "Africa/Abidjan",
    "latitude": 6.31667,
    "longitude": -6.15
  },
  {
    "city": "Ziziessou",
    "city_zh": "Ziziessou",
    "country": "Ivory Coast",
    "country_zh": "象牙海岸",
    "country_iso_code": "CI",
    "timezone": "Africa/Abidjan",
    "latitude": 7.09986,
    "longitude": -5.07589
  },
  {
    "city": "Ziouébli",
    "city_zh": "Ziouébli",
    "country": "Ivory Coast",
    "country_zh": "象牙海岸",
    "country_iso_code": "CI",
    "timezone": "Africa/Abidjan",
    "latitude": 6.6517,
    "longitude": -8.43955
  },
  {
    "city": "Ziondrou Zibo",
    "city_zh": "Ziondrou Zibo",
    "country": "Ivory Coast",
    "country_zh": "象牙海岸",
    "country_iso_code": "CI",
    "timezone": "Africa/Abidjan",
    "latitude": 7.17484,
    "longitude": -7.39551
  },
  {
    "city": "Ziombli",
    "city_zh": "Ziombli",
    "country": "Ivory Coast",
    "country_zh": "象牙海岸",
    "country_iso_code": "CI",
    "timezone": "Africa/Abidjan",
    "latitude": 6.54638,
    "longitude": -8.37518
  },
  {
    "city": "Zinzénou",
    "city_zh": "Zinzénou",
    "country": "Ivory Coast",
    "country_zh": "象牙海岸",
    "country_iso_code": "CI",
    "timezone": "Africa/Abidjan",
    "latitude": 6.88139,
    "longitude": -3.45806
  },
  {
    "city": "Zaguinasso",
    "city_zh": "Zaguinasso",
    "country": "Ivory Coast",
    "country_zh": "象牙海岸",
    "country_iso_code": "CI",
    "timezone": "Africa/Abidjan",
    "latitude": 10.04886,
    "longitude": -6.35999
  },
  {
    "city": "Zinékro",
    "city_zh": "Zinékro",
    "country": "Ivory Coast",
    "country_zh": "象牙海岸",
    "country_iso_code": "CI",
    "timezone": "Africa/Abidjan",
    "latitude": 7.41667,
    "longitude": -4.18333
  },
  {
    "city": "Zindé",
    "city_zh": "Zindé",
    "country": "Ivory Coast",
    "country_zh": "象牙海岸",
    "country_iso_code": "CI",
    "timezone": "Africa/Abidjan",
    "latitude": 7.55806,
    "longitude": -5.59972
  },
  {
    "city": "Zimèkaha",
    "city_zh": "Zimèkaha",
    "country": "Ivory Coast",
    "country_zh": "象牙海岸",
    "country_iso_code": "CI",
    "timezone": "Africa/Abidjan",
    "latitude": 9.4888,
    "longitude": -5.45916
  },
  {
    "city": "Zikriby",
    "city_zh": "Zikriby",
    "country": "Ivory Coast",
    "country_zh": "象牙海岸",
    "country_iso_code": "CI",
    "timezone": "Africa/Abidjan",
    "latitude": 5.613,
    "longitude": -5.42515
  },
  {
    "city": "Zikozibré",
    "city_zh": "Zikozibré",
    "country": "Ivory Coast",
    "country_zh": "象牙海岸",
    "country_iso_code": "CI",
    "timezone": "Africa/Abidjan",
    "latitude": 5.71348,
    "longitude": -6.25209
  },
  {
    "city": "Zikozibouo",
    "city_zh": "Zikozibouo",
    "country": "Ivory Coast",
    "country_zh": "象牙海岸",
    "country_iso_code": "CI",
    "timezone": "Africa/Abidjan",
    "latitude": 5.71711,
    "longitude": -6.26523
  },
  {
    "city": "Zikouakou",
    "city_zh": "Zikouakou",
    "country": "Ivory Coast",
    "country_zh": "象牙海岸",
    "country_iso_code": "CI",
    "timezone": "Africa/Abidjan",
    "latitude": 7.25,
    "longitude": -3.9
  },
  {
    "city": "Zikoboué",
    "city_zh": "Zikoboué",
    "country": "Ivory Coast",
    "country_zh": "象牙海岸",
    "country_iso_code": "CI",
    "timezone": "Africa/Abidjan",
    "latitude": 5.78514,
    "longitude": -5.77164
  },
  {
    "city": "Zikisso",
    "city_zh": "Zikisso",
    "country": "Ivory Coast",
    "country_zh": "象牙海岸",
    "country_iso_code": "CI",
    "timezone": "Africa/Abidjan",
    "latitude": 6.06396,
    "longitude": -5.70245
  },
  {
    "city": "Zikagbeu",
    "city_zh": "Zikagbeu",
    "country": "Ivory Coast",
    "country_zh": "象牙海岸",
    "country_iso_code": "CI",
    "timezone": "Africa/Abidjan",
    "latitude": 6.75608,
    "longitude": -6.89125
  },
  {
    "city": "Nzikafénou",
    "city_zh": "Nzikafénou",
    "country": "Ivory Coast",
    "country_zh": "象牙海岸",
    "country_iso_code": "CI",
    "timezone": "Africa/Abidjan",
    "latitude": 7.10884,
    "longitude": -5.09693
  },
  {
    "city": "Ziguédia",
    "city_zh": "Ziguédia",
    "country": "Ivory Coast",
    "country_zh": "象牙海岸",
    "country_iso_code": "CI",
    "timezone": "Africa/Abidjan",
    "latitude": 6.75573,
    "longitude": -6.51823
  },
  {
    "city": "Zigopa",
    "city_zh": "Zigopa",
    "country": "Ivory Coast",
    "country_zh": "象牙海岸",
    "country_iso_code": "CI",
    "timezone": "Africa/Abidjan",
    "latitude": 6.19153,
    "longitude": -5.76975
  },
  {
    "city": "Zigofla",
    "city_zh": "Zigofla",
    "country": "Ivory Coast",
    "country_zh": "象牙海岸",
    "country_iso_code": "CI",
    "timezone": "Africa/Abidjan",
    "latitude": 7.55094,
    "longitude": -5.96927
  },
  {
    "city": "Ziglo",
    "city_zh": "Ziglo",
    "country": "Ivory Coast",
    "country_zh": "象牙海岸",
    "country_iso_code": "CI",
    "timezone": "Africa/Abidjan",
    "latitude": 6.56348,
    "longitude": -7.79631
  },
  {
    "city": "Zigbayo II",
    "city_zh": "Zigbayo II",
    "country": "Ivory Coast",
    "country_zh": "象牙海岸",
    "country_iso_code": "CI",
    "timezone": "Africa/Abidjan",
    "latitude": 5.62934,
    "longitude": -6.04127
  },
  {
    "city": "Zigbayo I",
    "city_zh": "Zigbayo I",
    "country": "Ivory Coast",
    "country_zh": "象牙海岸",
    "country_iso_code": "CI",
    "timezone": "Africa/Abidjan",
    "latitude": 5.63205,
    "longitude": -6.04246
  },
  {
    "city": "Ligaleu",
    "city_zh": "Ligaleu",
    "country": "Ivory Coast",
    "country_zh": "象牙海岸",
    "country_iso_code": "CI",
    "timezone": "Africa/Abidjan",
    "latitude": 7.01543,
    "longitude": -8.25598
  },
  {
    "city": "Ziévaso",
    "city_zh": "Ziévaso",
    "country": "Ivory Coast",
    "country_zh": "象牙海岸",
    "country_iso_code": "CI",
    "timezone": "Africa/Abidjan",
    "latitude": 9.42091,
    "longitude": -7.58576
  },
  {
    "city": "Ziénoa",
    "city_zh": "Ziénoa",
    "country": "Ivory Coast",
    "country_zh": "象牙海岸",
    "country_iso_code": "CI",
    "timezone": "Africa/Abidjan",
    "latitude": 6.2,
    "longitude": -4.96667
  },
  {
    "city": "Ziémougoula",
    "city_zh": "Ziémougoula",
    "country": "Ivory Coast",
    "country_zh": "象牙海岸",
    "country_iso_code": "CI",
    "timezone": "Africa/Abidjan",
    "latitude": 9.91914,
    "longitude": -7.43531
  },
  {
    "city": "Ziékozo",
    "city_zh": "Ziékozo",
    "country": "Ivory Coast",
    "country_zh": "象牙海岸",
    "country_iso_code": "CI",
    "timezone": "Africa/Abidjan",
    "latitude": 6.34174,
    "longitude": -5.89964
  },
  {
    "city": "Ziékanha",
    "city_zh": "Ziékanha",
    "country": "Ivory Coast",
    "country_zh": "象牙海岸",
    "country_iso_code": "CI",
    "timezone": "Africa/Abidjan",
    "latitude": 10.15408,
    "longitude": -5.91981
  },
  {
    "city": "Ziédougou",
    "city_zh": "Ziédougou",
    "country": "Ivory Coast",
    "country_zh": "象牙海岸",
    "country_iso_code": "CI",
    "timezone": "Africa/Abidjan",
    "latitude": 9.25287,
    "longitude": -6.48813
  },
  {
    "city": "Ziduo",
    "city_zh": "Ziduo",
    "country": "Ivory Coast",
    "country_zh": "象牙海岸",
    "country_iso_code": "CI",
    "timezone": "Africa/Abidjan",
    "latitude": 7.41197,
    "longitude": -6.04806
  },
  {
    "city": "Ziduo",
    "city_zh": "Ziduo",
    "country": "Ivory Coast",
    "country_zh": "象牙海岸",
    "country_iso_code": "CI",
    "timezone": "Africa/Abidjan",
    "latitude": 7.38295,
    "longitude": -6.1688
  },
  {
    "city": "Ziasso",
    "city_zh": "Ziasso",
    "country": "Ivory Coast",
    "country_zh": "象牙海岸",
    "country_iso_code": "CI",
    "timezone": "Africa/Abidjan",
    "latitude": 10.0,
    "longitude": -6.5
  },
  {
    "city": "Zialégraoa",
    "city_zh": "Zialégraoa",
    "country": "Ivory Coast",
    "country_zh": "象牙海岸",
    "country_iso_code": "CI",
    "timezone": "Africa/Abidjan",
    "latitude": 6.1978,
    "longitude": -6.26565
  },
  {
    "city": "Ziakoumia",
    "city_zh": "Ziakoumia",
    "country": "Ivory Coast",
    "country_zh": "象牙海岸",
    "country_iso_code": "CI",
    "timezone": "Africa/Abidjan",
    "latitude": 7.25,
    "longitude": -3.91667
  },
  {
    "city": "Ziaéké",
    "city_zh": "Ziaéké",
    "country": "Ivory Coast",
    "country_zh": "象牙海岸",
    "country_iso_code": "CI",
    "timezone": "Africa/Abidjan",
    "latitude": 5.19337,
    "longitude": -7.45731
  },
  {
    "city": "Zozua",
    "city_zh": "Zozua",
    "country": "Ivory Coast",
    "country_zh": "象牙海岸",
    "country_iso_code": "CI",
    "timezone": "Africa/Abidjan",
    "latitude": 6.65131,
    "longitude": -6.56431
  },
  {
    "city": "Zézayo",
    "city_zh": "Zézayo",
    "country": "Ivory Coast",
    "country_zh": "象牙海岸",
    "country_iso_code": "CI",
    "timezone": "Africa/Abidjan",
    "latitude": 6.3656,
    "longitude": -6.24437
  },
  {
    "city": "Zéwélékaha",
    "city_zh": "Zéwélékaha",
    "country": "Ivory Coast",
    "country_zh": "象牙海岸",
    "country_iso_code": "CI",
    "timezone": "Africa/Abidjan",
    "latitude": 9.4,
    "longitude": -5.45
  },
  {
    "city": "Zetodigba",
    "city_zh": "Zetodigba",
    "country": "Ivory Coast",
    "country_zh": "象牙海岸",
    "country_iso_code": "CI",
    "timezone": "Africa/Abidjan",
    "latitude": 6.91043,
    "longitude": -6.56593
  },
  {
    "city": "Zesso",
    "city_zh": "Zesso",
    "country": "Ivory Coast",
    "country_zh": "象牙海岸",
    "country_iso_code": "CI",
    "timezone": "Africa/Abidjan",
    "latitude": 10.15974,
    "longitude": -6.71103
  },
  {
    "city": "Zérolé",
    "city_zh": "Zérolé",
    "country": "Ivory Coast",
    "country_zh": "象牙海岸",
    "country_iso_code": "CI",
    "timezone": "Africa/Abidjan",
    "latitude": 7.74424,
    "longitude": -7.31802
  },
  {
    "city": "Zérégouiné",
    "city_zh": "Zérégouiné",
    "country": "Ivory Coast",
    "country_zh": "象牙海岸",
    "country_iso_code": "CI",
    "timezone": "Africa/Abidjan",
    "latitude": 7.56495,
    "longitude": -7.96769
  },
  {
    "city": "Zérifla",
    "city_zh": "Zérifla",
    "country": "Ivory Coast",
    "country_zh": "象牙海岸",
    "country_iso_code": "CI",
    "timezone": "Africa/Abidjan",
    "latitude": 7.67908,
    "longitude": -5.99009
  },
  {
    "city": "Zéribéri",
    "city_zh": "Zéribéri",
    "country": "Ivory Coast",
    "country_zh": "象牙海岸",
    "country_iso_code": "CI",
    "timezone": "Africa/Abidjan",
    "latitude": 5.38418,
    "longitude": -5.44369
  },
  {
    "city": "Zéréguhé",
    "city_zh": "Zéréguhé",
    "country": "Ivory Coast",
    "country_zh": "象牙海岸",
    "country_iso_code": "CI",
    "timezone": "Africa/Abidjan",
    "latitude": 6.43194,
    "longitude": -6.54333
  },
  {
    "city": "Zérégouiné",
    "city_zh": "Zérégouiné",
    "country": "Ivory Coast",
    "country_zh": "象牙海岸",
    "country_iso_code": "CI",
    "timezone": "Africa/Abidjan",
    "latitude": 7.12139,
    "longitude": -7.54111
  },
  {
    "city": "Zérégouin",
    "city_zh": "Zérégouin",
    "country": "Ivory Coast",
    "country_zh": "象牙海岸",
    "country_iso_code": "CI",
    "timezone": "Africa/Abidjan",
    "latitude": 7.56444,
    "longitude": -7.63423
  },
  {
    "city": "Zérégarayo",
    "city_zh": "Zérégarayo",
    "country": "Ivory Coast",
    "country_zh": "象牙海岸",
    "country_iso_code": "CI",
    "timezone": "Africa/Abidjan",
    "latitude": 8.6,
    "longitude": -3.35
  },
  {
    "city": "Zéréfla",
    "city_zh": "Zéréfla",
    "country": "Ivory Coast",
    "country_zh": "象牙海岸",
    "country_iso_code": "CI",
    "timezone": "Africa/Abidjan",
    "latitude": 6.98479,
    "longitude": -6.34187
  },
  {
    "city": "Zérégbo",
    "city_zh": "Zérégbo",
    "country": "Ivory Coast",
    "country_zh": "象牙海岸",
    "country_iso_code": "CI",
    "timezone": "Africa/Abidjan",
    "latitude": 7.07081,
    "longitude": -7.91012
  },
  {
    "city": "Zéléayo",
    "city_zh": "Zéléayo",
    "country": "Ivory Coast",
    "country_zh": "象牙海岸",
    "country_iso_code": "CI",
    "timezone": "Africa/Abidjan",
    "latitude": 6.20457,
    "longitude": -6.33406
  },
  {
    "city": "Zéré",
    "city_zh": "Zéré",
    "country": "Ivory Coast",
    "country_zh": "象牙海岸",
    "country_iso_code": "CI",
    "timezone": "Africa/Abidjan",
    "latitude": 8.01226,
    "longitude": -3.01988
  },
  {
    "city": "Zélé",
    "city_zh": "Zélé",
    "country": "Ivory Coast",
    "country_zh": "象牙海岸",
    "country_iso_code": "CI",
    "timezone": "Africa/Abidjan",
    "latitude": 7.36715,
    "longitude": -7.58429
  },
  {
    "city": "Zérahio",
    "city_zh": "Zérahio",
    "country": "Ivory Coast",
    "country_zh": "象牙海岸",
    "country_iso_code": "CI",
    "timezone": "Africa/Abidjan",
    "latitude": 6.32459,
    "longitude": -6.17327
  },
  {
    "city": "Zépréguhé",
    "city_zh": "Zépréguhé",
    "country": "Ivory Coast",
    "country_zh": "象牙海岸",
    "country_iso_code": "CI",
    "timezone": "Africa/Abidjan",
    "latitude": 6.90617,
    "longitude": -6.3704
  },
  {
    "city": "Zépo",
    "city_zh": "Zépo",
    "country": "Ivory Coast",
    "country_zh": "象牙海岸",
    "country_iso_code": "CI",
    "timezone": "Africa/Abidjan",
    "latitude": 8.11867,
    "longitude": -3.21108
  },
  {
    "city": "Zépéoua",
    "city_zh": "Zépéoua",
    "country": "Ivory Coast",
    "country_zh": "象牙海岸",
    "country_iso_code": "CI",
    "timezone": "Africa/Abidjan",
    "latitude": 6.0984,
    "longitude": -6.39774
  },
  {
    "city": "Zépédougou",
    "city_zh": "Zépédougou",
    "country": "Ivory Coast",
    "country_zh": "象牙海岸",
    "country_iso_code": "CI",
    "timezone": "Africa/Abidjan",
    "latitude": 10.18701,
    "longitude": -5.31636
  },
  {
    "city": "Zéouanou",
    "city_zh": "Zéouanou",
    "country": "Ivory Coast",
    "country_zh": "象牙海岸",
    "country_iso_code": "CI",
    "timezone": "Africa/Abidjan",
    "latitude": 7.2,
    "longitude": -4.41667
  },
  {
    "city": "Zéo",
    "city_zh": "Zéo",
    "country": "Ivory Coast",
    "country_zh": "象牙海岸",
    "country_iso_code": "CI",
    "timezone": "Africa/Abidjan",
    "latitude": 7.12039,
    "longitude": -7.46935
  },
  {
    "city": "Zéngouanou",
    "city_zh": "Zéngouanou",
    "country": "Ivory Coast",
    "country_zh": "象牙海岸",
    "country_iso_code": "CI",
    "timezone": "Africa/Abidjan",
    "latitude": 7.77948,
    "longitude": -5.3891
  },
  {
    "city": "Zénékaha",
    "city_zh": "Zénékaha",
    "country": "Ivory Coast",
    "country_zh": "象牙海岸",
    "country_iso_code": "CI",
    "timezone": "Africa/Abidjan",
    "latitude": 9.60062,
    "longitude": -5.41683
  },
  {
    "city": "Zémongokaha",
    "city_zh": "Zémongokaha",
    "country": "Ivory Coast",
    "country_zh": "象牙海岸",
    "country_iso_code": "CI",
    "timezone": "Africa/Abidjan",
    "latitude": 9.6465,
    "longitude": -5.6198
  },
  {
    "city": "Zéménéfla",
    "city_zh": "Zéménéfla",
    "country": "Ivory Coast",
    "country_zh": "象牙海岸",
    "country_iso_code": "CI",
    "timezone": "Africa/Abidjan",
    "latitude": 6.64117,
    "longitude": -5.83219
  },
  {
    "city": "Zéménéfla",
    "city_zh": "Zéménéfla",
    "country": "Ivory Coast",
    "country_zh": "象牙海岸",
    "country_iso_code": "CI",
    "timezone": "Africa/Abidjan",
    "latitude": 6.54333,
    "longitude": -5.78906
  },
  {
    "city": "Zélia Kora",
    "city_zh": "Zélia Kora",
    "country": "Ivory Coast",
    "country_zh": "象牙海岸",
    "country_iso_code": "CI",
    "timezone": "Africa/Abidjan",
    "latitude": 6.70453,
    "longitude": -6.49597
  },
  {
    "city": "Zékrézinssou",
    "city_zh": "Zékrézinssou",
    "country": "Ivory Coast",
    "country_zh": "象牙海岸",
    "country_iso_code": "CI",
    "timezone": "Africa/Abidjan",
    "latitude": 7.07158,
    "longitude": -4.28036
  },
  {
    "city": "Zéizra",
    "city_zh": "Zéizra",
    "country": "Ivory Coast",
    "country_zh": "象牙海岸",
    "country_iso_code": "CI",
    "timezone": "Africa/Abidjan",
    "latitude": 7.4,
    "longitude": -6.23333
  },
  {
    "city": "Zéitouo",
    "city_zh": "Zéitouo",
    "country": "Ivory Coast",
    "country_zh": "象牙海岸",
    "country_iso_code": "CI",
    "timezone": "Africa/Abidjan",
    "latitude": 6.6294,
    "longitude": -8.3606
  },
  {
    "city": "Zéhirou",
    "city_zh": "Zéhirou",
    "country": "Ivory Coast",
    "country_zh": "象牙海岸",
    "country_iso_code": "CI",
    "timezone": "Africa/Abidjan",
    "latitude": 6.55756,
    "longitude": -7.68438
  },
  {
    "city": "Zéhiri",
    "city_zh": "Zéhiri",
    "country": "Ivory Coast",
    "country_zh": "象牙海岸",
    "country_iso_code": "CI",
    "timezone": "Africa/Abidjan",
    "latitude": 6.02477,
    "longitude": -5.2328
  },
  {
    "city": "Zégréboué",
    "city_zh": "Zégréboué",
    "country": "Ivory Coast",
    "country_zh": "象牙海岸",
    "country_iso_code": "CI",
    "timezone": "Africa/Abidjan",
    "latitude": 5.37348,
    "longitude": -5.91773
  },
  {
    "city": "Zegbao",
    "city_zh": "Zegbao",
    "country": "Ivory Coast",
    "country_zh": "象牙海岸",
    "country_iso_code": "CI",
    "timezone": "Africa/Abidjan",
    "latitude": 9.43271,
    "longitude": -7.27227
  },
  {
    "city": "Zégo",
    "city_zh": "Zégo",
    "country": "Ivory Coast",
    "country_zh": "象牙海岸",
    "country_iso_code": "CI",
    "timezone": "Africa/Abidjan",
    "latitude": 6.14078,
    "longitude": -5.19226
  },
  {
    "city": "Zegban",
    "city_zh": "Zegban",
    "country": "Ivory Coast",
    "country_zh": "象牙海岸",
    "country_iso_code": "CI",
    "timezone": "Africa/Abidjan",
    "latitude": 5.16369,
    "longitude": -5.58882
  },
  {
    "city": "Zégata",
    "city_zh": "Zégata",
    "country": "Ivory Coast",
    "country_zh": "象牙海岸",
    "country_iso_code": "CI",
    "timezone": "Africa/Abidjan",
    "latitude": 6.97561,
    "longitude": -5.58863
  },
  {
    "city": "Zégata",
    "city_zh": "Zégata",
    "country": "Ivory Coast",
    "country_zh": "象牙海岸",
    "country_iso_code": "CI",
    "timezone": "Africa/Abidjan",
    "latitude": 6.78815,
    "longitude": -6.06287
  },
  {
    "city": "Zégassikro",
    "city_zh": "Zégassikro",
    "country": "Ivory Coast",
    "country_zh": "象牙海岸",
    "country_iso_code": "CI",
    "timezone": "Africa/Abidjan",
    "latitude": 7.06667,
    "longitude": -3.9
  },
  {
    "city": "Zéga",
    "city_zh": "Zéga",
    "country": "Ivory Coast",
    "country_zh": "象牙海岸",
    "country_iso_code": "CI",
    "timezone": "Africa/Abidjan",
    "latitude": 6.50061,
    "longitude": -6.42126
  },
  {
    "city": "Zéfigékaha",
    "city_zh": "Zéfigékaha",
    "country": "Ivory Coast",
    "country_zh": "象牙海岸",
    "country_iso_code": "CI",
    "timezone": "Africa/Abidjan",
    "latitude": 9.49421,
    "longitude": -5.42562
  },
  {
    "city": "Zédéguhé",
    "city_zh": "Zédéguhé",
    "country": "Ivory Coast",
    "country_zh": "象牙海岸",
    "country_iso_code": "CI",
    "timezone": "Africa/Abidjan",
    "latitude": 6.52028,
    "longitude": -6.7775
  },
  {
    "city": "Dianhou",
    "city_zh": "Dianhou",
    "country": "Ivory Coast",
    "country_zh": "象牙海岸",
    "country_iso_code": "CI",
    "timezone": "Africa/Abidjan",
    "latitude": 7.5384,
    "longitude": -5.45251
  },
  {
    "city": "Zébra",
    "city_zh": "Zébra",
    "country": "Ivory Coast",
    "country_zh": "象牙海岸",
    "country_iso_code": "CI",
    "timezone": "Africa/Abidjan",
    "latitude": 6.92126,
    "longitude": -6.52948
  },
  {
    "city": "Zébizékou",
    "city_zh": "Zébizékou",
    "country": "Ivory Coast",
    "country_zh": "象牙海岸",
    "country_iso_code": "CI",
    "timezone": "Africa/Abidjan",
    "latitude": 6.34871,
    "longitude": -5.94055
  },
  {
    "city": "Zébénou",
    "city_zh": "Zébénou",
    "country": "Ivory Coast",
    "country_zh": "象牙海岸",
    "country_iso_code": "CI",
    "timezone": "Africa/Abidjan",
    "latitude": 6.82131,
    "longitude": -3.56757
  },
  {
    "city": "Zébénin",
    "city_zh": "Zébénin",
    "country": "Ivory Coast",
    "country_zh": "象牙海岸",
    "country_iso_code": "CI",
    "timezone": "Africa/Abidjan",
    "latitude": 9.31612,
    "longitude": -7.32087
  },
  {
    "city": "Zéalé",
    "city_zh": "Zéalé",
    "country": "Ivory Coast",
    "country_zh": "象牙海岸",
    "country_iso_code": "CI",
    "timezone": "Africa/Abidjan",
    "latitude": 7.43054,
    "longitude": -8.28479
  },
  {
    "city": "Zéalé",
    "city_zh": "Zéalé",
    "country": "Ivory Coast",
    "country_zh": "象牙海岸",
    "country_iso_code": "CI",
    "timezone": "Africa/Abidjan",
    "latitude": 6.98846,
    "longitude": -8.16097
  },
  {
    "city": "Zé",
    "city_zh": "Zé",
    "country": "Ivory Coast",
    "country_zh": "象牙海岸",
    "country_iso_code": "CI",
    "timezone": "Africa/Abidjan",
    "latitude": 7.38654,
    "longitude": -7.46917
  },
  {
    "city": "Zahia",
    "city_zh": "Zahia",
    "country": "Ivory Coast",
    "country_zh": "象牙海岸",
    "country_iso_code": "CI",
    "timezone": "Africa/Abidjan",
    "latitude": 6.91672,
    "longitude": -6.57811
  },
  {
    "city": "Zavadougou",
    "city_zh": "Zavadougou",
    "country": "Ivory Coast",
    "country_zh": "象牙海岸",
    "country_iso_code": "CI",
    "timezone": "Africa/Abidjan",
    "latitude": 9.66667,
    "longitude": -7.5
  },
  {
    "city": "Zata",
    "city_zh": "Zata",
    "country": "Ivory Coast",
    "country_zh": "象牙海岸",
    "country_iso_code": "CI",
    "timezone": "Africa/Abidjan",
    "latitude": 6.87914,
    "longitude": -5.40398
  },
  {
    "city": "Zaroko",
    "city_zh": "Zaroko",
    "country": "Ivory Coast",
    "country_zh": "象牙海岸",
    "country_iso_code": "CI",
    "timezone": "Africa/Abidjan",
    "latitude": 6.13911,
    "longitude": -5.30224
  },
  {
    "city": "Zaranou",
    "city_zh": "Zaranou",
    "country": "Ivory Coast",
    "country_zh": "象牙海岸",
    "country_iso_code": "CI",
    "timezone": "Africa/Abidjan",
    "latitude": 6.4265,
    "longitude": -3.36171
  },
  {
    "city": "Zarala",
    "city_zh": "Zarala",
    "country": "Ivory Coast",
    "country_zh": "象牙海岸",
    "country_iso_code": "CI",
    "timezone": "Africa/Abidjan",
    "latitude": 8.27819,
    "longitude": -2.53031
  },
  {
    "city": "Zaragoua",
    "city_zh": "Zaragoua",
    "country": "Ivory Coast",
    "country_zh": "象牙海岸",
    "country_iso_code": "CI",
    "timezone": "Africa/Abidjan",
    "latitude": 6.79276,
    "longitude": -6.40022
  },
  {
    "city": "Zanzra",
    "city_zh": "Zanzra",
    "country": "Ivory Coast",
    "country_zh": "象牙海岸",
    "country_iso_code": "CI",
    "timezone": "Africa/Abidjan",
    "latitude": 7.47962,
    "longitude": -6.21069
  },
  {
    "city": "Zanzé",
    "city_zh": "Zanzé",
    "country": "Ivory Coast",
    "country_zh": "象牙海岸",
    "country_iso_code": "CI",
    "timezone": "Africa/Abidjan",
    "latitude": 9.82533,
    "longitude": -3.79336
  },
  {
    "city": "Zanzansso",
    "city_zh": "Zanzansso",
    "country": "Ivory Coast",
    "country_zh": "象牙海岸",
    "country_iso_code": "CI",
    "timezone": "Africa/Abidjan",
    "latitude": 7.37356,
    "longitude": -3.87782
  },
  {
    "city": "Zanzan",
    "city_zh": "Zanzan",
    "country": "Ivory Coast",
    "country_zh": "象牙海岸",
    "country_iso_code": "CI",
    "timezone": "Africa/Abidjan",
    "latitude": 7.95714,
    "longitude": -2.83224
  },
  {
    "city": "Zantongouin",
    "city_zh": "Zantongouin",
    "country": "Ivory Coast",
    "country_zh": "象牙海岸",
    "country_iso_code": "CI",
    "timezone": "Africa/Abidjan",
    "latitude": 7.5827,
    "longitude": -7.78805
  },
  {
    "city": "Zanpéfogo",
    "city_zh": "Zanpéfogo",
    "country": "Ivory Coast",
    "country_zh": "象牙海岸",
    "country_iso_code": "CI",
    "timezone": "Africa/Abidjan",
    "latitude": 10.18333,
    "longitude": -5.46667
  },
  {
    "city": "Zanfouefla",
    "city_zh": "Zanfouefla",
    "country": "Ivory Coast",
    "country_zh": "象牙海岸",
    "country_iso_code": "CI",
    "timezone": "Africa/Abidjan",
    "latitude": 7.1326,
    "longitude": -5.82496
  },
  {
    "city": "Zanoukro",
    "city_zh": "Zanoukro",
    "country": "Ivory Coast",
    "country_zh": "象牙海岸",
    "country_iso_code": "CI",
    "timezone": "Africa/Abidjan",
    "latitude": 7.55305,
    "longitude": -4.32363
  },
  {
    "city": "Zanoufla",
    "city_zh": "Zanoufla",
    "country": "Ivory Coast",
    "country_zh": "象牙海岸",
    "country_iso_code": "CI",
    "timezone": "Africa/Abidjan",
    "latitude": 6.79667,
    "longitude": -6.00278
  },
  {
    "city": "Zankouana",
    "city_zh": "Zankouana",
    "country": "Ivory Coast",
    "country_zh": "象牙海岸",
    "country_iso_code": "CI",
    "timezone": "Africa/Abidjan",
    "latitude": 10.08667,
    "longitude": -6.01194
  },
  {
    "city": "Zankoïfla",
    "city_zh": "Zankoïfla",
    "country": "Ivory Coast",
    "country_zh": "象牙海岸",
    "country_iso_code": "CI",
    "timezone": "Africa/Abidjan",
    "latitude": 7.49427,
    "longitude": -5.87996
  },
  {
    "city": "Zankandougou",
    "city_zh": "Zankandougou",
    "country": "Ivory Coast",
    "country_zh": "象牙海岸",
    "country_iso_code": "CI",
    "timezone": "Africa/Abidjan",
    "latitude": 8.29326,
    "longitude": -7.96791
  },
  {
    "city": "Zanikro",
    "city_zh": "Zanikro",
    "country": "Ivory Coast",
    "country_zh": "象牙海岸",
    "country_iso_code": "CI",
    "timezone": "Africa/Abidjan",
    "latitude": 7.81792,
    "longitude": -5.29676
  },
  {
    "city": "Zaniégué",
    "city_zh": "Zaniégué",
    "country": "Ivory Coast",
    "country_zh": "象牙海岸",
    "country_iso_code": "CI",
    "timezone": "Africa/Abidjan",
    "latitude": 10.035,
    "longitude": -6.75917
  },
  {
    "city": "Zan Hounien",
    "city_zh": "Zan Hounien",
    "country": "Ivory Coast",
    "country_zh": "象牙海岸",
    "country_iso_code": "CI",
    "timezone": "Africa/Abidjan",
    "latitude": 7.11636,
    "longitude": -8.12395
  },
  {
    "city": "Zangué",
    "city_zh": "Zangué",
    "country": "Ivory Coast",
    "country_zh": "象牙海岸",
    "country_iso_code": "CI",
    "timezone": "Africa/Abidjan",
    "latitude": 6.43055,
    "longitude": -5.35551
  },
  {
    "city": "Zangrofla",
    "city_zh": "Zangrofla",
    "country": "Ivory Coast",
    "country_zh": "象牙海岸",
    "country_iso_code": "CI",
    "timezone": "Africa/Abidjan",
    "latitude": 7.28451,
    "longitude": -6.24612
  },
  {
    "city": "Zangouen",
    "city_zh": "Zangouen",
    "country": "Ivory Coast",
    "country_zh": "象牙海岸",
    "country_iso_code": "CI",
    "timezone": "Africa/Abidjan",
    "latitude": 7.43333,
    "longitude": -7.48333
  },
  {
    "city": "Zagoué",
    "city_zh": "Zagoué",
    "country": "Ivory Coast",
    "country_zh": "象牙海岸",
    "country_iso_code": "CI",
    "timezone": "Africa/Abidjan",
    "latitude": 7.48018,
    "longitude": -7.49731
  },
  {
    "city": "Zangoo-Sokoura",
    "city_zh": "Zangoo-Sokoura",
    "country": "Ivory Coast",
    "country_zh": "象牙海岸",
    "country_iso_code": "CI",
    "timezone": "Africa/Abidjan",
    "latitude": 9.37337,
    "longitude": -7.05776
  },
  {
    "city": "Zangoho-Sokoro",
    "city_zh": "Zangoho-Sokoro",
    "country": "Ivory Coast",
    "country_zh": "象牙海岸",
    "country_iso_code": "CI",
    "timezone": "Africa/Abidjan",
    "latitude": 9.30152,
    "longitude": -7.20052
  },
  {
    "city": "Zangboplé",
    "city_zh": "Zangboplé",
    "country": "Ivory Coast",
    "country_zh": "象牙海岸",
    "country_iso_code": "CI",
    "timezone": "Africa/Abidjan",
    "latitude": 9.32082,
    "longitude": -5.85694
  },
  {
    "city": "Zangbopka",
    "city_zh": "Zangbopka",
    "country": "Ivory Coast",
    "country_zh": "象牙海岸",
    "country_iso_code": "CI",
    "timezone": "Africa/Abidjan",
    "latitude": 9.13744,
    "longitude": -5.78119
  },
  {
    "city": "Zangavogo",
    "city_zh": "Zangavogo",
    "country": "Ivory Coast",
    "country_zh": "象牙海岸",
    "country_iso_code": "CI",
    "timezone": "Africa/Abidjan",
    "latitude": 9.65,
    "longitude": -5.3
  },
  {
    "city": "Zangavogo",
    "city_zh": "Zangavogo",
    "country": "Ivory Coast",
    "country_zh": "象牙海岸",
    "country_iso_code": "CI",
    "timezone": "Africa/Abidjan",
    "latitude": 9.55,
    "longitude": -5.83333
  },
  {
    "city": "Zangagleu",
    "city_zh": "Zangagleu",
    "country": "Ivory Coast",
    "country_zh": "象牙海岸",
    "country_iso_code": "CI",
    "timezone": "Africa/Abidjan",
    "latitude": 7.45466,
    "longitude": -8.30066
  },
  {
    "city": "Zangaha",
    "city_zh": "Zangaha",
    "country": "Ivory Coast",
    "country_zh": "象牙海岸",
    "country_iso_code": "CI",
    "timezone": "Africa/Abidjan",
    "latitude": 9.28611,
    "longitude": -6.23806
  },
  {
    "city": "Zanfouénou",
    "city_zh": "Zanfouénou",
    "country": "Ivory Coast",
    "country_zh": "象牙海岸",
    "country_iso_code": "CI",
    "timezone": "Africa/Abidjan",
    "latitude": 6.70516,
    "longitude": -4.10607
  },
  {
    "city": "Zanékan",
    "city_zh": "Zanékan",
    "country": "Ivory Coast",
    "country_zh": "象牙海岸",
    "country_iso_code": "CI",
    "timezone": "Africa/Abidjan",
    "latitude": 10.30417,
    "longitude": -6.24948
  },
  {
    "city": "Zanefogo",
    "city_zh": "Zanefogo",
    "country": "Ivory Coast",
    "country_zh": "象牙海岸",
    "country_iso_code": "CI",
    "timezone": "Africa/Abidjan",
    "latitude": 10.21506,
    "longitude": -5.51772
  },
  {
    "city": "Zandougou",
    "city_zh": "Zandougou",
    "country": "Ivory Coast",
    "country_zh": "象牙海岸",
    "country_iso_code": "CI",
    "timezone": "Africa/Abidjan",
    "latitude": 9.0785,
    "longitude": -7.09755
  },
  {
    "city": "Zandougou",
    "city_zh": "Zandougou",
    "country": "Ivory Coast",
    "country_zh": "象牙海岸",
    "country_iso_code": "CI",
    "timezone": "Africa/Abidjan",
    "latitude": 8.98561,
    "longitude": -7.45937
  },
  {
    "city": "Zambléfla",
    "city_zh": "Zambléfla",
    "country": "Ivory Coast",
    "country_zh": "象牙海岸",
    "country_iso_code": "CI",
    "timezone": "Africa/Abidjan",
    "latitude": 7.40379,
    "longitude": -5.95556
  },
  {
    "city": "Zanasso",
    "city_zh": "Zanasso",
    "country": "Ivory Coast",
    "country_zh": "象牙海岸",
    "country_iso_code": "CI",
    "timezone": "Africa/Abidjan",
    "latitude": 10.59658,
    "longitude": -6.39456
  },
  {
    "city": "Zanasso",
    "city_zh": "Zanasso",
    "country": "Ivory Coast",
    "country_zh": "象牙海岸",
    "country_iso_code": "CI",
    "timezone": "Africa/Abidjan",
    "latitude": 9.88333,
    "longitude": -6.71667
  },
  {
    "city": "Zanaplidougou",
    "city_zh": "Zanaplidougou",
    "country": "Ivory Coast",
    "country_zh": "象牙海岸",
    "country_iso_code": "CI",
    "timezone": "Africa/Abidjan",
    "latitude": 10.10162,
    "longitude": -5.1805
  },
  {
    "city": "Zanapkokaha",
    "city_zh": "Zanapkokaha",
    "country": "Ivory Coast",
    "country_zh": "象牙海岸",
    "country_iso_code": "CI",
    "timezone": "Africa/Abidjan",
    "latitude": 9.37771,
    "longitude": -5.63016
  },
  {
    "city": "Zampleu",
    "city_zh": "Zampleu",
    "country": "Ivory Coast",
    "country_zh": "象牙海岸",
    "country_iso_code": "CI",
    "timezone": "Africa/Abidjan",
    "latitude": 7.15836,
    "longitude": -8.21411
  },
  {
    "city": "Zamou",
    "city_zh": "Zamou",
    "country": "Ivory Coast",
    "country_zh": "象牙海岸",
    "country_iso_code": "CI",
    "timezone": "Africa/Abidjan",
    "latitude": 8.55646,
    "longitude": -3.76894
  },
  {
    "city": "Zambakro",
    "city_zh": "Zambakro",
    "country": "Ivory Coast",
    "country_zh": "象牙海岸",
    "country_iso_code": "CI",
    "timezone": "Africa/Abidjan",
    "latitude": 6.73322,
    "longitude": -5.41117
  },
  {
    "city": "Zamaka",
    "city_zh": "Zamaka",
    "country": "Ivory Coast",
    "country_zh": "象牙海岸",
    "country_iso_code": "CI",
    "timezone": "Africa/Abidjan",
    "latitude": 6.911,
    "longitude": -3.41532
  },
  {
    "city": "Zaloufle",
    "city_zh": "Zaloufle",
    "country": "Ivory Coast",
    "country_zh": "象牙海岸",
    "country_iso_code": "CI",
    "timezone": "Africa/Abidjan",
    "latitude": 7.53013,
    "longitude": -5.88255
  },
  {
    "city": "Zaliohouan",
    "city_zh": "Zaliohouan",
    "country": "Ivory Coast",
    "country_zh": "象牙海岸",
    "country_iso_code": "CI",
    "timezone": "Africa/Abidjan",
    "latitude": 6.79519,
    "longitude": -6.2355
  },
  {
    "city": "Zala",
    "city_zh": "Zala",
    "country": "Ivory Coast",
    "country_zh": "象牙海岸",
    "country_iso_code": "CI",
    "timezone": "Africa/Abidjan",
    "latitude": 8.20981,
    "longitude": -7.61604
  },
  {
    "city": "Zala",
    "city_zh": "Zala",
    "country": "Ivory Coast",
    "country_zh": "象牙海岸",
    "country_iso_code": "CI",
    "timezone": "Africa/Abidjan",
    "latitude": 7.33296,
    "longitude": -6.69131
  },
  {
    "city": "Zakué",
    "city_zh": "Zakué",
    "country": "Ivory Coast",
    "country_zh": "象牙海岸",
    "country_iso_code": "CI",
    "timezone": "Africa/Abidjan",
    "latitude": 6.25615,
    "longitude": -7.00689
  },
  {
    "city": "Zakroguhé",
    "city_zh": "Zakroguhé",
    "country": "Ivory Coast",
    "country_zh": "象牙海岸",
    "country_iso_code": "CI",
    "timezone": "Africa/Abidjan",
    "latitude": 6.34387,
    "longitude": -6.47286
  },
  {
    "city": "Zakriparéhoin",
    "city_zh": "Zakriparéhoin",
    "country": "Ivory Coast",
    "country_zh": "象牙海岸",
    "country_iso_code": "CI",
    "timezone": "Africa/Abidjan",
    "latitude": 5.89789,
    "longitude": -5.71396
  },
  {
    "city": "Zakpaya",
    "city_zh": "Zakpaya",
    "country": "Ivory Coast",
    "country_zh": "象牙海岸",
    "country_iso_code": "CI",
    "timezone": "Africa/Abidjan",
    "latitude": 6.60741,
    "longitude": -8.12996
  },
  {
    "city": "Zakpabéri",
    "city_zh": "Zakpabéri",
    "country": "Ivory Coast",
    "country_zh": "象牙海岸",
    "country_iso_code": "CI",
    "timezone": "Africa/Abidjan",
    "latitude": 5.60257,
    "longitude": -5.74017
  },
  {
    "city": "Zakoua",
    "city_zh": "Zakoua",
    "country": "Ivory Coast",
    "country_zh": "象牙海岸",
    "country_iso_code": "CI",
    "timezone": "Africa/Abidjan",
    "latitude": 6.80149,
    "longitude": -6.4518
  },
  {
    "city": "Zakuéoua",
    "city_zh": "Zakuéoua",
    "country": "Ivory Coast",
    "country_zh": "象牙海岸",
    "country_iso_code": "CI",
    "timezone": "Africa/Abidjan",
    "latitude": 6.24931,
    "longitude": -6.50741
  },
  {
    "city": "Zakkodoua",
    "city_zh": "Zakkodoua",
    "country": "Ivory Coast",
    "country_zh": "象牙海岸",
    "country_iso_code": "CI",
    "timezone": "Africa/Abidjan",
    "latitude": 5.73215,
    "longitude": -6.31408
  },
  {
    "city": "Zakaria",
    "city_zh": "Zakaria",
    "country": "Ivory Coast",
    "country_zh": "象牙海岸",
    "country_iso_code": "CI",
    "timezone": "Africa/Abidjan",
    "latitude": 6.99216,
    "longitude": -6.46925
  },
  {
    "city": "Zakarékro",
    "city_zh": "Zakarékro",
    "country": "Ivory Coast",
    "country_zh": "象牙海岸",
    "country_iso_code": "CI",
    "timezone": "Africa/Abidjan",
    "latitude": 5.10965,
    "longitude": -5.60241
  },
  {
    "city": "Zahirogbeu",
    "city_zh": "Zahirogbeu",
    "country": "Ivory Coast",
    "country_zh": "象牙海岸",
    "country_iso_code": "CI",
    "timezone": "Africa/Abidjan",
    "latitude": 6.76219,
    "longitude": -6.88421
  },
  {
    "city": "Zaïpobli",
    "city_zh": "Zaïpobli",
    "country": "Ivory Coast",
    "country_zh": "象牙海岸",
    "country_iso_code": "CI",
    "timezone": "Africa/Abidjan",
    "latitude": 5.95402,
    "longitude": -7.47469
  },
  {
    "city": "Zaïdou",
    "city_zh": "Zaïdou",
    "country": "Ivory Coast",
    "country_zh": "象牙海岸",
    "country_iso_code": "CI",
    "timezone": "Africa/Abidjan",
    "latitude": 5.58333,
    "longitude": -5.76667
  },
  {
    "city": "Zaïbo",
    "city_zh": "Zaïbo",
    "country": "Ivory Coast",
    "country_zh": "象牙海岸",
    "country_iso_code": "CI",
    "timezone": "Africa/Abidjan",
    "latitude": 6.9893,
    "longitude": -6.66673
  },
  {
    "city": "Zahourayo",
    "city_zh": "Zahourayo",
    "country": "Ivory Coast",
    "country_zh": "象牙海岸",
    "country_iso_code": "CI",
    "timezone": "Africa/Abidjan",
    "latitude": 5.4748,
    "longitude": -6.03742
  },
  {
    "city": "Zahililié",
    "city_zh": "Zahililié",
    "country": "Ivory Coast",
    "country_zh": "象牙海岸",
    "country_iso_code": "CI",
    "timezone": "Africa/Abidjan",
    "latitude": 5.82937,
    "longitude": -5.63186
  },
  {
    "city": "Zahiboué",
    "city_zh": "Zahiboué",
    "country": "Ivory Coast",
    "country_zh": "象牙海岸",
    "country_iso_code": "CI",
    "timezone": "Africa/Abidjan",
    "latitude": 5.8889,
    "longitude": -5.68082
  },
  {
    "city": "Zahiboué",
    "city_zh": "Zahiboué",
    "country": "Ivory Coast",
    "country_zh": "象牙海岸",
    "country_iso_code": "CI",
    "timezone": "Africa/Abidjan",
    "latitude": 5.81393,
    "longitude": -5.65604
  },
  {
    "city": "Zahibohio",
    "city_zh": "Zahibohio",
    "country": "Ivory Coast",
    "country_zh": "象牙海岸",
    "country_iso_code": "CI",
    "timezone": "Africa/Abidjan",
    "latitude": 6.45,
    "longitude": -5.95
  },
  {
    "city": "Zaguiguia",
    "city_zh": "Zaguiguia",
    "country": "Ivory Coast",
    "country_zh": "象牙海岸",
    "country_iso_code": "CI",
    "timezone": "Africa/Abidjan",
    "latitude": 6.91796,
    "longitude": -6.45748
  },
  {
    "city": "Zaguié",
    "city_zh": "Zaguié",
    "country": "Ivory Coast",
    "country_zh": "象牙海岸",
    "country_iso_code": "CI",
    "timezone": "Africa/Abidjan",
    "latitude": 6.93944,
    "longitude": -6.03917
  },
  {
    "city": "Zaguéoua",
    "city_zh": "Zaguéoua",
    "country": "Ivory Coast",
    "country_zh": "象牙海岸",
    "country_iso_code": "CI",
    "timezone": "Africa/Abidjan",
    "latitude": 6.22223,
    "longitude": -6.95092
  },
  {
    "city": "Zaguédia",
    "city_zh": "Zaguédia",
    "country": "Ivory Coast",
    "country_zh": "象牙海岸",
    "country_iso_code": "CI",
    "timezone": "Africa/Abidjan",
    "latitude": 6.67672,
    "longitude": -6.42838
  },
  {
    "city": "Zagoué",
    "city_zh": "Zagoué",
    "country": "Ivory Coast",
    "country_zh": "象牙海岸",
    "country_iso_code": "CI",
    "timezone": "Africa/Abidjan",
    "latitude": 7.8692,
    "longitude": -7.43084
  },
  {
    "city": "Zagoréta",
    "city_zh": "Zagoréta",
    "country": "Ivory Coast",
    "country_zh": "象牙海岸",
    "country_iso_code": "CI",
    "timezone": "Africa/Abidjan",
    "latitude": 6.6756,
    "longitude": -6.15347
  },
  {
    "city": "Zagné",
    "city_zh": "Zagné",
    "country": "Ivory Coast",
    "country_zh": "象牙海岸",
    "country_iso_code": "CI",
    "timezone": "Africa/Abidjan",
    "latitude": 6.21016,
    "longitude": -7.48284
  },
  {
    "city": "Zagbézon",
    "city_zh": "Zagbézon",
    "country": "Ivory Coast",
    "country_zh": "象牙海岸",
    "country_iso_code": "CI",
    "timezone": "Africa/Abidjan",
    "latitude": 6.68525,
    "longitude": -6.97136
  },
  {
    "city": "Zagbalédé",
    "city_zh": "Zagbalédé",
    "country": "Ivory Coast",
    "country_zh": "象牙海岸",
    "country_iso_code": "CI",
    "timezone": "Africa/Abidjan",
    "latitude": 5.11778,
    "longitude": -5.27871
  },
  {
    "city": "Zagahou",
    "city_zh": "Zagahou",
    "country": "Ivory Coast",
    "country_zh": "象牙海岸",
    "country_iso_code": "CI",
    "timezone": "Africa/Abidjan",
    "latitude": 6.45138,
    "longitude": -5.916
  },
  {
    "city": "Zadioa",
    "city_zh": "Zadioa",
    "country": "Ivory Coast",
    "country_zh": "象牙海岸",
    "country_iso_code": "CI",
    "timezone": "Africa/Abidjan",
    "latitude": 6.43153,
    "longitude": -6.39783
  },
  {
    "city": "Zadiéguhé",
    "city_zh": "Zadiéguhé",
    "country": "Ivory Coast",
    "country_zh": "象牙海岸",
    "country_iso_code": "CI",
    "timezone": "Africa/Abidjan",
    "latitude": 6.12972,
    "longitude": -6.53444
  },
  {
    "city": "Zadiayo",
    "city_zh": "Zadiayo",
    "country": "Ivory Coast",
    "country_zh": "象牙海岸",
    "country_iso_code": "CI",
    "timezone": "Africa/Abidjan",
    "latitude": 6.32087,
    "longitude": -6.6144
  },
  {
    "city": "Zadiayo",
    "city_zh": "Zadiayo",
    "country": "Ivory Coast",
    "country_zh": "象牙海岸",
    "country_iso_code": "CI",
    "timezone": "Africa/Abidjan",
    "latitude": 6.15696,
    "longitude": -6.24583
  },
  {
    "city": "Zadéhe",
    "city_zh": "Zadéhe",
    "country": "Ivory Coast",
    "country_zh": "象牙海岸",
    "country_iso_code": "CI",
    "timezone": "Africa/Abidjan",
    "latitude": 8.2675,
    "longitude": -3.10185
  },
  {
    "city": "Zabré",
    "city_zh": "Zabré",
    "country": "Ivory Coast",
    "country_zh": "象牙海岸",
    "country_iso_code": "CI",
    "timezone": "Africa/Abidjan",
    "latitude": 5.95806,
    "longitude": -5.53444
  },
  {
    "city": "Zabré",
    "city_zh": "Zabré",
    "country": "Ivory Coast",
    "country_zh": "象牙海岸",
    "country_iso_code": "CI",
    "timezone": "Africa/Abidjan",
    "latitude": 5.31012,
    "longitude": -6.27536
  },
  {
    "city": "Zabla",
    "city_zh": "Zabla",
    "country": "Ivory Coast",
    "country_zh": "象牙海岸",
    "country_iso_code": "CI",
    "timezone": "Africa/Abidjan",
    "latitude": 7.82241,
    "longitude": -5.32309
  },
  {
    "city": "Zaboukro",
    "city_zh": "Zaboukro",
    "country": "Ivory Coast",
    "country_zh": "象牙海岸",
    "country_iso_code": "CI",
    "timezone": "Africa/Abidjan",
    "latitude": 6.64659,
    "longitude": -4.04561
  },
  {
    "city": "Zaboua",
    "city_zh": "Zaboua",
    "country": "Ivory Coast",
    "country_zh": "象牙海岸",
    "country_iso_code": "CI",
    "timezone": "Africa/Abidjan",
    "latitude": 6.01847,
    "longitude": -5.58372
  },
  {
    "city": "Zabanandougou",
    "city_zh": "Zabanandougou",
    "country": "Ivory Coast",
    "country_zh": "象牙海岸",
    "country_iso_code": "CI",
    "timezone": "Africa/Abidjan",
    "latitude": 8.27009,
    "longitude": -8.16712
  },
  {
    "city": "Zaakro",
    "city_zh": "Zaakro",
    "country": "Ivory Coast",
    "country_zh": "象牙海岸",
    "country_iso_code": "CI",
    "timezone": "Africa/Abidjan",
    "latitude": 6.59968,
    "longitude": -5.07086
  },
  {
    "city": "Zaadi",
    "city_zh": "Zaadi",
    "country": "Ivory Coast",
    "country_zh": "象牙海岸",
    "country_iso_code": "CI",
    "timezone": "Africa/Abidjan",
    "latitude": 6.33317,
    "longitude": -5.73659
  },
  {
    "city": "Za",
    "city_zh": "Za",
    "country": "Ivory Coast",
    "country_zh": "象牙海岸",
    "country_iso_code": "CI",
    "timezone": "Africa/Abidjan",
    "latitude": 6.71535,
    "longitude": -6.4345
  },
  {
    "city": "Yuala",
    "city_zh": "Yuala",
    "country": "Ivory Coast",
    "country_zh": "象牙海岸",
    "country_iso_code": "CI",
    "timezone": "Africa/Abidjan",
    "latitude": 7.56667,
    "longitude": -6.51667
  },
  {
    "city": "Itia",
    "city_zh": "Itia",
    "country": "Ivory Coast",
    "country_zh": "象牙海岸",
    "country_iso_code": "CI",
    "timezone": "Africa/Abidjan",
    "latitude": 6.39989,
    "longitude": -5.81315
  },
  {
    "city": "Yoya",
    "city_zh": "Yoya",
    "country": "Ivory Coast",
    "country_zh": "象牙海岸",
    "country_iso_code": "CI",
    "timezone": "Africa/Abidjan",
    "latitude": 6.58013,
    "longitude": -8.04296
  },
  {
    "city": "Youssouf Kamara",
    "city_zh": "Youssouf Kamara",
    "country": "Ivory Coast",
    "country_zh": "象牙海岸",
    "country_iso_code": "CI",
    "timezone": "Africa/Abidjan",
    "latitude": 7.06667,
    "longitude": -4.2
  },
  {
    "city": "Youorédoula",
    "city_zh": "Youorédoula",
    "country": "Ivory Coast",
    "country_zh": "象牙海岸",
    "country_iso_code": "CI",
    "timezone": "Africa/Abidjan",
    "latitude": 7.31758,
    "longitude": -6.71288
  },
  {
    "city": "Youmanamoun",
    "city_zh": "Youmanamoun",
    "country": "Ivory Coast",
    "country_zh": "象牙海岸",
    "country_iso_code": "CI",
    "timezone": "Africa/Abidjan",
    "latitude": 7.4,
    "longitude": -4.1
  },
  {
    "city": "Youmakro",
    "city_zh": "Youmakro",
    "country": "Ivory Coast",
    "country_zh": "象牙海岸",
    "country_iso_code": "CI",
    "timezone": "Africa/Abidjan",
    "latitude": 7.9428,
    "longitude": -5.58072
  },
  {
    "city": "Youkou",
    "city_zh": "Youkou",
    "country": "Ivory Coast",
    "country_zh": "象牙海岸",
    "country_iso_code": "CI",
    "timezone": "Africa/Abidjan",
    "latitude": 5.27423,
    "longitude": -7.31232
  },
  {
    "city": "Youhoulil",
    "city_zh": "Youhoulil",
    "country": "Ivory Coast",
    "country_zh": "象牙海岸",
    "country_iso_code": "CI",
    "timezone": "Africa/Abidjan",
    "latitude": 5.42277,
    "longitude": -4.48709
  },
  {
    "city": "Yogonon",
    "city_zh": "Yogonon",
    "country": "Ivory Coast",
    "country_zh": "象牙海岸",
    "country_iso_code": "CI",
    "timezone": "Africa/Abidjan",
    "latitude": 7.67433,
    "longitude": -6.43261
  },
  {
    "city": "Yaouda",
    "city_zh": "Yaouda",
    "country": "Ivory Coast",
    "country_zh": "象牙海岸",
    "country_iso_code": "CI",
    "timezone": "Africa/Abidjan",
    "latitude": 6.49151,
    "longitude": -5.55185
  },
  {
    "city": "Dempleu",
    "city_zh": "Dempleu",
    "country": "Ivory Coast",
    "country_zh": "象牙海岸",
    "country_iso_code": "CI",
    "timezone": "Africa/Abidjan",
    "latitude": 7.22665,
    "longitude": -8.19497
  },
  {
    "city": "Yotta",
    "city_zh": "Yotta",
    "country": "Ivory Coast",
    "country_zh": "象牙海岸",
    "country_iso_code": "CI",
    "timezone": "Africa/Abidjan",
    "latitude": 7.15118,
    "longitude": -8.18498
  },
  {
    "city": "Yoténéré",
    "city_zh": "Yoténéré",
    "country": "Ivory Coast",
    "country_zh": "象牙海岸",
    "country_iso_code": "CI",
    "timezone": "Africa/Abidjan",
    "latitude": 9.54522,
    "longitude": -3.3252
  },
  {
    "city": "Yoro",
    "city_zh": "Yoro",
    "country": "Ivory Coast",
    "country_zh": "象牙海岸",
    "country_iso_code": "CI",
    "timezone": "Africa/Abidjan",
    "latitude": 9.51824,
    "longitude": -5.8944
  },
  {
    "city": "Yorénoua",
    "city_zh": "Yorénoua",
    "country": "Ivory Coast",
    "country_zh": "象牙海岸",
    "country_iso_code": "CI",
    "timezone": "Africa/Abidjan",
    "latitude": 7.9,
    "longitude": -3.41667
  },
  {
    "city": "Yopougon-Santé",
    "city_zh": "Yopougon-Santé",
    "country": "Ivory Coast",
    "country_zh": "象牙海岸",
    "country_iso_code": "CI",
    "timezone": "Africa/Abidjan",
    "latitude": 5.311,
    "longitude": -4.03627
  },
  {
    "city": "Yopougon-Kouté",
    "city_zh": "Yopougon-Kouté",
    "country": "Ivory Coast",
    "country_zh": "象牙海岸",
    "country_iso_code": "CI",
    "timezone": "Africa/Abidjan",
    "latitude": 5.32205,
    "longitude": -4.07392
  },
  {
    "city": "Yopougon-Attié",
    "city_zh": "Yopougon-Attié",
    "country": "Ivory Coast",
    "country_zh": "象牙海岸",
    "country_iso_code": "CI",
    "timezone": "Africa/Abidjan",
    "latitude": 5.35345,
    "longitude": -4.07019
  },
  {
    "city": "Yopohua",
    "city_zh": "Yopohua",
    "country": "Ivory Coast",
    "country_zh": "象牙海岸",
    "country_iso_code": "CI",
    "timezone": "Africa/Abidjan",
    "latitude": 6.39596,
    "longitude": -5.82952
  },
  {
    "city": "Yonténévogo",
    "city_zh": "Yonténévogo",
    "country": "Ivory Coast",
    "country_zh": "象牙海岸",
    "country_iso_code": "CI",
    "timezone": "Africa/Abidjan",
    "latitude": 9.4,
    "longitude": -5.8
  },
  {
    "city": "Yonéfla",
    "city_zh": "Yonéfla",
    "country": "Ivory Coast",
    "country_zh": "象牙海岸",
    "country_iso_code": "CI",
    "timezone": "Africa/Abidjan",
    "latitude": 7.49846,
    "longitude": -5.88358
  },
  {
    "city": "Yonango",
    "city_zh": "Yonango",
    "country": "Ivory Coast",
    "country_zh": "象牙海岸",
    "country_iso_code": "CI",
    "timezone": "Africa/Abidjan",
    "latitude": 7.44031,
    "longitude": -3.0641
  },
  {
    "city": "Yonaké",
    "city_zh": "Yonaké",
    "country": "Ivory Coast",
    "country_zh": "象牙海岸",
    "country_iso_code": "CI",
    "timezone": "Africa/Abidjan",
    "latitude": 4.38722,
    "longitude": -7.3992
  },
  {
    "city": "Yomya",
    "city_zh": "Yomya",
    "country": "Ivory Coast",
    "country_zh": "象牙海岸",
    "country_iso_code": "CI",
    "timezone": "Africa/Abidjan",
    "latitude": 7.81667,
    "longitude": -2.93333
  },
  {
    "city": "Yomian Kouadiokro",
    "city_zh": "Yomian Kouadiokro",
    "country": "Ivory Coast",
    "country_zh": "象牙海岸",
    "country_iso_code": "CI",
    "timezone": "Africa/Abidjan",
    "latitude": 7.83302,
    "longitude": -5.165
  },
  {
    "city": "Yomakrou",
    "city_zh": "Yomakrou",
    "country": "Ivory Coast",
    "country_zh": "象牙海岸",
    "country_iso_code": "CI",
    "timezone": "Africa/Abidjan",
    "latitude": 7.51627,
    "longitude": -3.51582
  },
  {
    "city": "Yoman Kouahipla",
    "city_zh": "Yoman Kouahipla",
    "country": "Ivory Coast",
    "country_zh": "象牙海岸",
    "country_iso_code": "CI",
    "timezone": "Africa/Abidjan",
    "latitude": 7.92166,
    "longitude": -5.77963
  },
  {
    "city": "Yoma-Bingo",
    "city_zh": "Yoma-Bingo",
    "country": "Ivory Coast",
    "country_zh": "象牙海岸",
    "country_iso_code": "CI",
    "timezone": "Africa/Abidjan",
    "latitude": 8.1068,
    "longitude": -7.58366
  },
  {
    "city": "Yéleu",
    "city_zh": "Yéleu",
    "country": "Ivory Coast",
    "country_zh": "象牙海岸",
    "country_iso_code": "CI",
    "timezone": "Africa/Abidjan",
    "latitude": 7.13766,
    "longitude": -8.25427
  },
  {
    "city": "Lobam",
    "city_zh": "Lobam",
    "country": "Ivory Coast",
    "country_zh": "象牙海岸",
    "country_iso_code": "CI",
    "timezone": "Africa/Abidjan",
    "latitude": 6.28925,
    "longitude": -6.20029
  },
  {
    "city": "Yokoréa II",
    "city_zh": "Yokoréa II",
    "country": "Ivory Coast",
    "country_zh": "象牙海岸",
    "country_iso_code": "CI",
    "timezone": "Africa/Abidjan",
    "latitude": 6.7029,
    "longitude": -6.64593
  },
  {
    "city": "Yokoréa I",
    "city_zh": "Yokoréa I",
    "country": "Ivory Coast",
    "country_zh": "象牙海岸",
    "country_iso_code": "CI",
    "timezone": "Africa/Abidjan",
    "latitude": 6.72016,
    "longitude": -6.6543
  },
  {
    "city": "Yokoboué",
    "city_zh": "Yokoboué",
    "country": "Ivory Coast",
    "country_zh": "象牙海岸",
    "country_iso_code": "CI",
    "timezone": "Africa/Abidjan",
    "latitude": 5.26933,
    "longitude": -5.10658
  },
  {
    "city": "Yogopa",
    "city_zh": "Yogopa",
    "country": "Ivory Coast",
    "country_zh": "象牙海岸",
    "country_iso_code": "CI",
    "timezone": "Africa/Abidjan",
    "latitude": 6.22916,
    "longitude": -5.84035
  },
  {
    "city": "Yogoma",
    "city_zh": "Yogoma",
    "country": "Ivory Coast",
    "country_zh": "象牙海岸",
    "country_iso_code": "CI",
    "timezone": "Africa/Abidjan",
    "latitude": 8.24159,
    "longitude": -3.63021
  },
  {
    "city": "Yogbopa",
    "city_zh": "Yogbopa",
    "country": "Ivory Coast",
    "country_zh": "象牙海岸",
    "country_iso_code": "CI",
    "timezone": "Africa/Abidjan",
    "latitude": 4.42728,
    "longitude": -7.341
  },
  {
    "city": "Yodolo",
    "city_zh": "Yodolo",
    "country": "Ivory Coast",
    "country_zh": "象牙海岸",
    "country_iso_code": "CI",
    "timezone": "Africa/Abidjan",
    "latitude": 8.90354,
    "longitude": -4.23518
  },
  {
    "city": "Yodankaha",
    "city_zh": "Yodankaha",
    "country": "Ivory Coast",
    "country_zh": "象牙海岸",
    "country_iso_code": "CI",
    "timezone": "Africa/Abidjan",
    "latitude": 8.05659,
    "longitude": -5.22576
  },
  {
    "city": "Yobouékro",
    "city_zh": "Yobouékro",
    "country": "Ivory Coast",
    "country_zh": "象牙海岸",
    "country_iso_code": "CI",
    "timezone": "Africa/Abidjan",
    "latitude": 7.8442,
    "longitude": -5.1511
  },
  {
    "city": "Yoboékouadiokro",
    "city_zh": "Yoboékouadiokro",
    "country": "Ivory Coast",
    "country_zh": "象牙海岸",
    "country_iso_code": "CI",
    "timezone": "Africa/Abidjan",
    "latitude": 7.79722,
    "longitude": -4.96333
  },
  {
    "city": "Yo",
    "city_zh": "Yo",
    "country": "Ivory Coast",
    "country_zh": "象牙海岸",
    "country_iso_code": "CI",
    "timezone": "Africa/Abidjan",
    "latitude": 8.28776,
    "longitude": -8.06186
  },
  {
    "city": "Yo",
    "city_zh": "Yo",
    "country": "Ivory Coast",
    "country_zh": "象牙海岸",
    "country_iso_code": "CI",
    "timezone": "Africa/Abidjan",
    "latitude": 8.22528,
    "longitude": -7.69591
  },
  {
    "city": "Yézimala",
    "city_zh": "Yézimala",
    "country": "Ivory Coast",
    "country_zh": "象牙海岸",
    "country_iso_code": "CI",
    "timezone": "Africa/Abidjan",
    "latitude": 8.20664,
    "longitude": -2.94812
  },
  {
    "city": "Yéyaradougou",
    "city_zh": "Yéyaradougou",
    "country": "Ivory Coast",
    "country_zh": "象牙海岸",
    "country_iso_code": "CI",
    "timezone": "Africa/Abidjan",
    "latitude": 8.0396,
    "longitude": -4.211
  },
  {
    "city": "Yérouogo",
    "city_zh": "Yérouogo",
    "country": "Ivory Coast",
    "country_zh": "象牙海岸",
    "country_iso_code": "CI",
    "timezone": "Africa/Abidjan",
    "latitude": 9.66667,
    "longitude": -5.43333
  },
  {
    "city": "Yériparéhoin",
    "city_zh": "Yériparéhoin",
    "country": "Ivory Coast",
    "country_zh": "象牙海岸",
    "country_iso_code": "CI",
    "timezone": "Africa/Abidjan",
    "latitude": 6.05886,
    "longitude": -5.69952
  },
  {
    "city": "Yéréoa",
    "city_zh": "Yéréoa",
    "country": "Ivory Coast",
    "country_zh": "象牙海岸",
    "country_iso_code": "CI",
    "timezone": "Africa/Abidjan",
    "latitude": 6.23174,
    "longitude": -6.33355
  },
  {
    "city": "Yérékayekoko",
    "city_zh": "Yérékayekoko",
    "country": "Ivory Coast",
    "country_zh": "象牙海岸",
    "country_iso_code": "CI",
    "timezone": "Africa/Abidjan",
    "latitude": 8.14265,
    "longitude": -3.25499
  },
  {
    "city": "Yorobodi",
    "city_zh": "Yorobodi",
    "country": "Ivory Coast",
    "country_zh": "象牙海岸",
    "country_iso_code": "CI",
    "timezone": "Africa/Abidjan",
    "latitude": 8.11913,
    "longitude": -3.68191
  },
  {
    "city": "Yérébaye",
    "city_zh": "Yérébaye",
    "country": "Ivory Coast",
    "country_zh": "象牙海岸",
    "country_iso_code": "CI",
    "timezone": "Africa/Abidjan",
    "latitude": 8.34553,
    "longitude": -2.81344
  },
  {
    "city": "Yépoparéhoin",
    "city_zh": "Yépoparéhoin",
    "country": "Ivory Coast",
    "country_zh": "象牙海岸",
    "country_iso_code": "CI",
    "timezone": "Africa/Abidjan",
    "latitude": 6.09945,
    "longitude": -5.58346
  },
  {
    "city": "Yépleu",
    "city_zh": "Yépleu",
    "country": "Ivory Coast",
    "country_zh": "象牙海岸",
    "country_iso_code": "CI",
    "timezone": "Africa/Abidjan",
    "latitude": 7.7191,
    "longitude": -7.82147
  },
  {
    "city": "Yépeuza",
    "city_zh": "Yépeuza",
    "country": "Ivory Coast",
    "country_zh": "象牙海岸",
    "country_iso_code": "CI",
    "timezone": "Africa/Abidjan",
    "latitude": 6.79937,
    "longitude": -6.4001
  },
  {
    "city": "Yéouli",
    "city_zh": "Yéouli",
    "country": "Ivory Coast",
    "country_zh": "象牙海岸",
    "country_iso_code": "CI",
    "timezone": "Africa/Abidjan",
    "latitude": 4.52293,
    "longitude": -7.5577
  },
  {
    "city": "Yéoulesso",
    "city_zh": "Yéoulesso",
    "country": "Ivory Coast",
    "country_zh": "象牙海岸",
    "country_iso_code": "CI",
    "timezone": "Africa/Abidjan",
    "latitude": 8.42034,
    "longitude": -4.73304
  },
  {
    "city": "Yenko",
    "city_zh": "Yenko",
    "country": "Ivory Coast",
    "country_zh": "象牙海岸",
    "country_iso_code": "CI",
    "timezone": "Africa/Abidjan",
    "latitude": 8.15214,
    "longitude": -7.57043
  },
  {
    "city": "Yengélé",
    "city_zh": "Yengélé",
    "country": "Ivory Coast",
    "country_zh": "象牙海岸",
    "country_iso_code": "CI",
    "timezone": "Africa/Abidjan",
    "latitude": 8.84655,
    "longitude": -7.73747
  },
  {
    "city": "Yénalé",
    "city_zh": "Yénalé",
    "country": "Ivory Coast",
    "country_zh": "象牙海岸",
    "country_iso_code": "CI",
    "timezone": "Africa/Abidjan",
    "latitude": 7.28333,
    "longitude": -7.51667
  },
  {
    "city": "Yénalé",
    "city_zh": "Yénalé",
    "country": "Ivory Coast",
    "country_zh": "象牙海岸",
    "country_iso_code": "CI",
    "timezone": "Africa/Abidjan",
    "latitude": 7.12917,
    "longitude": -7.53194
  },
  {
    "city": "Yéleu",
    "city_zh": "Yéleu",
    "country": "Ivory Coast",
    "country_zh": "象牙海岸",
    "country_iso_code": "CI",
    "timezone": "Africa/Abidjan",
    "latitude": 6.97093,
    "longitude": -8.05105
  },
  {
    "city": "Yélé",
    "city_zh": "Yélé",
    "country": "Ivory Coast",
    "country_zh": "象牙海岸",
    "country_iso_code": "CI",
    "timezone": "Africa/Abidjan",
    "latitude": 9.9598,
    "longitude": -6.21842
  },
  {
    "city": "Yékolo",
    "city_zh": "Yékolo",
    "country": "Ivory Coast",
    "country_zh": "象牙海岸",
    "country_iso_code": "CI",
    "timezone": "Africa/Abidjan",
    "latitude": 8.17855,
    "longitude": -4.91446
  },
  {
    "city": "Yégouékro",
    "city_zh": "Yégouékro",
    "country": "Ivory Coast",
    "country_zh": "象牙海岸",
    "country_iso_code": "CI",
    "timezone": "Africa/Abidjan",
    "latitude": 7.03299,
    "longitude": -3.90324
  },
  {
    "city": "Yégolé",
    "city_zh": "Yégolé",
    "country": "Ivory Coast",
    "country_zh": "象牙海岸",
    "country_iso_code": "CI",
    "timezone": "Africa/Abidjan",
    "latitude": 7.7487,
    "longitude": -7.70508
  },
  {
    "city": "Yéfon",
    "city_zh": "Yéfon",
    "country": "Ivory Coast",
    "country_zh": "象牙海岸",
    "country_iso_code": "CI",
    "timezone": "Africa/Abidjan",
    "latitude": 9.51195,
    "longitude": -5.69922
  },
  {
    "city": "Yédé",
    "city_zh": "Yédé",
    "country": "Ivory Coast",
    "country_zh": "象牙海岸",
    "country_iso_code": "CI",
    "timezone": "Africa/Abidjan",
    "latitude": 5.03141,
    "longitude": -7.551
  },
  {
    "city": "Yédé",
    "city_zh": "Yédé",
    "country": "Ivory Coast",
    "country_zh": "象牙海岸",
    "country_iso_code": "CI",
    "timezone": "Africa/Abidjan",
    "latitude": 4.68554,
    "longitude": -7.51511
  },
  {
    "city": "Yédandiékaha",
    "city_zh": "Yédandiékaha",
    "country": "Ivory Coast",
    "country_zh": "象牙海岸",
    "country_iso_code": "CI",
    "timezone": "Africa/Abidjan",
    "latitude": 9.32717,
    "longitude": -4.94156
  },
  {
    "city": "Yeboué-Ndolikro II",
    "city_zh": "Yeboué-Ndolikro II",
    "country": "Ivory Coast",
    "country_zh": "象牙海岸",
    "country_iso_code": "CI",
    "timezone": "Africa/Abidjan",
    "latitude": 7.21222,
    "longitude": -4.68583
  },
  {
    "city": "Yoboué Ndolikro",
    "city_zh": "Yoboué Ndolikro",
    "country": "Ivory Coast",
    "country_zh": "象牙海岸",
    "country_iso_code": "CI",
    "timezone": "Africa/Abidjan",
    "latitude": 7.22582,
    "longitude": -4.66874
  },
  {
    "city": "Yébouébo",
    "city_zh": "Yébouébo",
    "country": "Ivory Coast",
    "country_zh": "象牙海岸",
    "country_iso_code": "CI",
    "timezone": "Africa/Abidjan",
    "latitude": 6.89938,
    "longitude": -5.006
  },
  {
    "city": "Yebouékro",
    "city_zh": "Yebouékro",
    "country": "Ivory Coast",
    "country_zh": "象牙海岸",
    "country_iso_code": "CI",
    "timezone": "Africa/Abidjan",
    "latitude": 7.85111,
    "longitude": -5.05861
  },
  {
    "city": "Yèbouékro",
    "city_zh": "Yèbouékro",
    "country": "Ivory Coast",
    "country_zh": "象牙海岸",
    "country_iso_code": "CI",
    "timezone": "Africa/Abidjan",
    "latitude": 7.58611,
    "longitude": -5.03889
  },
  {
    "city": "Yébouébo",
    "city_zh": "Yébouébo",
    "country": "Ivory Coast",
    "country_zh": "象牙海岸",
    "country_iso_code": "CI",
    "timezone": "Africa/Abidjan",
    "latitude": 6.58873,
    "longitude": -4.7132
  },
  {
    "city": "Yébouéblessou",
    "city_zh": "Yébouéblessou",
    "country": "Ivory Coast",
    "country_zh": "象牙海岸",
    "country_iso_code": "CI",
    "timezone": "Africa/Abidjan",
    "latitude": 7.4566,
    "longitude": -4.7821
  },
  {
    "city": "Yobouékro",
    "city_zh": "Yobouékro",
    "country": "Ivory Coast",
    "country_zh": "象牙海岸",
    "country_iso_code": "CI",
    "timezone": "Africa/Abidjan",
    "latitude": 6.52067,
    "longitude": -5.1111
  },
  {
    "city": "Yébouakro",
    "city_zh": "Yébouakro",
    "country": "Ivory Coast",
    "country_zh": "象牙海岸",
    "country_iso_code": "CI",
    "timezone": "Africa/Abidjan",
    "latitude": 7.23912,
    "longitude": -3.31331
  },
  {
    "city": "Yébégouen",
    "city_zh": "Yébégouen",
    "country": "Ivory Coast",
    "country_zh": "象牙海岸",
    "country_iso_code": "CI",
    "timezone": "Africa/Abidjan",
    "latitude": 7.45544,
    "longitude": -7.58163
  },
  {
    "city": "Yéalé",
    "city_zh": "Yéalé",
    "country": "Ivory Coast",
    "country_zh": "象牙海岸",
    "country_iso_code": "CI",
    "timezone": "Africa/Abidjan",
    "latitude": 7.52786,
    "longitude": -8.42216
  },
  {
    "city": "Yazermi",
    "city_zh": "Yazermi",
    "country": "Ivory Coast",
    "country_zh": "象牙海岸",
    "country_iso_code": "CI",
    "timezone": "Africa/Abidjan",
    "latitude": 6.45867,
    "longitude": -6.01341
  },
  {
    "city": "Yassuikro",
    "city_zh": "Yassuikro",
    "country": "Ivory Coast",
    "country_zh": "象牙海岸",
    "country_iso_code": "CI",
    "timezone": "Africa/Abidjan",
    "latitude": 6.99155,
    "longitude": -4.69389
  },
  {
    "city": "Yassap A",
    "city_zh": "Yassap A",
    "country": "Ivory Coast",
    "country_zh": "象牙海岸",
    "country_iso_code": "CI",
    "timezone": "Africa/Abidjan",
    "latitude": 5.41862,
    "longitude": -4.4261
  },
  {
    "city": "Yaségouen",
    "city_zh": "Yaségouen",
    "country": "Ivory Coast",
    "country_zh": "象牙海岸",
    "country_iso_code": "CI",
    "timezone": "Africa/Abidjan",
    "latitude": 7.51889,
    "longitude": -7.61417
  },
  {
    "city": "Yaséa",
    "city_zh": "Yaséa",
    "country": "Ivory Coast",
    "country_zh": "象牙海岸",
    "country_iso_code": "CI",
    "timezone": "Africa/Abidjan",
    "latitude": 9.2643,
    "longitude": -7.89062
  },
  {
    "city": "Ya-Sakasso-Kansi",
    "city_zh": "Ya-Sakasso-Kansi",
    "country": "Ivory Coast",
    "country_zh": "象牙海岸",
    "country_iso_code": "CI",
    "timezone": "Africa/Abidjan",
    "latitude": 7.26,
    "longitude": -5.50028
  },
  {
    "city": "Yapukro",
    "city_zh": "Yapukro",
    "country": "Ivory Coast",
    "country_zh": "象牙海岸",
    "country_iso_code": "CI",
    "timezone": "Africa/Abidjan",
    "latitude": 7.15,
    "longitude": -4.1
  },
  {
    "city": "Yapokpa",
    "city_zh": "Yapokpa",
    "country": "Ivory Coast",
    "country_zh": "象牙海岸",
    "country_iso_code": "CI",
    "timezone": "Africa/Abidjan",
    "latitude": 5.80595,
    "longitude": -4.14354
  },
  {
    "city": "Yapo Kouakoukro",
    "city_zh": "Yapo Kouakoukro",
    "country": "Ivory Coast",
    "country_zh": "象牙海岸",
    "country_iso_code": "CI",
    "timezone": "Africa/Abidjan",
    "latitude": 7.73286,
    "longitude": -4.89581
  },
  {
    "city": "Yépleu",
    "city_zh": "Yépleu",
    "country": "Ivory Coast",
    "country_zh": "象牙海岸",
    "country_iso_code": "CI",
    "timezone": "Africa/Abidjan",
    "latitude": 7.23882,
    "longitude": -8.2685
  },
  {
    "city": "Yapleu",
    "city_zh": "Yapleu",
    "country": "Ivory Coast",
    "country_zh": "象牙海岸",
    "country_iso_code": "CI",
    "timezone": "Africa/Abidjan",
    "latitude": 7.09056,
    "longitude": -7.71028
  },
  {
    "city": "Yapekro",
    "city_zh": "Yapekro",
    "country": "Ivory Coast",
    "country_zh": "象牙海岸",
    "country_iso_code": "CI",
    "timezone": "Africa/Abidjan",
    "latitude": 7.61697,
    "longitude": -4.502
  },
  {
    "city": "Yapikro",
    "city_zh": "Yapikro",
    "country": "Ivory Coast",
    "country_zh": "象牙海岸",
    "country_iso_code": "CI",
    "timezone": "Africa/Abidjan",
    "latitude": 7.05,
    "longitude": -4.0
  },
  {
    "city": "Yapikakro",
    "city_zh": "Yapikakro",
    "country": "Ivory Coast",
    "country_zh": "象牙海岸",
    "country_iso_code": "CI",
    "timezone": "Africa/Abidjan",
    "latitude": 7.16667,
    "longitude": -3.98333
  },
  {
    "city": "Yapégavogo",
    "city_zh": "Yapégavogo",
    "country": "Ivory Coast",
    "country_zh": "象牙海岸",
    "country_iso_code": "CI",
    "timezone": "Africa/Abidjan",
    "latitude": 9.78021,
    "longitude": -5.44293
  },
  {
    "city": "Yapéfla",
    "city_zh": "Yapéfla",
    "country": "Ivory Coast",
    "country_zh": "象牙海岸",
    "country_iso_code": "CI",
    "timezone": "Africa/Abidjan",
    "latitude": 7.51667,
    "longitude": -5.88333
  },
  {
    "city": "Yaoussoukro",
    "city_zh": "Yaoussoukro",
    "country": "Ivory Coast",
    "country_zh": "象牙海岸",
    "country_iso_code": "CI",
    "timezone": "Africa/Abidjan",
    "latitude": 7.4,
    "longitude": -4.38333
  },
  {
    "city": "Yaou-Ngatiakrou",
    "city_zh": "Yaou-Ngatiakrou",
    "country": "Ivory Coast",
    "country_zh": "象牙海岸",
    "country_iso_code": "CI",
    "timezone": "Africa/Abidjan",
    "latitude": 7.29809,
    "longitude": -3.21911
  },
  {
    "city": "Yaoukro",
    "city_zh": "Yaoukro",
    "country": "Ivory Coast",
    "country_zh": "象牙海岸",
    "country_iso_code": "CI",
    "timezone": "Africa/Abidjan",
    "latitude": 7.47311,
    "longitude": -4.04983
  },
  {
    "city": "Yaoukro",
    "city_zh": "Yaoukro",
    "country": "Ivory Coast",
    "country_zh": "象牙海岸",
    "country_iso_code": "CI",
    "timezone": "Africa/Abidjan",
    "latitude": 7.28333,
    "longitude": -4.4
  },
  {
    "city": "Yaoukranamoun",
    "city_zh": "Yaoukranamoun",
    "country": "Ivory Coast",
    "country_zh": "象牙海岸",
    "country_iso_code": "CI",
    "timezone": "Africa/Abidjan",
    "latitude": 7.45,
    "longitude": -4.25
  },
  {
    "city": "Yaoukoma",
    "city_zh": "Yaoukoma",
    "country": "Ivory Coast",
    "country_zh": "象牙海岸",
    "country_iso_code": "CI",
    "timezone": "Africa/Abidjan",
    "latitude": 7.91667,
    "longitude": -2.91667
  },
  {
    "city": "Yaoudé",
    "city_zh": "Yaoudé",
    "country": "Ivory Coast",
    "country_zh": "象牙海岸",
    "country_iso_code": "CI",
    "timezone": "Africa/Abidjan",
    "latitude": 6.5588,
    "longitude": -7.44612
  },
  {
    "city": "Yaou",
    "city_zh": "Yaou",
    "country": "Ivory Coast",
    "country_zh": "象牙海岸",
    "country_iso_code": "CI",
    "timezone": "Africa/Abidjan",
    "latitude": 5.79773,
    "longitude": -3.13823
  },
  {
    "city": "Yaotroukro",
    "city_zh": "Yaotroukro",
    "country": "Ivory Coast",
    "country_zh": "象牙海岸",
    "country_iso_code": "CI",
    "timezone": "Africa/Abidjan",
    "latitude": 7.65806,
    "longitude": -3.6975
  },
  {
    "city": "Yaossédougou-Dioulasso",
    "city_zh": "Yaossédougou-Dioulasso",
    "country": "Ivory Coast",
    "country_zh": "象牙海岸",
    "country_iso_code": "CI",
    "timezone": "Africa/Abidjan",
    "latitude": 8.25,
    "longitude": -4.25
  },
  {
    "city": "Yaossédougou-Banbarasso",
    "city_zh": "Yaossédougou-Banbarasso",
    "country": "Ivory Coast",
    "country_zh": "象牙海岸",
    "country_iso_code": "CI",
    "timezone": "Africa/Abidjan",
    "latitude": 8.23952,
    "longitude": -4.24565
  },
  {
    "city": "Yaossédougou",
    "city_zh": "Yaossédougou",
    "country": "Ivory Coast",
    "country_zh": "象牙海岸",
    "country_iso_code": "CI",
    "timezone": "Africa/Abidjan",
    "latitude": 8.25,
    "longitude": -4.25
  },
  {
    "city": "Yaopleu",
    "city_zh": "Yaopleu",
    "country": "Ivory Coast",
    "country_zh": "象牙海岸",
    "country_iso_code": "CI",
    "timezone": "Africa/Abidjan",
    "latitude": 6.93067,
    "longitude": -8.19944
  },
  {
    "city": "Yao Nguessankro",
    "city_zh": "Yao Nguessankro",
    "country": "Ivory Coast",
    "country_zh": "象牙海岸",
    "country_iso_code": "CI",
    "timezone": "Africa/Abidjan",
    "latitude": 7.88817,
    "longitude": -5.16179
  },
  {
    "city": "Yaokro",
    "city_zh": "Yaokro",
    "country": "Ivory Coast",
    "country_zh": "象牙海岸",
    "country_iso_code": "CI",
    "timezone": "Africa/Abidjan",
    "latitude": 7.74595,
    "longitude": -3.9857
  },
  {
    "city": "Yao Kramo",
    "city_zh": "Yao Kramo",
    "country": "Ivory Coast",
    "country_zh": "象牙海岸",
    "country_iso_code": "CI",
    "timezone": "Africa/Abidjan",
    "latitude": 7.06667,
    "longitude": -5.43333
  },
  {
    "city": "Yao Kouame",
    "city_zh": "Yao Kouame",
    "country": "Ivory Coast",
    "country_zh": "象牙海岸",
    "country_iso_code": "CI",
    "timezone": "Africa/Abidjan",
    "latitude": 7.28602,
    "longitude": -5.27168
  },
  {
    "city": "Yao Kouadiokro",
    "city_zh": "Yao Kouadiokro",
    "country": "Ivory Coast",
    "country_zh": "象牙海岸",
    "country_iso_code": "CI",
    "timezone": "Africa/Abidjan",
    "latitude": 6.47656,
    "longitude": -5.0632
  },
  {
    "city": "Yaokimkroum",
    "city_zh": "Yaokimkroum",
    "country": "Ivory Coast",
    "country_zh": "象牙海岸",
    "country_iso_code": "CI",
    "timezone": "Africa/Abidjan",
    "latitude": 7.60096,
    "longitude": -3.00403
  },
  {
    "city": "Yaogotouo",
    "city_zh": "Yaogotouo",
    "country": "Ivory Coast",
    "country_zh": "象牙海岸",
    "country_iso_code": "CI",
    "timezone": "Africa/Abidjan",
    "latitude": 6.84729,
    "longitude": -8.28465
  },
  {
    "city": "Yaoglogleu",
    "city_zh": "Yaoglogleu",
    "country": "Ivory Coast",
    "country_zh": "象牙海岸",
    "country_iso_code": "CI",
    "timezone": "Africa/Abidjan",
    "latitude": 6.84278,
    "longitude": -8.3037
  },
  {
    "city": "Yaofra",
    "city_zh": "Yaofra",
    "country": "Ivory Coast",
    "country_zh": "象牙海岸",
    "country_iso_code": "CI",
    "timezone": "Africa/Abidjan",
    "latitude": 6.38717,
    "longitude": -5.41301
  },
  {
    "city": "Yao Diakro",
    "city_zh": "Yao Diakro",
    "country": "Ivory Coast",
    "country_zh": "象牙海岸",
    "country_iso_code": "CI",
    "timezone": "Africa/Abidjan",
    "latitude": 7.08389,
    "longitude": -4.98944
  },
  {
    "city": "Yaoblékro",
    "city_zh": "Yaoblékro",
    "country": "Ivory Coast",
    "country_zh": "象牙海岸",
    "country_iso_code": "CI",
    "timezone": "Africa/Abidjan",
    "latitude": 7.47215,
    "longitude": -4.6866
  },
  {
    "city": "Yao Blékro",
    "city_zh": "Yao Blékro",
    "country": "Ivory Coast",
    "country_zh": "象牙海岸",
    "country_iso_code": "CI",
    "timezone": "Africa/Abidjan",
    "latitude": 7.21694,
    "longitude": -4.92806
  },
  {
    "city": "Yaobilikouro",
    "city_zh": "Yaobilikouro",
    "country": "Ivory Coast",
    "country_zh": "象牙海岸",
    "country_iso_code": "CI",
    "timezone": "Africa/Abidjan",
    "latitude": 7.59419,
    "longitude": -3.51394
  },
  {
    "city": "Yao Bango",
    "city_zh": "Yao Bango",
    "country": "Ivory Coast",
    "country_zh": "象牙海岸",
    "country_iso_code": "CI",
    "timezone": "Africa/Abidjan",
    "latitude": 7.8067,
    "longitude": -3.37626
  },
  {
    "city": "Yaobou",
    "city_zh": "Yaobou",
    "country": "Ivory Coast",
    "country_zh": "象牙海岸",
    "country_iso_code": "CI",
    "timezone": "Africa/Abidjan",
    "latitude": 5.7115,
    "longitude": -4.41274
  },
  {
    "city": "Yanvo",
    "city_zh": "Yanvo",
    "country": "Ivory Coast",
    "country_zh": "象牙海岸",
    "country_iso_code": "CI",
    "timezone": "Africa/Abidjan",
    "latitude": 7.76292,
    "longitude": -3.11434
  },
  {
    "city": "Yanvanou",
    "city_zh": "Yanvanou",
    "country": "Ivory Coast",
    "country_zh": "象牙海岸",
    "country_iso_code": "CI",
    "timezone": "Africa/Abidjan",
    "latitude": 8.19839,
    "longitude": -8.05044
  },
  {
    "city": "Yankohouri",
    "city_zh": "Yankohouri",
    "country": "Ivory Coast",
    "country_zh": "象牙海岸",
    "country_iso_code": "CI",
    "timezone": "Africa/Abidjan",
    "latitude": 9.7,
    "longitude": -3.35
  },
  {
    "city": "Yanguissakro",
    "city_zh": "Yanguissakro",
    "country": "Ivory Coast",
    "country_zh": "象牙海岸",
    "country_iso_code": "CI",
    "timezone": "Africa/Abidjan",
    "latitude": 7.01589,
    "longitude": -3.88581
  },
  {
    "city": "Yanguileu",
    "city_zh": "Yanguileu",
    "country": "Ivory Coast",
    "country_zh": "象牙海岸",
    "country_iso_code": "CI",
    "timezone": "Africa/Abidjan",
    "latitude": 7.6785,
    "longitude": -8.10992
  },
  {
    "city": "Yenguébo",
    "city_zh": "Yenguébo",
    "country": "Ivory Coast",
    "country_zh": "象牙海岸",
    "country_iso_code": "CI",
    "timezone": "Africa/Abidjan",
    "latitude": 7.60414,
    "longitude": -4.72369
  },
  {
    "city": "Yangota",
    "city_zh": "Yangota",
    "country": "Ivory Coast",
    "country_zh": "象牙海岸",
    "country_iso_code": "CI",
    "timezone": "Africa/Abidjan",
    "latitude": 8.15,
    "longitude": -5.93333
  },
  {
    "city": "Yango",
    "city_zh": "Yango",
    "country": "Ivory Coast",
    "country_zh": "象牙海岸",
    "country_iso_code": "CI",
    "timezone": "Africa/Abidjan",
    "latitude": 7.70964,
    "longitude": -2.99308
  },
  {
    "city": "Yangana",
    "city_zh": "Yangana",
    "country": "Ivory Coast",
    "country_zh": "象牙海岸",
    "country_iso_code": "CI",
    "timezone": "Africa/Abidjan",
    "latitude": 8.02833,
    "longitude": -6.42089
  },
  {
    "city": "Yandéré",
    "city_zh": "Yandéré",
    "country": "Ivory Coast",
    "country_zh": "象牙海岸",
    "country_iso_code": "CI",
    "timezone": "Africa/Abidjan",
    "latitude": 9.5381,
    "longitude": -3.13673
  },
  {
    "city": "Yanantifla",
    "city_zh": "Yanantifla",
    "country": "Ivory Coast",
    "country_zh": "象牙海岸",
    "country_iso_code": "CI",
    "timezone": "Africa/Abidjan",
    "latitude": 6.61408,
    "longitude": -5.91096
  },
  {
    "city": "Yanantifla",
    "city_zh": "Yanantifla",
    "country": "Ivory Coast",
    "country_zh": "象牙海岸",
    "country_iso_code": "CI",
    "timezone": "Africa/Abidjan",
    "latitude": 6.59286,
    "longitude": -6.04458
  },
  {
    "city": "Yamoussoukro",
    "city_zh": "亚穆苏克罗",
    "country": "Ivory Coast",
    "country_zh": "象牙海岸",
    "country_iso_code": "CI",
    "timezone": "Africa/Abidjan",
    "latitude": 6.82055,
    "longitude": -5.27674
  },
  {
    "city": "Yamoinkro",
    "city_zh": "Yamoinkro",
    "country": "Ivory Coast",
    "country_zh": "象牙海岸",
    "country_iso_code": "CI",
    "timezone": "Africa/Abidjan",
    "latitude": 7.85339,
    "longitude": -4.63815
  },
  {
    "city": "Yamatoulo",
    "city_zh": "Yamatoulo",
    "country": "Ivory Coast",
    "country_zh": "象牙海岸",
    "country_iso_code": "CI",
    "timezone": "Africa/Abidjan",
    "latitude": 7.96837,
    "longitude": -7.64129
  },
  {
    "city": "Yamafaso",
    "city_zh": "Yamafaso",
    "country": "Ivory Coast",
    "country_zh": "象牙海岸",
    "country_iso_code": "CI",
    "timezone": "Africa/Abidjan",
    "latitude": 8.12748,
    "longitude": -7.82086
  },
  {
    "city": "Yamadougou",
    "city_zh": "Yamadougou",
    "country": "Ivory Coast",
    "country_zh": "象牙海岸",
    "country_iso_code": "CI",
    "timezone": "Africa/Abidjan",
    "latitude": 8.04904,
    "longitude": -2.84885
  },
  {
    "city": "Yama",
    "city_zh": "Yama",
    "country": "Ivory Coast",
    "country_zh": "象牙海岸",
    "country_iso_code": "CI",
    "timezone": "Africa/Abidjan",
    "latitude": 9.59863,
    "longitude": -6.30971
  },
  {
    "city": "Yao Loukoukro",
    "city_zh": "Yao Loukoukro",
    "country": "Ivory Coast",
    "country_zh": "象牙海岸",
    "country_iso_code": "CI",
    "timezone": "Africa/Abidjan",
    "latitude": 7.44642,
    "longitude": -4.72919
  },
  {
    "city": "Yalou",
    "city_zh": "Yalou",
    "country": "Ivory Coast",
    "country_zh": "象牙海岸",
    "country_iso_code": "CI",
    "timezone": "Africa/Abidjan",
    "latitude": 8.26706,
    "longitude": -7.92853
  },
  {
    "city": "Yalombi-Kouassékro",
    "city_zh": "Yalombi-Kouassékro",
    "country": "Ivory Coast",
    "country_zh": "象牙海岸",
    "country_iso_code": "CI",
    "timezone": "Africa/Abidjan",
    "latitude": 6.9972,
    "longitude": -4.84791
  },
  {
    "city": "Yalo",
    "city_zh": "Yalo",
    "country": "Ivory Coast",
    "country_zh": "象牙海岸",
    "country_iso_code": "CI",
    "timezone": "Africa/Abidjan",
    "latitude": 9.79848,
    "longitude": -3.39486
  },
  {
    "city": "Yalo",
    "city_zh": "Yalo",
    "country": "Ivory Coast",
    "country_zh": "象牙海岸",
    "country_iso_code": "CI",
    "timezone": "Africa/Abidjan",
    "latitude": 9.34583,
    "longitude": -3.24327
  },
  {
    "city": "Yalo",
    "city_zh": "Yalo",
    "country": "Ivory Coast",
    "country_zh": "象牙海岸",
    "country_iso_code": "CI",
    "timezone": "Africa/Abidjan",
    "latitude": 7.90184,
    "longitude": -7.84285
  },
  {
    "city": "Yalguiré",
    "city_zh": "Yalguiré",
    "country": "Ivory Coast",
    "country_zh": "象牙海岸",
    "country_iso_code": "CI",
    "timezone": "Africa/Abidjan",
    "latitude": 9.55,
    "longitude": -3.26667
  },
  {
    "city": "Yaléfou",
    "city_zh": "Yaléfou",
    "country": "Ivory Coast",
    "country_zh": "象牙海岸",
    "country_iso_code": "CI",
    "timezone": "Africa/Abidjan",
    "latitude": 9.71667,
    "longitude": -3.71667
  },
  {
    "city": "Yaldiré",
    "city_zh": "Yaldiré",
    "country": "Ivory Coast",
    "country_zh": "象牙海岸",
    "country_iso_code": "CI",
    "timezone": "Africa/Abidjan",
    "latitude": 9.55,
    "longitude": -3.15
  },
  {
    "city": "Yala",
    "city_zh": "Yala",
    "country": "Ivory Coast",
    "country_zh": "象牙海岸",
    "country_iso_code": "CI",
    "timezone": "Africa/Abidjan",
    "latitude": 8.30417,
    "longitude": -7.47083
  },
  {
    "city": "Yala",
    "city_zh": "Yala",
    "country": "Ivory Coast",
    "country_zh": "象牙海岸",
    "country_iso_code": "CI",
    "timezone": "Africa/Abidjan",
    "latitude": 8.10561,
    "longitude": -7.61453
  },
  {
    "city": "Yala",
    "city_zh": "Yala",
    "country": "Ivory Coast",
    "country_zh": "象牙海岸",
    "country_iso_code": "CI",
    "timezone": "Africa/Abidjan",
    "latitude": 7.37778,
    "longitude": -6.82639
  },
  {
    "city": "Yakro",
    "city_zh": "Yakro",
    "country": "Ivory Coast",
    "country_zh": "象牙海岸",
    "country_iso_code": "CI",
    "timezone": "Africa/Abidjan",
    "latitude": 7.88261,
    "longitude": -3.69321
  },
  {
    "city": "Yaokro",
    "city_zh": "Yaokro",
    "country": "Ivory Coast",
    "country_zh": "象牙海岸",
    "country_iso_code": "CI",
    "timezone": "Africa/Abidjan",
    "latitude": 7.55167,
    "longitude": -5.16601
  },
  {
    "city": "Yakridibi",
    "city_zh": "Yakridibi",
    "country": "Ivory Coast",
    "country_zh": "象牙海岸",
    "country_iso_code": "CI",
    "timezone": "Africa/Abidjan",
    "latitude": 7.08333,
    "longitude": -3.91667
  },
  {
    "city": "Yakoumakro",
    "city_zh": "Yakoumakro",
    "country": "Ivory Coast",
    "country_zh": "象牙海岸",
    "country_iso_code": "CI",
    "timezone": "Africa/Abidjan",
    "latitude": 7.78843,
    "longitude": -3.57748
  },
  {
    "city": "Yakouassikro",
    "city_zh": "Yakouassikro",
    "country": "Ivory Coast",
    "country_zh": "象牙海岸",
    "country_iso_code": "CI",
    "timezone": "Africa/Abidjan",
    "latitude": 7.16781,
    "longitude": -4.37431
  },
  {
    "city": "Yakonamoun",
    "city_zh": "Yakonamoun",
    "country": "Ivory Coast",
    "country_zh": "象牙海岸",
    "country_iso_code": "CI",
    "timezone": "Africa/Abidjan",
    "latitude": 7.60489,
    "longitude": -5.48269
  },
  {
    "city": "Yakokré",
    "city_zh": "Yakokré",
    "country": "Ivory Coast",
    "country_zh": "象牙海岸",
    "country_iso_code": "CI",
    "timezone": "Africa/Abidjan",
    "latitude": 7.78333,
    "longitude": -4.28333
  },
  {
    "city": "Yakokoroko",
    "city_zh": "Yakokoroko",
    "country": "Ivory Coast",
    "country_zh": "象牙海岸",
    "country_iso_code": "CI",
    "timezone": "Africa/Abidjan",
    "latitude": 8.07117,
    "longitude": -3.08349
  },
  {
    "city": "Yakofikro",
    "city_zh": "Yakofikro",
    "country": "Ivory Coast",
    "country_zh": "象牙海岸",
    "country_iso_code": "CI",
    "timezone": "Africa/Abidjan",
    "latitude": 7.92037,
    "longitude": -5.62457
  },
  {
    "city": "Yakodougou",
    "city_zh": "Yakodougou",
    "country": "Ivory Coast",
    "country_zh": "象牙海岸",
    "country_iso_code": "CI",
    "timezone": "Africa/Abidjan",
    "latitude": 8.58776,
    "longitude": -7.51541
  },
  {
    "city": "Yako",
    "city_zh": "Yako",
    "country": "Ivory Coast",
    "country_zh": "象牙海岸",
    "country_iso_code": "CI",
    "timezone": "Africa/Abidjan",
    "latitude": 7.92083,
    "longitude": -7.01944
  },
  {
    "city": "Yakinso",
    "city_zh": "Yakinso",
    "country": "Ivory Coast",
    "country_zh": "象牙海岸",
    "country_iso_code": "CI",
    "timezone": "Africa/Abidjan",
    "latitude": 8.39227,
    "longitude": -7.45622
  },