[
  {
    "city": "Yemen",
    "city_zh": "Yemen",
    "country": "Mauritius",
    "country_zh": "模里西斯",
    "country_iso_code": "MU",
    "timezone": "Indian/Mauritius",
    "latitude": -20.335,
    "longitude": 57.40056
  },
  {
    "city": "Virginia",
    "city_zh": "Virginia",
    "country": "Mauritius",
    "country_zh": "模里西斯",
    "country_iso_code": "MU",
    "timezone": "Indian/Mauritius",
    "latitude": -20.46778,
    "longitude": 57.65583
  },
  {
    "city": "Ville Valio",
    "city_zh": "Ville Valio",
    "country": "Mauritius",
    "country_zh": "模里西斯",
    "country_iso_code": "MU",
    "timezone": "Indian/Mauritius",
    "latitude": -20.09389,
    "longitude": 57.50389
  },
  {
    "city": "Ville d’Apray",
    "city_zh": "Ville d’Apray",
    "country": "Mauritius",
    "country_zh": "模里西斯",
    "country_iso_code": "MU",
    "timezone": "Indian/Mauritius",
    "latitude": -20.33639,
    "longitude": 57.56306
  },
  {
    "city": "Ville Bague",
    "city_zh": "Ville Bague",
    "country": "Mauritius",
    "country_zh": "模里西斯",
    "country_iso_code": "MU",
    "timezone": "Indian/Mauritius",
    "latitude": -20.14472,
    "longitude": 57.62111
  },
  {
    "city": "Vieux Grand Port",
    "city_zh": "Vieux Grand Port",
    "country": "Mauritius",
    "country_zh": "模里西斯",
    "country_iso_code": "MU",
    "timezone": "Indian/Mauritius",
    "latitude": -20.37444,
    "longitude": 57.71899
  },
  {
    "city": "Verdun",
    "city_zh": "Verdun",
    "country": "Mauritius",
    "country_zh": "模里西斯",
    "country_iso_code": "MU",
    "timezone": "Indian/Mauritius",
    "latitude": -20.23417,
    "longitude": 57.55476
  },
  {
    "city": "Valton",
    "city_zh": "Valton",
    "country": "Mauritius",
    "country_zh": "模里西斯",
    "country_iso_code": "MU",
    "timezone": "Indian/Mauritius",
    "latitude": -20.15587,
    "longitude": 57.57037
  },
  {
    "city": "Valetta",
    "city_zh": "Valetta",
    "country": "Mauritius",
    "country_zh": "模里西斯",
    "country_iso_code": "MU",
    "timezone": "Indian/Mauritius",
    "latitude": -20.25664,
    "longitude": 57.56536
  },
  {
    "city": "Vacoas",
    "city_zh": "Vacoas",
    "country": "Mauritius",
    "country_zh": "模里西斯",
    "country_iso_code": "MU",
    "timezone": "Indian/Mauritius",
    "latitude": -20.29806,
    "longitude": 57.47833
  },
  {
    "city": "Union Vale",
    "city_zh": "Union Vale",
    "country": "Mauritius",
    "country_zh": "模里西斯",
    "country_iso_code": "MU",
    "timezone": "Indian/Mauritius",
    "latitude": -20.44389,
    "longitude": 57.655
  },
  {
    "city": "Réunion Maurel",
    "city_zh": "Réunion Maurel",
    "country": "Mauritius",
    "country_zh": "模里西斯",
    "country_iso_code": "MU",
    "timezone": "Indian/Mauritius",
    "latitude": -20.01917,
    "longitude": 57.63083
  },
  {
    "city": "Trou d’Eau Douce",
    "city_zh": "Trou d’Eau Douce",
    "country": "Mauritius",
    "country_zh": "模里西斯",
    "country_iso_code": "MU",
    "timezone": "Indian/Mauritius",
    "latitude": -20.23405,
    "longitude": 57.79448
  },
  {
    "city": "Trou aux Biches",
    "city_zh": "Trou aux Biches",
    "country": "Mauritius",
    "country_zh": "模里西斯",
    "country_iso_code": "MU",
    "timezone": "Indian/Mauritius",
    "latitude": -20.03301,
    "longitude": 57.55033
  },
  {
    "city": "Trois Îlots",
    "city_zh": "Trois Îlots",
    "country": "Mauritius",
    "country_zh": "模里西斯",
    "country_iso_code": "MU",
    "timezone": "Indian/Mauritius",
    "latitude": -20.26667,
    "longitude": 57.73806
  },
  {
    "city": "Triolet",
    "city_zh": "Triolet",
    "country": "Mauritius",
    "country_zh": "模里西斯",
    "country_iso_code": "MU",
    "timezone": "Indian/Mauritius",
    "latitude": -20.0576,
    "longitude": 57.55025
  },
  {
    "city": "Trio",
    "city_zh": "Trio",
    "country": "Mauritius",
    "country_zh": "模里西斯",
    "country_iso_code": "MU",
    "timezone": "Indian/Mauritius",
    "latitude": -20.0475,
    "longitude": 57.535
  },
  {
    "city": "Trianon",
    "city_zh": "Trianon",
    "country": "Mauritius",
    "country_zh": "模里西斯",
    "country_iso_code": "MU",
    "timezone": "Indian/Mauritius",
    "latitude": -20.25585,
    "longitude": 57.49423
  },
  {
    "city": "The Vale",
    "city_zh": "The Vale",
    "country": "Mauritius",
    "country_zh": "模里西斯",
    "country_iso_code": "MU",
    "timezone": "Indian/Mauritius",
    "latitude": -20.03018,
    "longitude": 57.60219
  },
  {
    "city": "The Mount",
    "city_zh": "The Mount",
    "country": "Mauritius",
    "country_zh": "模里西斯",
    "country_iso_code": "MU",
    "timezone": "Indian/Mauritius",
    "latitude": -20.11139,
    "longitude": 57.60222
  },
  {
    "city": "Terre Rouge",
    "city_zh": "Terre Rouge",
    "country": "Mauritius",
    "country_zh": "模里西斯",
    "country_iso_code": "MU",
    "timezone": "Indian/Mauritius",
    "latitude": -20.1283,
    "longitude": 57.53116
  },
  {
    "city": "Tamarin",
    "city_zh": "Tamarin",
    "country": "Mauritius",
    "country_zh": "模里西斯",
    "country_iso_code": "MU",
    "timezone": "Indian/Mauritius",
    "latitude": -20.32556,
    "longitude": 57.37056
  },
  {
    "city": "Surinam",
    "city_zh": "苏里南村",
    "country": "Mauritius",
    "country_zh": "模里西斯",
    "country_iso_code": "MU",
    "timezone": "Indian/Mauritius",
    "latitude": -20.50972,
    "longitude": 57.50528
  },
  {
    "city": "Suase",
    "city_zh": "Suase",
    "country": "Mauritius",
    "country_zh": "模里西斯",
    "country_iso_code": "MU",
    "timezone": "Indian/Mauritius",
    "latitude": -20.31667,
    "longitude": 57.41667
  },
  {
    "city": "Souillac",
    "city_zh": "Souillac",
    "country": "Mauritius",
    "country_zh": "模里西斯",
    "country_iso_code": "MU",
    "timezone": "Indian/Mauritius",
    "latitude": -20.51667,
    "longitude": 57.51667
  },
  {
    "city": "Souffleur",
    "city_zh": "Souffleur",
    "country": "Mauritius",
    "country_zh": "模里西斯",
    "country_iso_code": "MU",
    "timezone": "Indian/Mauritius",
    "latitude": -20.48167,
    "longitude": 57.63889
  },
  {
    "city": "Sottise",
    "city_zh": "Sottise",
    "country": "Mauritius",
    "country_zh": "模里西斯",
    "country_iso_code": "MU",
    "timezone": "Indian/Mauritius",
    "latitude": -20.02083,
    "longitude": 57.57222
  },
  {
    "city": "Solitude",
    "city_zh": "Solitude",
    "country": "Mauritius",
    "country_zh": "模里西斯",
    "country_iso_code": "MU",
    "timezone": "Indian/Mauritius",
    "latitude": -20.07775,
    "longitude": 57.54627
  },
  {
    "city": "Solférino",
    "city_zh": "Solférino",
    "country": "Mauritius",
    "country_zh": "模里西斯",
    "country_iso_code": "MU",
    "timezone": "Indian/Mauritius",
    "latitude": -20.29083,
    "longitude": 57.46722
  },
  {
    "city": "Sebastopol",
    "city_zh": "Sebastopol",
    "country": "Mauritius",
    "country_zh": "模里西斯",
    "country_iso_code": "MU",
    "timezone": "Indian/Mauritius",
    "latitude": -20.2907,
    "longitude": 57.68779
  },
  {
    "city": "Schoenfeld",
    "city_zh": "Schoenfeld",
    "country": "Mauritius",
    "country_zh": "模里西斯",
    "country_iso_code": "MU",
    "timezone": "Indian/Mauritius",
    "latitude": -20.08056,
    "longitude": 57.66556
  },
  {
    "city": "Savinia",
    "city_zh": "Savinia",
    "country": "Mauritius",
    "country_zh": "模里西斯",
    "country_iso_code": "MU",
    "timezone": "Indian/Mauritius",
    "latitude": -20.47444,
    "longitude": 57.63306
  },
  {
    "city": "Savannah",
    "city_zh": "Savannah",
    "country": "Mauritius",
    "country_zh": "模里西斯",
    "country_iso_code": "MU",
    "timezone": "Indian/Mauritius",
    "latitude": -20.485,
    "longitude": 57.60889
  },
  {
    "city": "Sans Souci",
    "city_zh": "Sans Souci",
    "country": "Mauritius",
    "country_zh": "模里西斯",
    "country_iso_code": "MU",
    "timezone": "Indian/Mauritius",
    "latitude": -20.29583,
    "longitude": 57.65139
  },
  {
    "city": "Mare Samson",
    "city_zh": "Mare Samson",
    "country": "Mauritius",
    "country_zh": "模里西斯",
    "country_iso_code": "MU",
    "timezone": "Indian/Mauritius",
    "latitude": -20.17139,
    "longitude": 57.44167
  },
  {
    "city": "Saint Pierre",
    "city_zh": "Saint Pierre",
    "country": "Mauritius",
    "country_zh": "模里西斯",
    "country_iso_code": "MU",
    "timezone": "Indian/Mauritius",
    "latitude": -20.2215,
    "longitude": 57.53431
  },
  {
    "city": "Saint Martin",
    "city_zh": "Saint Martin",
    "country": "Mauritius",
    "country_zh": "模里西斯",
    "country_iso_code": "MU",
    "timezone": "Indian/Mauritius",
    "latitude": -20.49639,
    "longitude": 57.38833
  },
  {
    "city": "Saint Julien",
    "city_zh": "Saint Julien",
    "country": "Mauritius",
    "country_zh": "模里西斯",
    "country_iso_code": "MU",
    "timezone": "Indian/Mauritius",
    "latitude": -20.208,
    "longitude": 57.676
  },
  {
    "city": "Saint Hubert",
    "city_zh": "Saint Hubert",
    "country": "Mauritius",
    "country_zh": "模里西斯",
    "country_iso_code": "MU",
    "timezone": "Indian/Mauritius",
    "latitude": -20.36417,
    "longitude": 57.63833
  },
  {
    "city": "Saint François",
    "city_zh": "Saint François",
    "country": "Mauritius",
    "country_zh": "模里西斯",
    "country_iso_code": "MU",
    "timezone": "Indian/Mauritius",
    "latitude": -20.00444,
    "longitude": 57.63417
  },
  {
    "city": "Saint Félix",
    "city_zh": "Saint Félix",
    "country": "Mauritius",
    "country_zh": "模里西斯",
    "country_iso_code": "MU",
    "timezone": "Indian/Mauritius",
    "latitude": -20.48667,
    "longitude": 57.56639
  },
  {
    "city": "Frederica",
    "city_zh": "Frederica",
    "country": "Mauritius",
    "country_zh": "模里西斯",
    "country_iso_code": "MU",
    "timezone": "Indian/Mauritius",
    "latitude": -20.48361,
    "longitude": 57.425
  },
  {
    "city": "Sainte Croix",
    "city_zh": "Sainte Croix",
    "country": "Mauritius",
    "country_zh": "模里西斯",
    "country_iso_code": "MU",
    "timezone": "Indian/Mauritius",
    "latitude": -20.14733,
    "longitude": 57.52822
  },
  {
    "city": "Saint Cloud",
    "city_zh": "Saint Cloud",
    "country": "Mauritius",
    "country_zh": "模里西斯",
    "country_iso_code": "MU",
    "timezone": "Indian/Mauritius",
    "latitude": -20.14778,
    "longitude": 57.63417
  },
  {
    "city": "Saint Aubin",
    "city_zh": "Saint Aubin",
    "country": "Mauritius",
    "country_zh": "模里西斯",
    "country_iso_code": "MU",
    "timezone": "Indian/Mauritius",
    "latitude": -20.496,
    "longitude": 57.55
  },
  {
    "city": "Saint Antoine",
    "city_zh": "Saint Antoine",
    "country": "Mauritius",
    "country_zh": "模里西斯",
    "country_iso_code": "MU",
    "timezone": "Indian/Mauritius",
    "latitude": -20.04167,
    "longitude": 57.65361
  },
  {
    "city": "Morcellement Saint André",
    "city_zh": "Morcellement Saint André",
    "country": "Mauritius",
    "country_zh": "模里西斯",
    "country_iso_code": "MU",
    "timezone": "Indian/Mauritius",
    "latitude": -20.07199,
    "longitude": 57.56833
  },
  {
    "city": "Ruisseau Créole",
    "city_zh": "Ruisseau Créole",
    "country": "Mauritius",
    "country_zh": "模里西斯",
    "country_iso_code": "MU",
    "timezone": "Indian/Mauritius",
    "latitude": -20.48333,
    "longitude": 57.38333
  },
  {
    "city": "Ruisseau Copeaux",
    "city_zh": "Ruisseau Copeaux",
    "country": "Mauritius",
    "country_zh": "模里西斯",
    "country_iso_code": "MU",
    "timezone": "Indian/Mauritius",
    "latitude": -20.41861,
    "longitude": 57.65722
  },
  {
    "city": "Rouge Terre",
    "city_zh": "Rouge Terre",
    "country": "Mauritius",
    "country_zh": "模里西斯",
    "country_iso_code": "MU",
    "timezone": "Indian/Mauritius",
    "latitude": -20.04333,
    "longitude": 57.56833
  },
  {
    "city": "Roselyn Cottage",
    "city_zh": "Roselyn Cottage",
    "country": "Mauritius",
    "country_zh": "模里西斯",
    "country_iso_code": "MU",
    "timezone": "Indian/Mauritius",
    "latitude": -20.21329,
    "longitude": 57.52666
  },
  {
    "city": "Rose Hill",
    "city_zh": "Rose Hill",
    "country": "Mauritius",
    "country_zh": "模里西斯",
    "country_iso_code": "MU",
    "timezone": "Indian/Mauritius",
    "latitude": -20.24194,
    "longitude": 57.47
  },
  {
    "city": "Rose Belle",
    "city_zh": "Rose Belle",
    "country": "Mauritius",
    "country_zh": "模里西斯",
    "country_iso_code": "MU",
    "timezone": "Indian/Mauritius",
    "latitude": -20.40028,
    "longitude": 57.59667
  },
  {
    "city": "Roche Terre",
    "city_zh": "Roche Terre",
    "country": "Mauritius",
    "country_zh": "模里西斯",
    "country_iso_code": "MU",
    "timezone": "Indian/Mauritius",
    "latitude": -20.01861,
    "longitude": 57.64472
  },
  {
    "city": "Roches Brunes",
    "city_zh": "Roches Brunes",
    "country": "Mauritius",
    "country_zh": "模里西斯",
    "country_iso_code": "MU",
    "timezone": "Indian/Mauritius",
    "latitude": -20.23751,
    "longitude": 57.45662
  },
  {
    "city": "Roches Noire",
    "city_zh": "Roches Noire",
    "country": "Mauritius",
    "country_zh": "模里西斯",
    "country_iso_code": "MU",
    "timezone": "Indian/Mauritius",
    "latitude": -20.11111,
    "longitude": 57.71222
  },
  {
    "city": "Roche Bois",
    "city_zh": "Roche Bois",
    "country": "Mauritius",
    "country_zh": "模里西斯",
    "country_iso_code": "MU",
    "timezone": "Indian/Mauritius",
    "latitude": -20.14548,
    "longitude": 57.51018
  },
  {
    "city": "Grande Rivière Noire",
    "city_zh": "Grande Rivière Noire",
    "country": "Mauritius",
    "country_zh": "模里西斯",
    "country_iso_code": "MU",
    "timezone": "Indian/Mauritius",
    "latitude": -20.36028,
    "longitude": 57.36611
  },
  {
    "city": "Rivière du Rempart",
    "city_zh": "Rivière du Rempart",
    "country": "Mauritius",
    "country_zh": "模里西斯",
    "country_iso_code": "MU",
    "timezone": "Indian/Mauritius",
    "latitude": -20.10306,
    "longitude": 57.68472
  },
  {
    "city": "Rivière du Poste",
    "city_zh": "Rivière du Poste",
    "country": "Mauritius",
    "country_zh": "模里西斯",
    "country_iso_code": "MU",
    "timezone": "Indian/Mauritius",
    "latitude": -20.42417,
    "longitude": 57.56694
  },
  {
    "city": "Rivière Dragon",
    "city_zh": "Rivière Dragon",
    "country": "Mauritius",
    "country_zh": "模里西斯",
    "country_iso_code": "MU",
    "timezone": "Indian/Mauritius",
    "latitude": -20.44611,
    "longitude": 57.56
  },
  {
    "city": "Rivière des Anguilles",
    "city_zh": "Rivière des Anguilles",
    "country": "Mauritius",
    "country_zh": "模里西斯",
    "country_iso_code": "MU",
    "timezone": "Indian/Mauritius",
    "latitude": -20.493,
    "longitude": 57.563
  },
  {
    "city": "Rivière des Creoles",
    "city_zh": "Rivière des Creoles",
    "country": "Mauritius",
    "country_zh": "模里西斯",
    "country_iso_code": "MU",
    "timezone": "Indian/Mauritius",
    "latitude": -20.39009,
    "longitude": 57.69655
  },
  {
    "city": "Rivière Baptiste",
    "city_zh": "Rivière Baptiste",
    "country": "Mauritius",
    "country_zh": "模里西斯",
    "country_iso_code": "MU",
    "timezone": "Indian/Mauritius",
    "latitude": -20.20972,
    "longitude": 57.53573
  },
  {
    "city": "Ripailles",
    "city_zh": "Ripailles",
    "country": "Mauritius",
    "country_zh": "模里西斯",
    "country_iso_code": "MU",
    "timezone": "Indian/Mauritius",
    "latitude": -20.19771,
    "longitude": 57.57659
  },
  {
    "city": "Rich Fund",
    "city_zh": "Rich Fund",
    "country": "Mauritius",
    "country_zh": "模里西斯",
    "country_iso_code": "MU",
    "timezone": "Indian/Mauritius",
    "latitude": -20.20889,
    "longitude": 57.66583
  },
  {
    "city": "Richeterre",
    "city_zh": "Richeterre",
    "country": "Mauritius",
    "country_zh": "模里西斯",
    "country_iso_code": "MU",
    "timezone": "Indian/Mauritius",
    "latitude": -20.11667,
    "longitude": 57.5
  },
  {
    "city": "Riche en Eau",
    "city_zh": "Riche en Eau",
    "country": "Mauritius",
    "country_zh": "模里西斯",
    "country_iso_code": "MU",
    "timezone": "Indian/Mauritius",
    "latitude": -20.38472,
    "longitude": 57.65556
  },
  {
    "city": "Riche Bois",
    "city_zh": "Riche Bois",
    "country": "Mauritius",
    "country_zh": "模里西斯",
    "country_iso_code": "MU",
    "timezone": "Indian/Mauritius",
    "latitude": -20.45639,
    "longitude": 57.57694
  },
  {
    "city": "Réunion",
    "city_zh": "Réunion",
    "country": "Mauritius",
    "country_zh": "模里西斯",
    "country_iso_code": "MU",
    "timezone": "Indian/Mauritius",
    "latitude": -20.30917,
    "longitude": 57.48806
  },
  {
    "city": "Ravin",
    "city_zh": "Ravin",
    "country": "Mauritius",
    "country_zh": "模里西斯",
    "country_iso_code": "MU",
    "timezone": "Indian/Mauritius",
    "latitude": -20.1,
    "longitude": 57.68333
  },
  {
    "city": "Quinze Cantons",
    "city_zh": "Quinze Cantons",
    "country": "Mauritius",
    "country_zh": "模里西斯",
    "country_iso_code": "MU",
    "timezone": "Indian/Mauritius",
    "latitude": -20.30083,
    "longitude": 57.4725
  },
  {
    "city": "Queen Victoria",
    "city_zh": "Queen Victoria",
    "country": "Mauritius",
    "country_zh": "模里西斯",
    "country_iso_code": "MU",
    "timezone": "Indian/Mauritius",
    "latitude": -20.22,
    "longitude": 57.7075
  },
  {
    "city": "Quatre Soeurs",
    "city_zh": "Quatre Soeurs",
    "country": "Mauritius",
    "country_zh": "模里西斯",
    "country_iso_code": "MU",
    "timezone": "Indian/Mauritius",
    "latitude": -20.29917,
    "longitude": 57.77056
  },
  {
    "city": "Quatre Bornes",
    "city_zh": "Quatre Bornes",
    "country": "Mauritius",
    "country_zh": "模里西斯",
    "country_iso_code": "MU",
    "timezone": "Indian/Mauritius",
    "latitude": -20.26381,
    "longitude": 57.4791
  },
  {
    "city": "Quartier Militaire",
    "city_zh": "Quartier Militaire",
    "country": "Mauritius",
    "country_zh": "模里西斯",
    "country_iso_code": "MU",
    "timezone": "Indian/Mauritius",
    "latitude": -20.2479,
    "longitude": 57.59737
  },
  {
    "city": "Providence",
    "city_zh": "Providence",
    "country": "Mauritius",
    "country_zh": "模里西斯",
    "country_iso_code": "MU",
    "timezone": "Indian/Mauritius",
    "latitude": -20.24472,
    "longitude": 57.61222
  },
  {
    "city": "Poudre d’Or",
    "city_zh": "Poudre d’Or",
    "country": "Mauritius",
    "country_zh": "模里西斯",
    "country_iso_code": "MU",
    "timezone": "Indian/Mauritius",
    "latitude": -20.06,
    "longitude": 57.67667
  },
  {
    "city": "Poste de Flacq",
    "city_zh": "Poste de Flacq",
    "country": "Mauritius",
    "country_zh": "模里西斯",
    "country_iso_code": "MU",
    "timezone": "Indian/Mauritius",
    "latitude": -20.16306,
    "longitude": 57.73056
  },
  {
    "city": "Port Sainte Rita",
    "city_zh": "Port Sainte Rita",
    "country": "Mauritius",
    "country_zh": "模里西斯",
    "country_iso_code": "MU",
    "timezone": "Indian/Mauritius",
    "latitude": -10.48333,
    "longitude": 56.7
  },
  {
    "city": "Port Louis",
    "city_zh": "路易港",
    "country": "Mauritius",
    "country_zh": "模里西斯",
    "country_iso_code": "MU",
    "timezone": "Indian/Mauritius",
    "latitude": -20.16194,
    "longitude": 57.49889
  },
  {
    "city": "Pont Praslin",
    "city_zh": "Pont Praslin",
    "country": "Mauritius",
    "country_zh": "模里西斯",
    "country_iso_code": "MU",
    "timezone": "Indian/Mauritius",
    "latitude": -20.14944,
    "longitude": 57.6325
  },
  {
    "city": "Pont Colville",
    "city_zh": "Pont Colville",
    "country": "Mauritius",
    "country_zh": "模里西斯",
    "country_iso_code": "MU",
    "timezone": "Indian/Mauritius",
    "latitude": -20.38278,
    "longitude": 57.55806
  },
  {
    "city": "Pont Blanc",
    "city_zh": "Pont Blanc",
    "country": "Mauritius",
    "country_zh": "模里西斯",
    "country_iso_code": "MU",
    "timezone": "Indian/Mauritius",
    "latitude": -20.16667,
    "longitude": 57.70444
  },
  {
    "city": "Pointe aux Canonniers",
    "city_zh": "Pointe aux Canonniers",
    "country": "Mauritius",
    "country_zh": "模里西斯",
    "country_iso_code": "MU",
    "timezone": "Indian/Mauritius",
    "latitude": -20.00833,
    "longitude": 57.56
  },
  {
    "city": "Plaisance",
    "city_zh": "Plaisance",
    "country": "Mauritius",
    "country_zh": "模里西斯",
    "country_iso_code": "MU",
    "timezone": "Indian/Mauritius",
    "latitude": -20.43031,
    "longitude": 57.66097
  },
  {
    "city": "Plaine Magnien",
    "city_zh": "Plaine Magnien",
    "country": "Mauritius",
    "country_zh": "模里西斯",
    "country_iso_code": "MU",
    "timezone": "Indian/Mauritius",
    "latitude": -20.42967,
    "longitude": 57.66968
  },
  {
    "city": "Plaine des Papayes",
    "city_zh": "Plaine des Papayes",
    "country": "Mauritius",
    "country_zh": "模里西斯",
    "country_iso_code": "MU",
    "timezone": "Indian/Mauritius",
    "latitude": -20.065,
    "longitude": 57.5725
  },
  {
    "city": "Phoenix",
    "city_zh": "Phoenix",
    "country": "Mauritius",
    "country_zh": "模里西斯",
    "country_iso_code": "MU",
    "timezone": "Indian/Mauritius",
    "latitude": -20.28667,
    "longitude": 57.50222
  },
  {
    "city": "Petit Verger",
    "city_zh": "Petit Verger",
    "country": "Mauritius",
    "country_zh": "模里西斯",
    "country_iso_code": "MU",
    "timezone": "Indian/Mauritius",
    "latitude": -20.21628,
    "longitude": 57.52569
  },
  {
    "city": "Petit Raffray",
    "city_zh": "Petit Raffray",
    "country": "Mauritius",
    "country_zh": "模里西斯",
    "country_iso_code": "MU",
    "timezone": "Indian/Mauritius",
    "latitude": -20.02022,
    "longitude": 57.62296
  },
  {
    "city": "Petit Paquet",
    "city_zh": "Petit Paquet",
    "country": "Mauritius",
    "country_zh": "模里西斯",
    "country_iso_code": "MU",
    "timezone": "Indian/Mauritius",
    "latitude": -20.00139,
    "longitude": 57.62917
  },
  {
    "city": "Petit Verger",
    "city_zh": "Petit Verger",
    "country": "Mauritius",
    "country_zh": "模里西斯",
    "country_iso_code": "MU",
    "timezone": "Indian/Mauritius",
    "latitude": -20.17556,
    "longitude": 57.43361
  },
  {
    "city": "Petite Rivière",
    "city_zh": "Petite Rivière",
    "country": "Mauritius",
    "country_zh": "模里西斯",
    "country_iso_code": "MU",
    "timezone": "Indian/Mauritius",
    "latitude": -20.19551,
    "longitude": 57.44592
  },
  {
    "city": "Petite Case Noyale",
    "city_zh": "Petite Case Noyale",
    "country": "Mauritius",
    "country_zh": "模里西斯",
    "country_iso_code": "MU",
    "timezone": "Indian/Mauritius",
    "latitude": -20.404,
    "longitude": 57.371
  },
  {
    "city": "Pavillon du Grand Port",
    "city_zh": "Pavillon du Grand Port",
    "country": "Mauritius",
    "country_zh": "模里西斯",
    "country_iso_code": "MU",
    "timezone": "Indian/Mauritius",
    "latitude": -20.37111,
    "longitude": 57.7175
  },
  {
    "city": "Pamplemousses",
    "city_zh": "Pamplemousses",
    "country": "Mauritius",
    "country_zh": "模里西斯",
    "country_iso_code": "MU",
    "timezone": "Indian/Mauritius",
    "latitude": -20.10389,
    "longitude": 57.57028
  },
  {
    "city": "Palmyre",
    "city_zh": "Palmyre",
    "country": "Mauritius",
    "country_zh": "模里西斯",
    "country_iso_code": "MU",
    "timezone": "Indian/Mauritius",
    "latitude": -20.28222,
    "longitude": 57.38444
  },
  {
    "city": "Palma",
    "city_zh": "Palma",
    "country": "Mauritius",
    "country_zh": "模里西斯",
    "country_iso_code": "MU",
    "timezone": "Indian/Mauritius",
    "latitude": -20.27917,
    "longitude": 57.44417
  },
  {
    "city": "Pailles",
    "city_zh": "Pailles",
    "country": "Mauritius",
    "country_zh": "模里西斯",
    "country_iso_code": "MU",
    "timezone": "Indian/Mauritius",
    "latitude": -20.19271,
    "longitude": 57.48826
  },
  {
    "city": "Olivia",
    "city_zh": "Olivia",
    "country": "Mauritius",
    "country_zh": "模里西斯",
    "country_iso_code": "MU",
    "timezone": "Indian/Mauritius",
    "latitude": -20.28778,
    "longitude": 57.73097
  },
  {
    "city": "Nouvelle France",
    "city_zh": "Nouvelle France",
    "country": "Mauritius",
    "country_zh": "模里西斯",
    "country_iso_code": "MU",
    "timezone": "Indian/Mauritius",
    "latitude": -20.37056,
    "longitude": 57.56111
  },
  {
    "city": "Notre Dame",
    "city_zh": "Notre Dame",
    "country": "Mauritius",
    "country_zh": "模里西斯",
    "country_iso_code": "MU",
    "timezone": "Indian/Mauritius",
    "latitude": -20.14298,
    "longitude": 57.55969
  },
  {
    "city": "New Grove",
    "city_zh": "New Grove",
    "country": "Mauritius",
    "country_zh": "模里西斯",
    "country_iso_code": "MU",
    "timezone": "Indian/Mauritius",
    "latitude": -20.40861,
    "longitude": 57.61361
  },
  {
    "city": "Mount Ory",
    "city_zh": "Mount Ory",
    "country": "Mauritius",
    "country_zh": "模里西斯",
    "country_iso_code": "MU",
    "timezone": "Indian/Mauritius",
    "latitude": -20.21718,
    "longitude": 57.49005
  },
  {
    "city": "Mon Vallon",
    "city_zh": "Mon Vallon",
    "country": "Mauritius",
    "country_zh": "模里西斯",
    "country_iso_code": "MU",
    "timezone": "Indian/Mauritius",
    "latitude": -20.3,
    "longitude": 57.4
  },
  {
    "city": "Mon Trésor",
    "city_zh": "Mon Trésor",
    "country": "Mauritius",
    "country_zh": "模里西斯",
    "country_iso_code": "MU",
    "timezone": "Indian/Mauritius",
    "latitude": -20.44667,
    "longitude": 57.67167
  },
  {
    "city": "Piton",
    "city_zh": "Piton",
    "country": "Mauritius",
    "country_zh": "模里西斯",
    "country_iso_code": "MU",
    "timezone": "Indian/Mauritius",
    "latitude": -20.09028,
    "longitude": 57.63028
  },
  {
    "city": "Mont Ida",
    "city_zh": "Mont Ida",
    "country": "Mauritius",
    "country_zh": "模里西斯",
    "country_iso_code": "MU",
    "timezone": "Indian/Mauritius",
    "latitude": -20.23889,
    "longitude": 57.63083
  },
  {
    "city": "Mont Fleury",
    "city_zh": "Mont Fleury",
    "country": "Mauritius",
    "country_zh": "模里西斯",
    "country_iso_code": "MU",
    "timezone": "Indian/Mauritius",
    "latitude": -20.21736,
    "longitude": 57.53977
  },
  {
    "city": "Mont Blanc",
    "city_zh": "Mont Blanc",
    "country": "Mauritius",
    "country_zh": "模里西斯",
    "country_iso_code": "MU",
    "timezone": "Indian/Mauritius",
    "latitude": -20.47889,
    "longitude": 57.47444
  },
  {
    "city": "Montagne Blanche",
    "city_zh": "Montagne Blanche",
    "country": "Mauritius",
    "country_zh": "模里西斯",
    "country_iso_code": "MU",
    "timezone": "Indian/Mauritius",
    "latitude": -20.28538,
    "longitude": 57.65865
  },
  {
    "city": "Mon Rocher",
    "city_zh": "Mon Rocher",
    "country": "Mauritius",
    "country_zh": "模里西斯",
    "country_iso_code": "MU",
    "timezone": "Indian/Mauritius",
    "latitude": -20.09056,
    "longitude": 57.57389
  },
  {
    "city": "Mon Piton",
    "city_zh": "Mon Piton",
    "country": "Mauritius",
    "country_zh": "模里西斯",
    "country_iso_code": "MU",
    "timezone": "Indian/Mauritius",
    "latitude": -20.08917,
    "longitude": 57.62444
  },
  {
    "city": "Mon Loisir",
    "city_zh": "Mon Loisir",
    "country": "Mauritius",
    "country_zh": "模里西斯",
    "country_iso_code": "MU",
    "timezone": "Indian/Mauritius",
    "latitude": -20.03278,
    "longitude": 57.61917
  },
  {
    "city": "Mon Goût",
    "city_zh": "Mon Goût",
    "country": "Mauritius",
    "country_zh": "模里西斯",
    "country_iso_code": "MU",
    "timezone": "Indian/Mauritius",
    "latitude": -20.1175,
    "longitude": 57.58972
  },
  {
    "city": "Mon Désert",
    "city_zh": "Mon Désert",
    "country": "Mauritius",
    "country_zh": "模里西斯",
    "country_iso_code": "MU",
    "timezone": "Indian/Mauritius",
    "latitude": -20.44722,
    "longitude": 57.67167
  },
  {
    "city": "Mon Désert",
    "city_zh": "Mon Désert",
    "country": "Mauritius",
    "country_zh": "模里西斯",
    "country_iso_code": "MU",
    "timezone": "Indian/Mauritius",
    "latitude": -20.22634,
    "longitude": 57.53531
  },
  {
    "city": "Moka",
    "city_zh": "Moka",
    "country": "Mauritius",
    "country_zh": "模里西斯",
    "country_iso_code": "MU",
    "timezone": "Indian/Mauritius",
    "latitude": -20.44778,
    "longitude": 57.35444
  },
  {
    "city": "Moka",
    "city_zh": "Moka",
    "country": "Mauritius",
    "country_zh": "模里西斯",
    "country_iso_code": "MU",
    "timezone": "Indian/Mauritius",
    "latitude": -20.21904,
    "longitude": 57.51083
  },
  {
    "city": "Minissy",
    "city_zh": "Minissy",
    "country": "Mauritius",
    "country_zh": "模里西斯",
    "country_iso_code": "MU",
    "timezone": "Indian/Mauritius",
    "latitude": -20.24031,
    "longitude": 57.51363
  },
  {
    "city": "Midlands",
    "city_zh": "Midlands",
    "country": "Mauritius",
    "country_zh": "模里西斯",
    "country_iso_code": "MU",
    "timezone": "Indian/Mauritius",
    "latitude": -20.338,
    "longitude": 57.567
  },
  {
    "city": "Melville",
    "city_zh": "Melville",
    "country": "Mauritius",
    "country_zh": "模里西斯",
    "country_iso_code": "MU",
    "timezone": "Indian/Mauritius",
    "latitude": -20.01944,
    "longitude": 57.67444
  },
  {
    "city": "Melrose",
    "city_zh": "Melrose",
    "country": "Mauritius",
    "country_zh": "模里西斯",
    "country_iso_code": "MU",
    "timezone": "Indian/Mauritius",
    "latitude": -20.26972,
    "longitude": 57.63194
  },
  {
    "city": "Médine",
    "city_zh": "Médine",
    "country": "Mauritius",
    "country_zh": "模里西斯",
    "country_iso_code": "MU",
    "timezone": "Indian/Mauritius",
    "latitude": -20.26028,
    "longitude": 57.38889
  },
  {
    "city": "Médine",
    "city_zh": "Médine",
    "country": "Mauritius",
    "country_zh": "模里西斯",
    "country_iso_code": "MU",
    "timezone": "Indian/Mauritius",
    "latitude": -20.24222,
    "longitude": 57.6425
  },
  {
    "city": "Mare Tabac",
    "city_zh": "Mare Tabac",
    "country": "Mauritius",
    "country_zh": "模里西斯",
    "country_iso_code": "MU",
    "timezone": "Indian/Mauritius",
    "latitude": -20.43583,
    "longitude": 57.58861
  },
  {
    "city": "Mare Jacot",
    "city_zh": "Mare Jacot",
    "country": "Mauritius",
    "country_zh": "模里西斯",
    "country_iso_code": "MU",
    "timezone": "Indian/Mauritius",
    "latitude": -20.24778,
    "longitude": 57.67639
  },
  {
    "city": "Mare d’Albert",
    "city_zh": "Mare d’Albert",
    "country": "Mauritius",
    "country_zh": "模里西斯",
    "country_iso_code": "MU",
    "timezone": "Indian/Mauritius",
    "latitude": -20.424,
    "longitude": 57.632
  },
  {
    "city": "Maison Blanche",
    "city_zh": "Maison Blanche",
    "country": "Mauritius",
    "country_zh": "模里西斯",
    "country_iso_code": "MU",
    "timezone": "Indian/Mauritius",
    "latitude": -20.10806,
    "longitude": 57.57472
  },
  {
    "city": "Mahébourg",
    "city_zh": "马埃堡",
    "country": "Mauritius",
    "country_zh": "模里西斯",
    "country_iso_code": "MU",
    "timezone": "Indian/Mauritius",
    "latitude": -20.40806,
    "longitude": 57.7
  },
  {
    "city": "L’Unité",
    "city_zh": "L’Unité",
    "country": "Mauritius",
    "country_zh": "模里西斯",
    "country_iso_code": "MU",
    "timezone": "Indian/Mauritius",
    "latitude": -20.23278,
    "longitude": 57.66722
  },
  {
    "city": "L’Union",
    "city_zh": "L’Union",
    "country": "Mauritius",
    "country_zh": "模里西斯",
    "country_iso_code": "MU",
    "timezone": "Indian/Mauritius",
    "latitude": -20.505,
    "longitude": 57.53861
  },
  {
    "city": "L’Union",
    "city_zh": "L’Union",
    "country": "Mauritius",
    "country_zh": "模里西斯",
    "country_iso_code": "MU",
    "timezone": "Indian/Mauritius",
    "latitude": -20.5,
    "longitude": 57.46667
  },
  {
    "city": "Luchon",
    "city_zh": "Luchon",
    "country": "Mauritius",
    "country_zh": "模里西斯",
    "country_iso_code": "MU",
    "timezone": "Indian/Mauritius",
    "latitude": -20.46667,
    "longitude": 57.45
  },
  {
    "city": "Long Mountain",
    "city_zh": "Long Mountain",
    "country": "Mauritius",
    "country_zh": "模里西斯",
    "country_iso_code": "MU",
    "timezone": "Indian/Mauritius",
    "latitude": -20.151,
    "longitude": 57.573
  },
  {
    "city": "Ligne Barrin",
    "city_zh": "Ligne Barrin",
    "country": "Mauritius",
    "country_zh": "模里西斯",
    "country_iso_code": "MU",
    "timezone": "Indian/Mauritius",
    "latitude": -20.47333,
    "longitude": 57.65861
  },
  {
    "city": "Le Val",
    "city_zh": "Le Val",
    "country": "Mauritius",
    "country_zh": "模里西斯",
    "country_iso_code": "MU",
    "timezone": "Indian/Mauritius",
    "latitude": -20.35472,
    "longitude": 57.62083
  },
  {
    "city": "L’Étoile",
    "city_zh": "L’Étoile",
    "country": "Mauritius",
    "country_zh": "模里西斯",
    "country_iso_code": "MU",
    "timezone": "Indian/Mauritius",
    "latitude": -20.30444,
    "longitude": 57.70306
  },
  {
    "city": "Lesur",
    "city_zh": "Lesur",
    "country": "Mauritius",
    "country_zh": "模里西斯",
    "country_iso_code": "MU",
    "timezone": "Indian/Mauritius",
    "latitude": -20.28944,
    "longitude": 57.675
  },
  {
    "city": "L’Escalier",
    "city_zh": "L’Escalier",
    "country": "Mauritius",
    "country_zh": "模里西斯",
    "country_iso_code": "MU",
    "timezone": "Indian/Mauritius",
    "latitude": -20.47,
    "longitude": 57.61222
  },
  {
    "city": "L’Escalier",
    "city_zh": "L’Escalier",
    "country": "Mauritius",
    "country_zh": "模里西斯",
    "country_iso_code": "MU",
    "timezone": "Indian/Mauritius",
    "latitude": -20.19,
    "longitude": 57.58222
  },
  {
    "city": "Réduit",
    "city_zh": "Réduit",
    "country": "Mauritius",
    "country_zh": "模里西斯",
    "country_iso_code": "MU",
    "timezone": "Indian/Mauritius",
    "latitude": -20.23436,
    "longitude": 57.49386
  },
  {
    "city": "Le Plessis",
    "city_zh": "Le Plessis",
    "country": "Mauritius",
    "country_zh": "模里西斯",
    "country_iso_code": "MU",
    "timezone": "Indian/Mauritius",
    "latitude": -20.11472,
    "longitude": 57.5975
  },
  {
    "city": "Léonbourg",
    "city_zh": "Léonbourg",
    "country": "Mauritius",
    "country_zh": "模里西斯",
    "country_iso_code": "MU",
    "timezone": "Indian/Mauritius",
    "latitude": -20.11361,
    "longitude": 57.49722
  },
  {
    "city": "Le Marres",
    "city_zh": "Le Marres",
    "country": "Mauritius",
    "country_zh": "模里西斯",
    "country_iso_code": "MU",
    "timezone": "Indian/Mauritius",
    "latitude": -20.42528,
    "longitude": 57.46806
  },
  {
    "city": "Le Chaland",
    "city_zh": "Le Chaland",
    "country": "Mauritius",
    "country_zh": "模里西斯",
    "country_iso_code": "MU",
    "timezone": "Indian/Mauritius",
    "latitude": -20.44472,
    "longitude": 57.69861
  },
  {
    "city": "Le Bocage",
    "city_zh": "Le Bocage",
    "country": "Mauritius",
    "country_zh": "模里西斯",
    "country_iso_code": "MU",
    "timezone": "Indian/Mauritius",
    "latitude": -20.21863,
    "longitude": 57.50339
  },
  {
    "city": "Lavilléon",
    "city_zh": "Lavilléon",
    "country": "Mauritius",
    "country_zh": "模里西斯",
    "country_iso_code": "MU",
    "timezone": "Indian/Mauritius",
    "latitude": -20.4425,
    "longitude": 57.35611
  },
  {
    "city": "La Russie",
    "city_zh": "La Russie",
    "country": "Mauritius",
    "country_zh": "模里西斯",
    "country_iso_code": "MU",
    "timezone": "Indian/Mauritius",
    "latitude": -20.24361,
    "longitude": 57.59667
  },
  {
    "city": "La Rotraite",
    "city_zh": "La Rotraite",
    "country": "Mauritius",
    "country_zh": "模里西斯",
    "country_iso_code": "MU",
    "timezone": "Indian/Mauritius",
    "latitude": -20.2,
    "longitude": 57.46667
  },
  {
    "city": "La Rosa",
    "city_zh": "La Rosa",
    "country": "Mauritius",
    "country_zh": "模里西斯",
    "country_iso_code": "MU",
    "timezone": "Indian/Mauritius",
    "latitude": -20.41361,
    "longitude": 57.61694
  },
  {
    "city": "La Rampe - Le Moirt",
    "city_zh": "La Rampe - Le Moirt",
    "country": "Mauritius",
    "country_zh": "模里西斯",
    "country_iso_code": "MU",
    "timezone": "Indian/Mauritius",
    "latitude": -20.42583,
    "longitude": 57.63167
  },
  {
    "city": "La Nourrice",
    "city_zh": "La Nourrice",
    "country": "Mauritius",
    "country_zh": "模里西斯",
    "country_iso_code": "MU",
    "timezone": "Indian/Mauritius",
    "latitude": -20.28722,
    "longitude": 57.73806
  },
  {
    "city": "La Morue",
    "city_zh": "La Morue",
    "country": "Mauritius",
    "country_zh": "模里西斯",
    "country_iso_code": "MU",
    "timezone": "Indian/Mauritius",
    "latitude": -20.13333,
    "longitude": 57.65
  },
  {
    "city": "La Mecque",
    "city_zh": "La Mecque",
    "country": "Mauritius",
    "country_zh": "模里西斯",
    "country_iso_code": "MU",
    "timezone": "Indian/Mauritius",
    "latitude": -20.24861,
    "longitude": 57.38944
  },
  {
    "city": "La Marre",
    "city_zh": "La Marre",
    "country": "Mauritius",
    "country_zh": "模里西斯",
    "country_iso_code": "MU",
    "timezone": "Indian/Mauritius",
    "latitude": -20.15667,
    "longitude": 57.64194
  },
  {
    "city": "La Marie",
    "city_zh": "La Marie",
    "country": "Mauritius",
    "country_zh": "模里西斯",
    "country_iso_code": "MU",
    "timezone": "Indian/Mauritius",
    "latitude": -20.335,
    "longitude": 57.485
  },
  {
    "city": "La Lucie",
    "city_zh": "La Lucie",
    "country": "Mauritius",
    "country_zh": "模里西斯",
    "country_iso_code": "MU",
    "timezone": "Indian/Mauritius",
    "latitude": -20.25972,
    "longitude": 57.73556
  },
  {
    "city": "Lalmatie",
    "city_zh": "Lalmatie",
    "country": "Mauritius",
    "country_zh": "模里西斯",
    "country_iso_code": "MU",
    "timezone": "Indian/Mauritius",
    "latitude": -20.18972,
    "longitude": 57.66111
  },
  {
    "city": "La Laura",
    "city_zh": "La Laura",
    "country": "Mauritius",
    "country_zh": "模里西斯",
    "country_iso_code": "MU",
    "timezone": "Indian/Mauritius",
    "latitude": -20.20311,
    "longitude": 57.55182
  },
  {
    "city": "L’Agrément",
    "city_zh": "L’Agrément",
    "country": "Mauritius",
    "country_zh": "模里西斯",
    "country_iso_code": "MU",
    "timezone": "Indian/Mauritius",
    "latitude": -20.21921,
    "longitude": 57.53388
  },
  {
    "city": "La Gaiété",
    "city_zh": "La Gaiété",
    "country": "Mauritius",
    "country_zh": "模里西斯",
    "country_iso_code": "MU",
    "timezone": "Indian/Mauritius",
    "latitude": -20.21361,
    "longitude": 57.72444
  },
  {
    "city": "Dagotière",
    "city_zh": "Dagotière",
    "country": "Mauritius",
    "country_zh": "模里西斯",
    "country_iso_code": "MU",
    "timezone": "Indian/Mauritius",
    "latitude": -20.24476,
    "longitude": 57.56188
  },
  {
    "city": "La Croisée",
    "city_zh": "La Croisée",
    "country": "Mauritius",
    "country_zh": "模里西斯",
    "country_iso_code": "MU",
    "timezone": "Indian/Mauritius",
    "latitude": -20.31861,
    "longitude": 57.47833
  },
  {
    "city": "La Crete",
    "city_zh": "La Crete",
    "country": "Mauritius",
    "country_zh": "模里西斯",
    "country_iso_code": "MU",
    "timezone": "Indian/Mauritius",
    "latitude": -20.41944,
    "longitude": 57.37944
  },
  {
    "city": "La Cocoterie",
    "city_zh": "La Cocoterie",
    "country": "Mauritius",
    "country_zh": "模里西斯",
    "country_iso_code": "MU",
    "timezone": "Indian/Mauritius",
    "latitude": -20.13161,
    "longitude": 57.50162
  },
  {
    "city": "La Caverne",
    "city_zh": "La Caverne",
    "country": "Mauritius",
    "country_zh": "模里西斯",
    "country_iso_code": "MU",
    "timezone": "Indian/Mauritius",
    "latitude": -20.29389,
    "longitude": 57.47389
  },
  {
    "city": "Labourdonnais",
    "city_zh": "Labourdonnais",
    "country": "Mauritius",
    "country_zh": "模里西斯",
    "country_iso_code": "MU",
    "timezone": "Indian/Mauritius",
    "latitude": -20.06833,
    "longitude": 57.61
  },
  {
    "city": "Labonté",
    "city_zh": "Labonté",
    "country": "Mauritius",
    "country_zh": "模里西斯",
    "country_iso_code": "MU",
    "timezone": "Indian/Mauritius",
    "latitude": -20.43333,
    "longitude": 57.31667
  },
  {
    "city": "La Bergerie",
    "city_zh": "La Bergerie",
    "country": "Mauritius",
    "country_zh": "模里西斯",
    "country_iso_code": "MU",
    "timezone": "Indian/Mauritius",
    "latitude": -20.11333,
    "longitude": 57.52528
  },
  {
    "city": "La Barraque",
    "city_zh": "La Barraque",
    "country": "Mauritius",
    "country_zh": "模里西斯",
    "country_iso_code": "MU",
    "timezone": "Indian/Mauritius",
    "latitude": -20.46694,
    "longitude": 57.61944
  },
  {
    "city": "Joli Bois",
    "city_zh": "Joli Bois",
    "country": "Mauritius",
    "country_zh": "模里西斯",
    "country_iso_code": "MU",
    "timezone": "Indian/Mauritius",
    "latitude": -20.44111,
    "longitude": 57.58
  },
  {
    "city": "Île d’Ambre",
    "city_zh": "Île d’Ambre",
    "country": "Mauritius",
    "country_zh": "模里西斯",
    "country_iso_code": "MU",
    "timezone": "Indian/Mauritius",
    "latitude": -20.07417,
    "longitude": 57.68028
  },
  {
    "city": "Highlands",
    "city_zh": "Highlands",
    "country": "Mauritius",
    "country_zh": "模里西斯",
    "country_iso_code": "MU",
    "timezone": "Indian/Mauritius",
    "latitude": -20.27923,
    "longitude": 57.51802
  },
  {
    "city": "Hervé",
    "city_zh": "Hervé",
    "country": "Mauritius",
    "country_zh": "模里西斯",
    "country_iso_code": "MU",
    "timezone": "Indian/Mauritius",
    "latitude": -20.26667,
    "longitude": 57.6
  },
  {
    "city": "Hermitage",
    "city_zh": "Hermitage",
    "country": "Mauritius",
    "country_zh": "模里西斯",
    "country_iso_code": "MU",
    "timezone": "Indian/Mauritius",
    "latitude": -20.26083,
    "longitude": 57.7025
  },
  {
    "city": "Hermitage",
    "city_zh": "Hermitage",
    "country": "Mauritius",
    "country_zh": "模里西斯",
    "country_iso_code": "MU",
    "timezone": "Indian/Mauritius",
    "latitude": -20.27593,
    "longitude": 57.53913
  },
  {
    "city": "Hermitage",
    "city_zh": "Hermitage",
    "country": "Mauritius",
    "country_zh": "模里西斯",
    "country_iso_code": "MU",
    "timezone": "Indian/Mauritius",
    "latitude": -20.25,
    "longitude": 57.55
  },
  {
    "city": "Henrietta",
    "city_zh": "Henrietta",
    "country": "Mauritius",
    "country_zh": "模里西斯",
    "country_iso_code": "MU",
    "timezone": "Indian/Mauritius",
    "latitude": -20.33556,
    "longitude": 57.46639
  },
  {
    "city": "Helvétia",
    "city_zh": "Helvétia",
    "country": "Mauritius",
    "country_zh": "模里西斯",
    "country_iso_code": "MU",
    "timezone": "Indian/Mauritius",
    "latitude": -20.22217,
    "longitude": 57.5181
  },
  {
    "city": "Haute Rive",
    "city_zh": "Haute Rive",
    "country": "Mauritius",
    "country_zh": "模里西斯",
    "country_iso_code": "MU",
    "timezone": "Indian/Mauritius",
    "latitude": -20.09694,
    "longitude": 57.69806
  },
  {
    "city": "Haut de Flacq",
    "city_zh": "Haut de Flacq",
    "country": "Mauritius",
    "country_zh": "模里西斯",
    "country_iso_code": "MU",
    "timezone": "Indian/Mauritius",
    "latitude": -20.20278,
    "longitude": 57.66806
  },
  {
    "city": "Gros Bois",
    "city_zh": "Gros Bois",
    "country": "Mauritius",
    "country_zh": "模里西斯",
    "country_iso_code": "MU",
    "timezone": "Indian/Mauritius",
    "latitude": -20.43778,
    "longitude": 57.60722
  },
  {
    "city": "Gros Billot",
    "city_zh": "Gros Billot",
    "country": "Mauritius",
    "country_zh": "模里西斯",
    "country_iso_code": "MU",
    "timezone": "Indian/Mauritius",
    "latitude": -20.41639,
    "longitude": 57.60306
  },
  {
    "city": "Grand Sable",
    "city_zh": "Grand Sable",
    "country": "Mauritius",
    "country_zh": "模里西斯",
    "country_iso_code": "MU",
    "timezone": "Indian/Mauritius",
    "latitude": -20.31417,
    "longitude": 57.76444
  },
  {
    "city": "Grand River North West",
    "city_zh": "Grand River North West",
    "country": "Mauritius",
    "country_zh": "模里西斯",
    "country_iso_code": "MU",
    "timezone": "Indian/Mauritius",
    "latitude": -20.17794,
    "longitude": 57.47652
  },
  {
    "city": "Grande Rosalie",
    "city_zh": "Grande Rosalie",
    "country": "Mauritius",
    "country_zh": "模里西斯",
    "country_iso_code": "MU",
    "timezone": "Indian/Mauritius",
    "latitude": -20.13139,
    "longitude": 57.60472
  },
  {
    "city": "Grande Rivière Sud Est",
    "city_zh": "Grande Rivière Sud Est",
    "country": "Mauritius",
    "country_zh": "模里西斯",
    "country_iso_code": "MU",
    "timezone": "Indian/Mauritius",
    "latitude": -20.28611,
    "longitude": 57.77583
  },
  {
    "city": "Grande Retraite",
    "city_zh": "Grande Retraite",
    "country": "Mauritius",
    "country_zh": "模里西斯",
    "country_iso_code": "MU",
    "timezone": "Indian/Mauritius",
    "latitude": -20.16556,
    "longitude": 57.67667
  },
  {
    "city": "Grand Gaube",
    "city_zh": "Grand Gaube",
    "country": "Mauritius",
    "country_zh": "模里西斯",
    "country_iso_code": "MU",
    "timezone": "Indian/Mauritius",
    "latitude": -20.00639,
    "longitude": 57.66083
  },
  {
    "city": "Grande Case Noyale",
    "city_zh": "Grande Case Noyale",
    "country": "Mauritius",
    "country_zh": "模里西斯",
    "country_iso_code": "MU",
    "timezone": "Indian/Mauritius",
    "latitude": -20.41354,
    "longitude": 57.36932
  },
  {
    "city": "Grand Baie",
    "city_zh": "格朗德贝",
    "country": "Mauritius",
    "country_zh": "模里西斯",
    "country_iso_code": "MU",
    "timezone": "Indian/Mauritius",
    "latitude": -20.01816,
    "longitude": 57.58015
  },
  {
    "city": "Grand Bois",
    "city_zh": "Grand Bois",
    "country": "Mauritius",
    "country_zh": "模里西斯",
    "country_iso_code": "MU",
    "timezone": "Indian/Mauritius",
    "latitude": -20.41889,
    "longitude": 57.54417
  },
  {
    "city": "Goodlands",
    "city_zh": "古德兰兹",
    "country": "Mauritius",
    "country_zh": "模里西斯",
    "country_iso_code": "MU",
    "timezone": "Indian/Mauritius",
    "latitude": -20.03841,
    "longitude": 57.65055
  },
  {
    "city": "Gokoola",
    "city_zh": "Gokoola",
    "country": "Mauritius",
    "country_zh": "模里西斯",
    "country_iso_code": "MU",
    "timezone": "Indian/Mauritius",
    "latitude": -20.10417,
    "longitude": 57.64694
  },
  {
    "city": "Forbach",
    "city_zh": "Forbach",
    "country": "Mauritius",
    "country_zh": "模里西斯",
    "country_iso_code": "MU",
    "timezone": "Indian/Mauritius",
    "latitude": -20.06444,
    "longitude": 57.62583
  },
  {
    "city": "Fond du Sac",
    "city_zh": "丰迪萨克",
    "country": "Mauritius",
    "country_zh": "模里西斯",
    "country_iso_code": "MU",
    "timezone": "Indian/Mauritius",
    "latitude": -20.04732,
    "longitude": 57.584
  },
  {
    "city": "Floréal",
    "city_zh": "Floréal",
    "country": "Mauritius",
    "country_zh": "模里西斯",
    "country_iso_code": "MU",
    "timezone": "Indian/Mauritius",
    "latitude": -20.30944,
    "longitude": 57.50083
  },
  {
    "city": "Flic en Flac",
    "city_zh": "Flic en Flac",
    "country": "Mauritius",
    "country_zh": "模里西斯",
    "country_iso_code": "MU",
    "timezone": "Indian/Mauritius",
    "latitude": -20.278,
    "longitude": 57.372
  },
  {
    "city": "Espérance Trébuchet",
    "city_zh": "Espérance Trébuchet",
    "country": "Mauritius",
    "country_zh": "模里西斯",
    "country_iso_code": "MU",
    "timezone": "Indian/Mauritius",
    "latitude": -20.06972,
    "longitude": 57.64194
  },
  {
    "city": "Seizième Mille",
    "city_zh": "Seizième Mille",
    "country": "Mauritius",
    "country_zh": "模里西斯",
    "country_iso_code": "MU",
    "timezone": "Indian/Mauritius",
    "latitude": -20.34294,
    "longitude": 57.54712
  },
  {
    "city": "Eau Bleue",
    "city_zh": "Eau Bleue",
    "country": "Mauritius",
    "country_zh": "模里西斯",
    "country_iso_code": "MU",
    "timezone": "Indian/Mauritius",
    "latitude": -20.37361,
    "longitude": 57.62361
  },
  {
    "city": "Deux Bras",
    "city_zh": "Deux Bras",
    "country": "Mauritius",
    "country_zh": "模里西斯",
    "country_iso_code": "MU",
    "timezone": "Indian/Mauritius",
    "latitude": -20.40139,
    "longitude": 57.63111
  },
  {
    "city": "Deep River",
    "city_zh": "Deep River",
    "country": "Mauritius",
    "country_zh": "模里西斯",
    "country_iso_code": "MU",
    "timezone": "Indian/Mauritius",
    "latitude": -20.27917,
    "longitude": 57.73278
  },
  {
    "city": "Dalais",
    "city_zh": "Dalais",
    "country": "Mauritius",
    "country_zh": "模里西斯",
    "country_iso_code": "MU",
    "timezone": "Indian/Mauritius",
    "latitude": -20.39722,
    "longitude": 57.68528
  },
  {
    "city": "Curepipe",
    "city_zh": "居爾皮普",
    "country": "Mauritius",
    "country_zh": "模里西斯",
    "country_iso_code": "MU",
    "timezone": "Indian/Mauritius",
    "latitude": -20.31628,
    "longitude": 57.52594
  },
  {
    "city": "Crève Coeur",
    "city_zh": "Crève Coeur",
    "country": "Mauritius",
    "country_zh": "模里西斯",
    "country_iso_code": "MU",
    "timezone": "Indian/Mauritius",
    "latitude": -20.19346,
    "longitude": 57.56328
  },
  {
    "city": "Côte d’Or",
    "city_zh": "Côte d’Or",
    "country": "Mauritius",
    "country_zh": "模里西斯",
    "country_iso_code": "MU",
    "timezone": "Indian/Mauritius",
    "latitude": -20.2494,
    "longitude": 57.53556
  },
  {
    "city": "Coteau Raffin",
    "city_zh": "Coteau Raffin",
    "country": "Mauritius",
    "country_zh": "模里西斯",
    "country_iso_code": "MU",
    "timezone": "Indian/Mauritius",
    "latitude": -20.43472,
    "longitude": 57.35447
  },
  {
    "city": "Coquinbourg",
    "city_zh": "Coquinbourg",
    "country": "Mauritius",
    "country_zh": "模里西斯",
    "country_iso_code": "MU",
    "timezone": "Indian/Mauritius",
    "latitude": -20.23778,
    "longitude": 57.63806
  },
  {
    "city": "Constance",
    "city_zh": "Constance",
    "country": "Mauritius",
    "country_zh": "模里西斯",
    "country_iso_code": "MU",
    "timezone": "Indian/Mauritius",
    "latitude": -20.17778,
    "longitude": 57.70861
  },
  {
    "city": "Clémencia",
    "city_zh": "Clémencia",
    "country": "Mauritius",
    "country_zh": "模里西斯",
    "country_iso_code": "MU",
    "timezone": "Indian/Mauritius",
    "latitude": -20.26389,
    "longitude": 57.70611
  },
  {
    "city": "Clarence",
    "city_zh": "Clarence",
    "country": "Mauritius",
    "country_zh": "模里西斯",
    "country_iso_code": "MU",
    "timezone": "Indian/Mauritius",
    "latitude": -20.29778,
    "longitude": 57.3925
  },
  {
    "city": "Circonstance",
    "city_zh": "Circonstance",
    "country": "Mauritius",
    "country_zh": "模里西斯",
    "country_iso_code": "MU",
    "timezone": "Indian/Mauritius",
    "latitude": -20.2224,
    "longitude": 57.54324
  },
  {
    "city": "Choisy",
    "city_zh": "Choisy",
    "country": "Mauritius",
    "country_zh": "模里西斯",
    "country_iso_code": "MU",
    "timezone": "Indian/Mauritius",
    "latitude": -20.47944,
    "longitude": 57.37306
  },
  {
    "city": "Chemin Grenier",
    "city_zh": "舍曼格勒涅",
    "country": "Mauritius",
    "country_zh": "模里西斯",
    "country_iso_code": "MU",
    "timezone": "Indian/Mauritius",
    "latitude": -20.48722,
    "longitude": 57.46556
  },
  {
    "city": "Chébel",
    "city_zh": "Chébel",
    "country": "Mauritius",
    "country_zh": "模里西斯",
    "country_iso_code": "MU",
    "timezone": "Indian/Mauritius",
    "latitude": -20.20295,
    "longitude": 57.45801
  },
  {
    "city": "Chantenay",
    "city_zh": "Chantenay",
    "country": "Mauritius",
    "country_zh": "模里西斯",
    "country_iso_code": "MU",
    "timezone": "Indian/Mauritius",
    "latitude": -20.21713,
    "longitude": 57.52009
  },
  {
    "city": "Chamouny",
    "city_zh": "Chamouny",
    "country": "Mauritius",
    "country_zh": "模里西斯",
    "country_iso_code": "MU",
    "timezone": "Indian/Mauritius",
    "latitude": -20.48222,
    "longitude": 57.46611
  },
  {
    "city": "Chamarel",
    "city_zh": "沙马雷勒",
    "country": "Mauritius",
    "country_zh": "模里西斯",
    "country_iso_code": "MU",
    "timezone": "Indian/Mauritius",
    "latitude": -20.4225,
    "longitude": 57.38389
  },
  {
    "city": "Centre de Flacq",
    "city_zh": "Centre de Flacq",
    "country": "Mauritius",
    "country_zh": "模里西斯",
    "country_iso_code": "MU",
    "timezone": "Indian/Mauritius",
    "latitude": -20.18972,
    "longitude": 57.71444
  },
  {
    "city": "Cent Gaulettes",
    "city_zh": "Cent Gaulettes",
    "country": "Mauritius",
    "country_zh": "模里西斯",
    "country_iso_code": "MU",
    "timezone": "Indian/Mauritius",
    "latitude": -20.37167,
    "longitude": 57.64472
  },
  {
    "city": "Cazela",
    "city_zh": "Cazela",
    "country": "Mauritius",
    "country_zh": "模里西斯",
    "country_iso_code": "MU",
    "timezone": "Indian/Mauritius",
    "latitude": -20.29472,
    "longitude": 57.39472
  },
  {
    "city": "Cassis",
    "city_zh": "Cassis",
    "country": "Mauritius",
    "country_zh": "模里西斯",
    "country_iso_code": "MU",
    "timezone": "Indian/Mauritius",
    "latitude": -20.16499,
    "longitude": 57.48669
  },
  {
    "city": "Cascavelle",
    "city_zh": "Cascavelle",
    "country": "Mauritius",
    "country_zh": "模里西斯",
    "country_iso_code": "MU",
    "timezone": "Indian/Mauritius",
    "latitude": -20.28694,
    "longitude": 57.40722
  },
  {
    "city": "Cap Malheureux",
    "city_zh": "馬勒勒角",
    "country": "Mauritius",
    "country_zh": "模里西斯",
    "country_iso_code": "MU",
    "timezone": "Indian/Mauritius",
    "latitude": -19.98417,
    "longitude": 57.61417
  },
  {
    "city": "Camp Thorel",
    "city_zh": "Camp Thorel",
    "country": "Mauritius",
    "country_zh": "模里西斯",
    "country_iso_code": "MU",
    "timezone": "Indian/Mauritius",
    "latitude": -20.21472,
    "longitude": 57.61611
  },
  {
    "city": "Camp Sonah",
    "city_zh": "Camp Sonah",
    "country": "Mauritius",
    "country_zh": "模里西斯",
    "country_iso_code": "MU",
    "timezone": "Indian/Mauritius",
    "latitude": -20.23333,
    "longitude": 57.66667
  },
  {
    "city": "Camp Malgache",
    "city_zh": "Camp Malgache",
    "country": "Mauritius",
    "country_zh": "模里西斯",
    "country_iso_code": "MU",
    "timezone": "Indian/Mauritius",
    "latitude": -20.33,
    "longitude": 57.40167
  },
  {
    "city": "Camp Fouquereaux",
    "city_zh": "Camp Fouquereaux",
    "country": "Mauritius",
    "country_zh": "模里西斯",
    "country_iso_code": "MU",
    "timezone": "Indian/Mauritius",
    "latitude": -20.28694,
    "longitude": 57.52111
  },
  {
    "city": "Camp Diable",
    "city_zh": "Camp Diable",
    "country": "Mauritius",
    "country_zh": "模里西斯",
    "country_iso_code": "MU",
    "timezone": "Indian/Mauritius",
    "latitude": -20.46278,
    "longitude": 57.57889
  },
  {
    "city": "Camp de Masque",
    "city_zh": "Camp de Masque",
    "country": "Mauritius",
    "country_zh": "模里西斯",
    "country_iso_code": "MU",
    "timezone": "Indian/Mauritius",
    "latitude": -20.236,
    "longitude": 57.676
  },
  {
    "city": "Camp Créole",
    "city_zh": "Camp Créole",
    "country": "Mauritius",
    "country_zh": "模里西斯",
    "country_iso_code": "MU",
    "timezone": "Indian/Mauritius",
    "latitude": -20.13278,
    "longitude": 57.59333
  },
  {
    "city": "Camp Accacia",
    "city_zh": "Camp Accacia",
    "country": "Mauritius",
    "country_zh": "模里西斯",
    "country_iso_code": "MU",
    "timezone": "Indian/Mauritius",
    "latitude": -20.46389,
    "longitude": 57.66111
  },
  {
    "city": "Camp Benoît",
    "city_zh": "Camp Benoît",
    "country": "Mauritius",
    "country_zh": "模里西斯",
    "country_iso_code": "MU",
    "timezone": "Indian/Mauritius",
    "latitude": -20.18451,
    "longitude": 57.46554
  },
  {
    "city": "Cachette",
    "city_zh": "Cachette",
    "country": "Mauritius",
    "country_zh": "模里西斯",
    "country_iso_code": "MU",
    "timezone": "Indian/Mauritius",
    "latitude": -20.42889,
    "longitude": 57.38306
  },
  {
    "city": "Brisée Verdière",
    "city_zh": "Brisée Verdière",
    "country": "Mauritius",
    "country_zh": "模里西斯",
    "country_iso_code": "MU",
    "timezone": "Indian/Mauritius",
    "latitude": -20.16389,
    "longitude": 57.64667
  },
  {
    "city": "Le Bouchon",
    "city_zh": "Le Bouchon",
    "country": "Mauritius",
    "country_zh": "模里西斯",
    "country_iso_code": "MU",
    "timezone": "Indian/Mauritius",
    "latitude": -20.465,
    "longitude": 57.66972
  },
  {
    "city": "Bonne Veine",
    "city_zh": "Bonne Veine",
    "country": "Mauritius",
    "country_zh": "模里西斯",
    "country_iso_code": "MU",
    "timezone": "Indian/Mauritius",
    "latitude": -20.23806,
    "longitude": 57.58778
  },
  {
    "city": "Camp Garreau",
    "city_zh": "Camp Garreau",
    "country": "Mauritius",
    "country_zh": "模里西斯",
    "country_iso_code": "MU",
    "timezone": "Indian/Mauritius",
    "latitude": -20.20056,
    "longitude": 57.71222
  },
  {
    "city": "Bon Espoir",
    "city_zh": "Bon Espoir",
    "country": "Mauritius",
    "country_zh": "模里西斯",
    "country_iso_code": "MU",
    "timezone": "Indian/Mauritius",
    "latitude": -20.08611,
    "longitude": 57.62028
  },
  {
    "city": "Bon Courage",
    "city_zh": "Bon Courage",
    "country": "Mauritius",
    "country_zh": "模里西斯",
    "country_iso_code": "MU",
    "timezone": "Indian/Mauritius",
    "latitude": -20.48361,
    "longitude": 57.4175
  },
  {
    "city": "Bon Air",
    "city_zh": "Bon Air",
    "country": "Mauritius",
    "country_zh": "模里西斯",
    "country_iso_code": "MU",
    "timezone": "Indian/Mauritius",
    "latitude": -20.06194,
    "longitude": 57.56194
  },
  {
    "city": "Bon Accueil",
    "city_zh": "Bon Accueil",
    "country": "Mauritius",
    "country_zh": "模里西斯",
    "country_iso_code": "MU",
    "timezone": "Indian/Mauritius",
    "latitude": -20.175,
    "longitude": 57.672
  },
  {
    "city": "Bois Sec",
    "city_zh": "Bois Sec",
    "country": "Mauritius",
    "country_zh": "模里西斯",
    "country_iso_code": "MU",
    "timezone": "Indian/Mauritius",
    "latitude": -20.44139,
    "longitude": 57.51028
  },
  {
    "city": "Bois Rouge",
    "city_zh": "Bois Rouge",
    "country": "Mauritius",
    "country_zh": "模里西斯",
    "country_iso_code": "MU",
    "timezone": "Indian/Mauritius",
    "latitude": -20.08139,
    "longitude": 57.58306
  },
  {
    "city": "Bois Marchand",
    "city_zh": "Bois Marchand",
    "country": "Mauritius",
    "country_zh": "模里西斯",
    "country_iso_code": "MU",
    "timezone": "Indian/Mauritius",
    "latitude": -20.12333,
    "longitude": 57.53306
  },
  {
    "city": "Bois Mangue",
    "city_zh": "Bois Mangue",
    "country": "Mauritius",
    "country_zh": "模里西斯",
    "country_iso_code": "MU",
    "timezone": "Indian/Mauritius",
    "latitude": -20.06417,
    "longitude": 57.5825
  },
  {
    "city": "Bois d’Oiseaux",
    "city_zh": "Bois d’Oiseaux",
    "country": "Mauritius",
    "country_zh": "模里西斯",
    "country_iso_code": "MU",
    "timezone": "Indian/Mauritius",
    "latitude": -20.41306,
    "longitude": 57.6
  },
  {
    "city": "Bois d’Oiseaux",
    "city_zh": "Bois d’Oiseaux",
    "country": "Mauritius",
    "country_zh": "模里西斯",
    "country_iso_code": "MU",
    "timezone": "Indian/Mauritius",
    "latitude": -20.29778,
    "longitude": 57.735
  },
  {
    "city": "Bois d’Oiseaux",
    "city_zh": "Bois d’Oiseaux",
    "country": "Mauritius",
    "country_zh": "模里西斯",
    "country_iso_code": "MU",
    "timezone": "Indian/Mauritius",
    "latitude": -20.1625,
    "longitude": 57.685
  },
  {
    "city": "Bois des Amourettes",
    "city_zh": "Bois des Amourettes",
    "country": "Mauritius",
    "country_zh": "模里西斯",
    "country_iso_code": "MU",
    "timezone": "Indian/Mauritius",
    "latitude": -20.36306,
    "longitude": 57.73111
  },
  {
    "city": "Bois Chéri",
    "city_zh": "Bois Chéri",
    "country": "Mauritius",
    "country_zh": "模里西斯",
    "country_iso_code": "MU",
    "timezone": "Indian/Mauritius",
    "latitude": -20.41944,
    "longitude": 57.5325
  },
  {
    "city": "Bénarès",
    "city_zh": "Bénarès",
    "country": "Mauritius",
    "country_zh": "模里西斯",
    "country_iso_code": "MU",
    "timezone": "Indian/Mauritius",
    "latitude": -20.49694,
    "longitude": 57.58306
  },
  {
    "city": "Belvédère",
    "city_zh": "Belvédère",
    "country": "Mauritius",
    "country_zh": "模里西斯",
    "country_iso_code": "MU",
    "timezone": "Indian/Mauritius",
    "latitude": -20.19611,
    "longitude": 57.66389
  },
  {
    "city": "Bel Ombre",
    "city_zh": "Bel Ombre",
    "country": "Mauritius",
    "country_zh": "模里西斯",
    "country_iso_code": "MU",
    "timezone": "Indian/Mauritius",
    "latitude": -20.50222,
    "longitude": 57.40611
  },
  {
    "city": "Belmont",
    "city_zh": "Belmont",
    "country": "Mauritius",
    "country_zh": "模里西斯",
    "country_iso_code": "MU",
    "timezone": "Indian/Mauritius",
    "latitude": -20.045,
    "longitude": 57.65861
  },
  {
    "city": "Belle Vue Pilot",
    "city_zh": "Belle Vue Pilot",
    "country": "Mauritius",
    "country_zh": "模里西斯",
    "country_iso_code": "MU",
    "timezone": "Indian/Mauritius",
    "latitude": -20.05486,
    "longitude": 57.58365
  },
  {
    "city": "Belle Vue Harel",
    "city_zh": "Belle Vue Harel",
    "country": "Mauritius",
    "country_zh": "模里西斯",
    "country_iso_code": "MU",
    "timezone": "Indian/Mauritius",
    "latitude": -20.06583,
    "longitude": 57.59417
  },
  {
    "city": "Belle Vue",
    "city_zh": "Belle Vue",
    "country": "Mauritius",
    "country_zh": "模里西斯",
    "country_iso_code": "MU",
    "timezone": "Indian/Mauritius",
    "latitude": -20.36917,
    "longitude": 57.72222
  },
  {
    "city": "Belle Vue",
    "city_zh": "Belle Vue",
    "country": "Mauritius",
    "country_zh": "模里西斯",
    "country_iso_code": "MU",
    "timezone": "Indian/Mauritius",
    "latitude": -20.195,
    "longitude": 57.41167
  },
  {
    "city": "Belle Vue Maurel",
    "city_zh": "Belle Vue Maurel",
    "country": "Mauritius",
    "country_zh": "模里西斯",
    "country_iso_code": "MU",
    "timezone": "Indian/Mauritius",
    "latitude": -20.12028,
    "longitude": 57.66361
  },
  {
    "city": "Belle Rose",
    "city_zh": "Belle Rose",
    "country": "Mauritius",
    "country_zh": "模里西斯",
    "country_iso_code": "MU",
    "timezone": "Indian/Mauritius",
    "latitude": -20.26167,
    "longitude": 57.72639
  },
  {
    "city": "Belle Rose",
    "city_zh": "Belle Rose",
    "country": "Mauritius",
    "country_zh": "模里西斯",
    "country_iso_code": "MU",
    "timezone": "Indian/Mauritius",
    "latitude": -20.215,
    "longitude": 57.51833
  },
  {
    "city": "Belle Rive",
    "city_zh": "Belle Rive",
    "country": "Mauritius",
    "country_zh": "模里西斯",
    "country_iso_code": "MU",
    "timezone": "Indian/Mauritius",
    "latitude": -20.31106,
    "longitude": 57.7274
  },
  {
    "city": "Belle Isle",
    "city_zh": "Belle Isle",
    "country": "Mauritius",
    "country_zh": "模里西斯",
    "country_iso_code": "MU",
    "timezone": "Indian/Mauritius",
    "latitude": -20.25,
    "longitude": 57.38333
  },
  {
    "city": "Bel Étang",
    "city_zh": "Bel Étang",
    "country": "Mauritius",
    "country_zh": "模里西斯",
    "country_iso_code": "MU",
    "timezone": "Indian/Mauritius",
    "latitude": -20.23972,
    "longitude": 57.65639
  },
  {
    "city": "Bel Air",
    "city_zh": "Bel Air",
    "country": "Mauritius",
    "country_zh": "模里西斯",
    "country_iso_code": "MU",
    "timezone": "Indian/Mauritius",
    "latitude": -20.50056,
    "longitude": 57.57056
  },
  {
    "city": "Grand Bel Air",
    "city_zh": "Grand Bel Air",
    "country": "Mauritius",
    "country_zh": "模里西斯",
    "country_iso_code": "MU",
    "timezone": "Indian/Mauritius",
    "latitude": -20.40936,
    "longitude": 57.68011
  },
  {
    "city": "Bel Air Rivière Sèche",
    "city_zh": "贝莱尔",
    "country": "Mauritius",
    "country_zh": "模里西斯",
    "country_iso_code": "MU",
    "timezone": "Indian/Mauritius",
    "latitude": -20.25777,
    "longitude": 57.74976
  },
  {
    "city": "Beau Vallon",
    "city_zh": "Beau Vallon",
    "country": "Mauritius",
    "country_zh": "模里西斯",
    "country_iso_code": "MU",
    "timezone": "Indian/Mauritius",
    "latitude": -20.41889,
    "longitude": 57.69528
  },
  {
    "city": "Beau Vallon",
    "city_zh": "Beau Vallon",
    "country": "Mauritius",
    "country_zh": "模里西斯",
    "country_iso_code": "MU",
    "timezone": "Indian/Mauritius",
    "latitude": -20.35,
    "longitude": 57.68333
  },
  {
    "city": "Beau Site",
    "city_zh": "Beau Site",
    "country": "Mauritius",
    "country_zh": "模里西斯",
    "country_iso_code": "MU",
    "timezone": "Indian/Mauritius",
    "latitude": -20.36778,
    "longitude": 57.66333
  },
  {
    "city": "Beau Séjour",
    "city_zh": "Beau Séjour",
    "country": "Mauritius",
    "country_zh": "模里西斯",
    "country_iso_code": "MU",
    "timezone": "Indian/Mauritius",
    "latitude": -20.09472,
    "longitude": 57.62861
  },
  {
    "city": "Beau Plan",
    "city_zh": "Beau Plan",
    "country": "Mauritius",
    "country_zh": "模里西斯",
    "country_iso_code": "MU",
    "timezone": "Indian/Mauritius",
    "latitude": -20.09417,
    "longitude": 57.56833
  },
  {
    "city": "Beau Manguier",
    "city_zh": "Beau Manguier",
    "country": "Mauritius",
    "country_zh": "模里西斯",
    "country_iso_code": "MU",
    "timezone": "Indian/Mauritius",
    "latitude": -19.98389,
    "longitude": 57.60111
  },
  {
    "city": "Beau Fond",
    "city_zh": "Beau Fond",
    "country": "Mauritius",
    "country_zh": "模里西斯",
    "country_iso_code": "MU",
    "timezone": "Indian/Mauritius",
    "latitude": -20.445,
    "longitude": 57.64333
  },
  {
    "city": "Beau Champ",
    "city_zh": "Beau Champ",
    "country": "Mauritius",
    "country_zh": "模里西斯",
    "country_iso_code": "MU",
    "timezone": "Indian/Mauritius",
    "latitude": -20.49806,
    "longitude": 57.43361
  },
  {
    "city": "Beau Champ",
    "city_zh": "Beau Champ",
    "country": "Mauritius",
    "country_zh": "模里西斯",
    "country_iso_code": "MU",
    "timezone": "Indian/Mauritius",
    "latitude": -20.27139,
    "longitude": 57.76639
  },
  {
    "city": "Beau Bois",
    "city_zh": "Beau Bois",
    "country": "Mauritius",
    "country_zh": "模里西斯",
    "country_iso_code": "MU",
    "timezone": "Indian/Mauritius",
    "latitude": -20.20773,
    "longitude": 57.56612
  },
  {
    "city": "Beau Bassin-Rose Hill",
    "city_zh": "Beau Bassin-Rose Hill",
    "country": "Mauritius",
    "country_zh": "模里西斯",
    "country_iso_code": "MU",
    "timezone": "Indian/Mauritius",
    "latitude": -20.23325,
    "longitude": 57.46609
  },
  {
    "city": "Batimarais",
    "city_zh": "Batimarais",
    "country": "Mauritius",
    "country_zh": "模里西斯",
    "country_iso_code": "MU",
    "timezone": "Indian/Mauritius",
    "latitude": -20.48139,
    "longitude": 57.5675
  },
  {
    "city": "Robinson",
    "city_zh": "Robinson",
    "country": "Mauritius",
    "country_zh": "模里西斯",
    "country_iso_code": "MU",
    "timezone": "Indian/Mauritius",
    "latitude": -20.17289,
    "longitude": 57.56933
  },
  {
    "city": "Bar le Duc",
    "city_zh": "Bar le Duc",
    "country": "Mauritius",
    "country_zh": "模里西斯",
    "country_iso_code": "MU",
    "timezone": "Indian/Mauritius",
    "latitude": -20.23696,
    "longitude": 57.57509
  },
  {
    "city": "Barachois",
    "city_zh": "Barachois",
    "country": "Mauritius",
    "country_zh": "模里西斯",
    "country_iso_code": "MU",
    "timezone": "Indian/Mauritius",
    "latitude": -20.32028,
    "longitude": 57.37306
  },
  {
    "city": "Bambous",
    "city_zh": "邦布",
    "country": "Mauritius",
    "country_zh": "模里西斯",
    "country_iso_code": "MU",
    "timezone": "Indian/Mauritius",
    "latitude": -20.25667,
    "longitude": 57.40611
  },
  {
    "city": "Baie Mannioc",
    "city_zh": "Baie Mannioc",
    "country": "Mauritius",
    "country_zh": "模里西斯",
    "country_iso_code": "MU",
    "timezone": "Indian/Mauritius",
    "latitude": -20.29139,
    "longitude": 57.73
  },
  {
    "city": "Bagatelle",
    "city_zh": "Bagatelle",
    "country": "Mauritius",
    "country_zh": "模里西斯",
    "country_iso_code": "MU",
    "timezone": "Indian/Mauritius",
    "latitude": -20.25545,
    "longitude": 57.52053
  },
  {
    "city": "Bagatelle",
    "city_zh": "Bagatelle",
    "country": "Mauritius",
    "country_zh": "模里西斯",
    "country_iso_code": "MU",
    "timezone": "Indian/Mauritius",
    "latitude": -20.22146,
    "longitude": 57.49383
  },
  {
    "city": "Astroea",
    "city_zh": "Astroea",
    "country": "Mauritius",
    "country_zh": "模里西斯",
    "country_iso_code": "MU",
    "timezone": "Indian/Mauritius",
    "latitude": -20.39083,
    "longitude": 57.62889
  },
  {
    "city": "Argy",
    "city_zh": "Argy",
    "country": "Mauritius",
    "country_zh": "模里西斯",
    "country_iso_code": "MU",
    "timezone": "Indian/Mauritius",
    "latitude": -20.19806,
    "longitude": 57.72944
  },
  {
    "city": "Antoinette",
    "city_zh": "Antoinette",
    "country": "Mauritius",
    "country_zh": "模里西斯",
    "country_iso_code": "MU",
    "timezone": "Indian/Mauritius",
    "latitude": -20.12167,
    "longitude": 57.63417
  },
  {
    "city": "Amitié",
    "city_zh": "Amitié",
    "country": "Mauritius",
    "country_zh": "模里西斯",
    "country_iso_code": "MU",
    "timezone": "Indian/Mauritius",
    "latitude": -20.15,
    "longitude": 57.56667
  },
  {
    "city": "Amitié",
    "city_zh": "Amitié",
    "country": "Mauritius",
    "country_zh": "模里西斯",
    "country_iso_code": "MU",
    "timezone": "Indian/Mauritius",
    "latitude": -20.10944,
    "longitude": 57.66389
  },
  {
    "city": "Alma",
    "city_zh": "Alma",
    "country": "Mauritius",
    "country_zh": "模里西斯",
    "country_iso_code": "MU",
    "timezone": "Indian/Mauritius",
    "latitude": -20.2409,
    "longitude": 57.57458
  },
  {
    "city": "Albion",
    "city_zh": "Albion",
    "country": "Mauritius",
    "country_zh": "模里西斯",
    "country_iso_code": "MU",
    "timezone": "Indian/Mauritius",
    "latitude": -20.20814,
    "longitude": 57.40766
  },
  {
    "city": "Abercrombie",
    "city_zh": "Abercrombie",
    "country": "Mauritius",
    "country_zh": "模里西斯",
    "country_iso_code": "MU",
    "timezone": "Indian/Mauritius",
    "latitude": -20.14929,
    "longitude": 57.52127
  },
  {
    "city": "Laventure",
    "city_zh": "Laventure",
    "country": "Mauritius",
    "country_zh": "模里西斯",
    "country_iso_code": "MU",
    "timezone": "Indian/Mauritius",
    "latitude": -20.14583,
    "longitude": 57.67667
  },
  {
    "city": "Baie du Cap",
    "city_zh": "Baie du Cap",
    "country": "Mauritius",
    "country_zh": "模里西斯",
    "country_iso_code": "MU",
    "timezone": "Indian/Mauritius",
    "latitude": -20.48833,
    "longitude": 57.37056
  },
  {
    "city": "Mon Trésor - Mon Désert",
    "city_zh": "Mon Trésor - Mon Désert",
    "country": "Mauritius",
    "country_zh": "模里西斯",
    "country_iso_code": "MU",
    "timezone": "Indian/Mauritius",
    "latitude": -20.4475,
    "longitude": 57.67167
  },
  {
    "city": "Cluny",
    "city_zh": "Cluny",
    "country": "Mauritius",
    "country_zh": "模里西斯",
    "country_iso_code": "MU",
    "timezone": "Indian/Mauritius",
    "latitude": -20.36694,
    "longitude": 57.60389
  },
  {
    "city": "Providence",
    "city_zh": "Providence",
    "country": "Mauritius",
    "country_zh": "模里西斯",
    "country_iso_code": "MU",
    "timezone": "Indian/Mauritius",
    "latitude": -20.355,
    "longitude": 57.73639
  },
  {
    "city": "Petite Rosalie",
    "city_zh": "Petite Rosalie",
    "country": "Mauritius",
    "country_zh": "模里西斯",
    "country_iso_code": "MU",
    "timezone": "Indian/Mauritius",
    "latitude": -20.12028,
    "longitude": 57.6025
  },
  {
    "city": "Madame Cayeux",
    "city_zh": "Madame Cayeux",
    "country": "Mauritius",
    "country_zh": "模里西斯",
    "country_iso_code": "MU",
    "timezone": "Indian/Mauritius",
    "latitude": -20.11194,
    "longitude": 57.5875
  },
  {
    "city": "Camp des Embrevades",
    "city_zh": "Camp des Embrevades",
    "country": "Mauritius",
    "country_zh": "模里西斯",
    "country_iso_code": "MU",
    "timezone": "Indian/Mauritius",
    "latitude": -20.11472,
    "longitude": 57.57028
  },
  {
    "city": "L’Espérance",
    "city_zh": "L’Espérance",
    "country": "Mauritius",
    "country_zh": "模里西斯",
    "country_iso_code": "MU",
    "timezone": "Indian/Mauritius",
    "latitude": -20.08639,
    "longitude": 57.63556
  },
  {
    "city": "Poudre d’Or Hamlet",
    "city_zh": "Poudre d’Or Hamlet",
    "country": "Mauritius",
    "country_zh": "模里西斯",
    "country_iso_code": "MU",
    "timezone": "Indian/Mauritius",
    "latitude": -20.07694,
    "longitude": 57.64778
  },
  {
    "city": "Cottage",
    "city_zh": "Cottage",
    "country": "Mauritius",
    "country_zh": "模里西斯",
    "country_iso_code": "MU",
    "timezone": "Indian/Mauritius",
    "latitude": -20.05972,
    "longitude": 57.62917
  },
  {
    "city": "Germain",
    "city_zh": "Germain",
    "country": "Mauritius",
    "country_zh": "模里西斯",
    "country_iso_code": "MU",
    "timezone": "Indian/Mauritius",
    "latitude": -20.01583,
    "longitude": 57.66639
  },
  {
    "city": "Madame Azor",
    "city_zh": "Madame Azor",
    "country": "Mauritius",
    "country_zh": "模里西斯",
    "country_iso_code": "MU",
    "timezone": "Indian/Mauritius",
    "latitude": -20.03,
    "longitude": 57.66111
  },
  {
    "city": "Mamzelle Jeanne",
    "city_zh": "Mamzelle Jeanne",
    "country": "Mauritius",
    "country_zh": "模里西斯",
    "country_iso_code": "MU",
    "timezone": "Indian/Mauritius",
    "latitude": -20.03028,
    "longitude": 57.64972
  },
  {
    "city": "Pavillon",
    "city_zh": "Pavillon",
    "country": "Mauritius",
    "country_zh": "模里西斯",
    "country_iso_code": "MU",
    "timezone": "Indian/Mauritius",
    "latitude": -19.98972,
    "longitude": 57.60889
  },
  {
    "city": "Péreybère",
    "city_zh": "Péreybère",
    "country": "Mauritius",
    "country_zh": "模里西斯",
    "country_iso_code": "MU",
    "timezone": "Indian/Mauritius",
    "latitude": -19.99883,
    "longitude": 57.5885
  },
  {
    "city": "Camp Bestel",
    "city_zh": "Camp Bestel",
    "country": "Mauritius",
    "country_zh": "模里西斯",
    "country_iso_code": "MU",
    "timezone": "Indian/Mauritius",
    "latitude": -20.05361,
    "longitude": 57.52139
  },
  {
    "city": "Pointe aux Piments",
    "city_zh": "Pointe aux Piments",
    "country": "Mauritius",
    "country_zh": "模里西斯",
    "country_iso_code": "MU",
    "timezone": "Indian/Mauritius",
    "latitude": -20.06494,
    "longitude": 57.52347
  },
  {
    "city": "Petit Gamin",
    "city_zh": "Petit Gamin",
    "country": "Mauritius",
    "country_zh": "模里西斯",
    "country_iso_code": "MU",
    "timezone": "Indian/Mauritius",
    "latitude": -20.10389,
    "longitude": 57.5175
  },
  {
    "city": "Baie du Tombeau",
    "city_zh": "Baie du Tombeau",
    "country": "Mauritius",
    "country_zh": "模里西斯",
    "country_iso_code": "MU",
    "timezone": "Indian/Mauritius",
    "latitude": -20.11944,
    "longitude": 57.49139
  },
  {
    "city": "Bois Pignolet",
    "city_zh": "Bois Pignolet",
    "country": "Mauritius",
    "country_zh": "模里西斯",
    "country_iso_code": "MU",
    "timezone": "Indian/Mauritius",
    "latitude": -20.13237,
    "longitude": 57.54462
  },
  {
    "city": "Baillache",
    "city_zh": "Baillache",
    "country": "Mauritius",
    "country_zh": "模里西斯",
    "country_iso_code": "MU",
    "timezone": "Indian/Mauritius",
    "latitude": -20.14731,
    "longitude": 57.57139
  },
  {
    "city": "Ruisseau Rose",
    "city_zh": "Ruisseau Rose",
    "country": "Mauritius",
    "country_zh": "模里西斯",
    "country_iso_code": "MU",
    "timezone": "Indian/Mauritius",
    "latitude": -20.15654,
    "longitude": 57.57486
  },
  {
    "city": "Belvédère",
    "city_zh": "Belvédère",
    "country": "Mauritius",
    "country_zh": "模里西斯",
    "country_iso_code": "MU",
    "timezone": "Indian/Mauritius",
    "latitude": -20.14833,
    "longitude": 57.58333
  },
  {
    "city": "Congomah",
    "city_zh": "Congomah",
    "country": "Mauritius",
    "country_zh": "模里西斯",
    "country_iso_code": "MU",
    "timezone": "Indian/Mauritius",
    "latitude": -20.14889,
    "longitude": 57.59083
  },
  {
    "city": "Les Mariannes",
    "city_zh": "Les Mariannes",
    "country": "Mauritius",
    "country_zh": "模里西斯",
    "country_iso_code": "MU",
    "timezone": "Indian/Mauritius",
    "latitude": -20.16417,
    "longitude": 57.58361
  },
  {
    "city": "Îlot",
    "city_zh": "Îlot",
    "country": "Mauritius",
    "country_zh": "模里西斯",
    "country_iso_code": "MU",
    "timezone": "Indian/Mauritius",
    "latitude": -20.13,
    "longitude": 57.5725
  },
  {
    "city": "D’Epinay",
    "city_zh": "D’Epinay",
    "country": "Mauritius",
    "country_zh": "模里西斯",
    "country_iso_code": "MU",
    "timezone": "Indian/Mauritius",
    "latitude": -20.12694,
    "longitude": 57.58917
  },
  {
    "city": "Petite Julie",
    "city_zh": "Petite Julie",
    "country": "Mauritius",
    "country_zh": "模里西斯",
    "country_iso_code": "MU",
    "timezone": "Indian/Mauritius",
    "latitude": -20.13861,
    "longitude": 57.61833
  },
  {
    "city": "Mon Songe",
    "city_zh": "Mon Songe",
    "country": "Mauritius",
    "country_zh": "模里西斯",
    "country_iso_code": "MU",
    "timezone": "Indian/Mauritius",
    "latitude": -20.13611,
    "longitude": 57.63444
  },
  {
    "city": "Barlow",
    "city_zh": "Barlow",
    "country": "Mauritius",
    "country_zh": "模里西斯",
    "country_iso_code": "MU",
    "timezone": "Indian/Mauritius",
    "latitude": -20.12417,
    "longitude": 57.64778
  },
  {
    "city": "Bois Jacot",
    "city_zh": "Bois Jacot",
    "country": "Mauritius",
    "country_zh": "模里西斯",
    "country_iso_code": "MU",
    "timezone": "Indian/Mauritius",
    "latitude": -20.13583,
    "longitude": 57.665
  },
  {
    "city": "Amaury",
    "city_zh": "Amaury",
    "country": "Mauritius",
    "country_zh": "模里西斯",
    "country_iso_code": "MU",
    "timezone": "Indian/Mauritius",
    "latitude": -20.13083,
    "longitude": 57.65917
  },
  {
    "city": "Plaines des Roches",
    "city_zh": "Plaines des Roches",
    "country": "Mauritius",
    "country_zh": "模里西斯",
    "country_iso_code": "MU",
    "timezone": "Indian/Mauritius",
    "latitude": -20.11167,
    "longitude": 57.69083
  },
  {
    "city": "Mare d’Australia",
    "city_zh": "Mare d’Australia",
    "country": "Mauritius",
    "country_zh": "模里西斯",
    "country_iso_code": "MU",
    "timezone": "Indian/Mauritius",
    "latitude": -20.15278,
    "longitude": 57.64056
  },
  {
    "city": "La Clémence",
    "city_zh": "La Clémence",
    "country": "Mauritius",
    "country_zh": "模里西斯",
    "country_iso_code": "MU",
    "timezone": "Indian/Mauritius",
    "latitude": -20.10278,
    "longitude": 57.67639
  },
  {
    "city": "Hermitage",
    "city_zh": "Hermitage",
    "country": "Mauritius",
    "country_zh": "模里西斯",
    "country_iso_code": "MU",
    "timezone": "Indian/Mauritius",
    "latitude": -20.08111,
    "longitude": 57.68472
  },
  {
    "city": "Camp Poorun",
    "city_zh": "Camp Poorun",
    "country": "Mauritius",
    "country_zh": "模里西斯",
    "country_iso_code": "MU",
    "timezone": "Indian/Mauritius",
    "latitude": -20.1675,
    "longitude": 57.72528
  },
  {
    "city": "Providence",
    "city_zh": "Providence",
    "country": "Mauritius",
    "country_zh": "模里西斯",
    "country_iso_code": "MU",
    "timezone": "Indian/Mauritius",
    "latitude": -20.17889,
    "longitude": 57.72806
  },
  {
    "city": "Camp Bouillon",
    "city_zh": "Camp Bouillon",
    "country": "Mauritius",
    "country_zh": "模里西斯",
    "country_iso_code": "MU",
    "timezone": "Indian/Mauritius",
    "latitude": -20.18861,
    "longitude": 57.73222
  },
  {
    "city": "Mare La Chaux",
    "city_zh": "Mare La Chaux",
    "country": "Mauritius",
    "country_zh": "模里西斯",
    "country_iso_code": "MU",
    "timezone": "Indian/Mauritius",
    "latitude": -20.19806,
    "longitude": 57.74944
  },
  {
    "city": "Belle Mare",
    "city_zh": "Belle Mare",
    "country": "Mauritius",
    "country_zh": "模里西斯",
    "country_iso_code": "MU",
    "timezone": "Indian/Mauritius",
    "latitude": -20.19957,
    "longitude": 57.77865
  },
  {
    "city": "Quatre Cocos",
    "city_zh": "Quatre Cocos",
    "country": "Mauritius",
    "country_zh": "模里西斯",
    "country_iso_code": "MU",
    "timezone": "Indian/Mauritius",
    "latitude": -20.20151,
    "longitude": 57.77448
  },
  {
    "city": "Isidore Rose",
    "city_zh": "Isidore Rose",
    "country": "Mauritius",
    "country_zh": "模里西斯",
    "country_iso_code": "MU",
    "timezone": "Indian/Mauritius",
    "latitude": -20.20778,
    "longitude": 57.74806
  },
  {
    "city": "Camp Ithier",
    "city_zh": "Camp Ithier",
    "country": "Mauritius",
    "country_zh": "模里西斯",
    "country_iso_code": "MU",
    "timezone": "Indian/Mauritius",
    "latitude": -20.21583,
    "longitude": 57.74556
  },
  {
    "city": "Bramsthan",
    "city_zh": "Bramsthan",
    "country": "Mauritius",
    "country_zh": "模里西斯",
    "country_iso_code": "MU",
    "timezone": "Indian/Mauritius",
    "latitude": -20.20972,
    "longitude": 57.73056
  },
  {
    "city": "Saint Remy",
    "city_zh": "Saint Remy",
    "country": "Mauritius",
    "country_zh": "模里西斯",
    "country_iso_code": "MU",
    "timezone": "Indian/Mauritius",
    "latitude": -20.18722,
    "longitude": 57.71194
  },
  {
    "city": "Palmar",
    "city_zh": "Palmar",
    "country": "Mauritius",
    "country_zh": "模里西斯",
    "country_iso_code": "MU",
    "timezone": "Indian/Mauritius",
    "latitude": -20.21098,
    "longitude": 57.78985
  },
  {
    "city": "La Commune",
    "city_zh": "La Commune",
    "country": "Mauritius",
    "country_zh": "模里西斯",
    "country_iso_code": "MU",
    "timezone": "Indian/Mauritius",
    "latitude": -20.30833,
    "longitude": 57.72083
  },
  {
    "city": "Camp Bonnemère",
    "city_zh": "Camp Bonnemère",
    "country": "Mauritius",
    "country_zh": "模里西斯",
    "country_iso_code": "MU",
    "timezone": "Indian/Mauritius",
    "latitude": -20.20889,
    "longitude": 57.69611
  },
  {
    "city": "Ecroignard",
    "city_zh": "Ecroignard",
    "country": "Mauritius",
    "country_zh": "模里西斯",
    "country_iso_code": "MU",
    "timezone": "Indian/Mauritius",
    "latitude": -20.22611,
    "longitude": 57.73611
  },
  {
    "city": "Petit Bois",
    "city_zh": "Petit Bois",
    "country": "Mauritius",
    "country_zh": "模里西斯",
    "country_iso_code": "MU",
    "timezone": "Indian/Mauritius",
    "latitude": -20.24139,
    "longitude": 57.755
  },
  {
    "city": "La Caroline",
    "city_zh": "La Caroline",
    "country": "Mauritius",
    "country_zh": "模里西斯",
    "country_iso_code": "MU",
    "timezone": "Indian/Mauritius",
    "latitude": -20.24583,
    "longitude": 57.74667
  },
  {
    "city": "Ernest Florent",
    "city_zh": "Ernest Florent",
    "country": "Mauritius",
    "country_zh": "模里西斯",
    "country_iso_code": "MU",
    "timezone": "Indian/Mauritius",
    "latitude": -20.26417,
    "longitude": 57.75917
  },
  {
    "city": "Marie Jeanne",
    "city_zh": "Marie Jeanne",
    "country": "Mauritius",
    "country_zh": "模里西斯",
    "country_iso_code": "MU",
    "timezone": "Indian/Mauritius",
    "latitude": -20.30389,
    "longitude": 57.76083
  },
  {
    "city": "Pointe aux Feuilles",
    "city_zh": "Pointe aux Feuilles",
    "country": "Mauritius",
    "country_zh": "模里西斯",
    "country_iso_code": "MU",
    "timezone": "Indian/Mauritius",
    "latitude": -20.30583,
    "longitude": 57.77333
  },
  {
    "city": "Deux Frères",
    "city_zh": "Deux Frères",
    "country": "Mauritius",
    "country_zh": "模里西斯",
    "country_iso_code": "MU",
    "timezone": "Indian/Mauritius",
    "latitude": -20.28667,
    "longitude": 57.77111
  },
  {
    "city": "Clavet",
    "city_zh": "Clavet",
    "country": "Mauritius",
    "country_zh": "模里西斯",
    "country_iso_code": "MU",
    "timezone": "Indian/Mauritius",
    "latitude": -20.29861,
    "longitude": 57.69778
  },
  {
    "city": "Pellegrin",
    "city_zh": "Pellegrin",
    "country": "Mauritius",
    "country_zh": "模里西斯",
    "country_iso_code": "MU",
    "timezone": "Indian/Mauritius",
    "latitude": -20.2775,
    "longitude": 57.67917
  },
  {
    "city": "Petite Cabane",
    "city_zh": "Petite Cabane",
    "country": "Mauritius",
    "country_zh": "模里西斯",
    "country_iso_code": "MU",
    "timezone": "Indian/Mauritius",
    "latitude": -20.25194,
    "longitude": 57.66889
  },
  {
    "city": "Camp de Masque Pave",
    "city_zh": "Camp de Masque Pave",
    "country": "Mauritius",
    "country_zh": "模里西斯",
    "country_iso_code": "MU",
    "timezone": "Indian/Mauritius",
    "latitude": -20.25,
    "longitude": 57.683
  },
  {
    "city": "Union Flacq",
    "city_zh": "Union Flacq",
    "country": "Mauritius",
    "country_zh": "模里西斯",
    "country_iso_code": "MU",
    "timezone": "Indian/Mauritius",
    "latitude": -20.20444,
    "longitude": 57.68556
  },
  {
    "city": "Belle Vue Allendy",
    "city_zh": "Belle Vue Allendy",
    "country": "Mauritius",
    "country_zh": "模里西斯",
    "country_iso_code": "MU",
    "timezone": "Indian/Mauritius",
    "latitude": -20.18833,
    "longitude": 57.69861
  },
  {
    "city": "Grand dans Fond",
    "city_zh": "Grand dans Fond",
    "country": "Mauritius",
    "country_zh": "模里西斯",
    "country_iso_code": "MU",
    "timezone": "Indian/Mauritius",
    "latitude": -20.18111,
    "longitude": 57.66667
  },
  {
    "city": "Belvédère",
    "city_zh": "Belvédère",
    "country": "Mauritius",
    "country_zh": "模里西斯",
    "country_iso_code": "MU",
    "timezone": "Indian/Mauritius",
    "latitude": -20.17847,
    "longitude": 57.6596
  },
  {
    "city": "Pointe aux Roches",
    "city_zh": "Pointe aux Roches",
    "country": "Mauritius",
    "country_zh": "模里西斯",
    "country_iso_code": "MU",
    "timezone": "Indian/Mauritius",
    "latitude": -20.32333,
    "longitude": 57.7625
  },
  {
    "city": "Petit Sable",
    "city_zh": "Petit Sable",
    "country": "Mauritius",
    "country_zh": "模里西斯",
    "country_iso_code": "MU",
    "timezone": "Indian/Mauritius",
    "latitude": -20.32861,
    "longitude": 57.76
  },
  {
    "city": "Bambous Virieux",
    "city_zh": "Bambous Virieux",
    "country": "Mauritius",
    "country_zh": "模里西斯",
    "country_iso_code": "MU",
    "timezone": "Indian/Mauritius",
    "latitude": -20.34278,
    "longitude": 57.7575
  },
  {
    "city": "Anse Jonchée",
    "city_zh": "Anse Jonchée",
    "country": "Mauritius",
    "country_zh": "模里西斯",
    "country_iso_code": "MU",
    "timezone": "Indian/Mauritius",
    "latitude": -20.3475,
    "longitude": 57.74528
  },
  {
    "city": "Ferney",
    "city_zh": "Ferney",
    "country": "Mauritius",
    "country_zh": "模里西斯",
    "country_iso_code": "MU",
    "timezone": "Indian/Mauritius",
    "latitude": -20.36808,
    "longitude": 57.69783
  },
  {
    "city": "Le Vallon",
    "city_zh": "Le Vallon",
    "country": "Mauritius",
    "country_zh": "模里西斯",
    "country_iso_code": "MU",
    "timezone": "Indian/Mauritius",
    "latitude": -20.36194,
    "longitude": 57.6825
  },
  {
    "city": "Camp Jardin",
    "city_zh": "Camp Jardin",
    "country": "Mauritius",
    "country_zh": "模里西斯",
    "country_iso_code": "MU",
    "timezone": "Indian/Mauritius",
    "latitude": -20.38806,
    "longitude": 57.65556
  },
  {
    "city": "Petit Bel Air",
    "city_zh": "Petit Bel Air",
    "country": "Mauritius",
    "country_zh": "模里西斯",
    "country_iso_code": "MU",
    "timezone": "Indian/Mauritius",
    "latitude": -20.39986,
    "longitude": 57.69513
  },
  {
    "city": "Ville Noire",
    "city_zh": "Ville Noire",
    "country": "Mauritius",
    "country_zh": "模里西斯",
    "country_iso_code": "MU",
    "timezone": "Indian/Mauritius",
    "latitude": -20.40835,
    "longitude": 57.6962
  },
  {
    "city": "Pointe d’Esny",
    "city_zh": "Pointe d’Esny",
    "country": "Mauritius",
    "country_zh": "模里西斯",
    "country_iso_code": "MU",
    "timezone": "Indian/Mauritius",
    "latitude": -20.43035,
    "longitude": 57.72693
  },
  {
    "city": "Camp Carol",
    "city_zh": "Camp Carol",
    "country": "Mauritius",
    "country_zh": "模里西斯",
    "country_iso_code": "MU",
    "timezone": "Indian/Mauritius",
    "latitude": -20.4575,
    "longitude": 57.67083
  },
  {
    "city": "Trois Boutiques",
    "city_zh": "Trois Boutiques",
    "country": "Mauritius",
    "country_zh": "模里西斯",
    "country_iso_code": "MU",
    "timezone": "Indian/Mauritius",
    "latitude": -20.44889,
    "longitude": 57.64111
  },
  {
    "city": "Plein Bois",
    "city_zh": "Plein Bois",
    "country": "Mauritius",
    "country_zh": "模里西斯",
    "country_iso_code": "MU",
    "timezone": "Indian/Mauritius",
    "latitude": -20.4575,
    "longitude": 57.62111
  },
  {
    "city": "La Sourdine",
    "city_zh": "La Sourdine",
    "country": "Mauritius",
    "country_zh": "模里西斯",
    "country_iso_code": "MU",
    "timezone": "Indian/Mauritius",
    "latitude": -20.47833,
    "longitude": 57.61278
  },
  {
    "city": "Union Park",
    "city_zh": "Union Park",
    "country": "Mauritius",
    "country_zh": "模里西斯",
    "country_iso_code": "MU",
    "timezone": "Indian/Mauritius",
    "latitude": -20.38639,
    "longitude": 57.57361
  },
  {
    "city": "Balisson",
    "city_zh": "Balisson",
    "country": "Mauritius",
    "country_zh": "模里西斯",
    "country_iso_code": "MU",
    "timezone": "Indian/Mauritius",
    "latitude": -20.39278,
    "longitude": 57.58194
  },
  {
    "city": "Marie Jeanie",
    "city_zh": "Marie Jeanie",
    "country": "Mauritius",
    "country_zh": "模里西斯",
    "country_iso_code": "MU",
    "timezone": "Indian/Mauritius",
    "latitude": -20.39611,
    "longitude": 57.58806
  },
  {
    "city": "Bémanique",
    "city_zh": "Bémanique",
    "country": "Mauritius",
    "country_zh": "模里西斯",
    "country_iso_code": "MU",
    "timezone": "Indian/Mauritius",
    "latitude": -20.37278,
    "longitude": 57.58639
  },
  {
    "city": "Mare Chicose",
    "city_zh": "Mare Chicose",
    "country": "Mauritius",
    "country_zh": "模里西斯",
    "country_iso_code": "MU",
    "timezone": "Indian/Mauritius",
    "latitude": -20.37944,
    "longitude": 57.6275
  },
  {
    "city": "Saint Hilaire",
    "city_zh": "Saint Hilaire",
    "country": "Mauritius",
    "country_zh": "模里西斯",
    "country_iso_code": "MU",
    "timezone": "Indian/Mauritius",
    "latitude": -20.37361,
    "longitude": 57.64083
  },
  {
    "city": "Sainte Madeleine",
    "city_zh": "Sainte Madeleine",
    "country": "Mauritius",
    "country_zh": "模里西斯",
    "country_iso_code": "MU",
    "timezone": "Indian/Mauritius",
    "latitude": -20.36056,
    "longitude": 57.63417
  },
  {
    "city": "Britannia",
    "city_zh": "Britannia",
    "country": "Mauritius",
    "country_zh": "模里西斯",
    "country_iso_code": "MU",
    "timezone": "Indian/Mauritius",
    "latitude": -20.45028,
    "longitude": 57.5575
  },
  {
    "city": "Saint Avold",
    "city_zh": "Saint Avold",
    "country": "Mauritius",
    "country_zh": "模里西斯",
    "country_iso_code": "MU",
    "timezone": "Indian/Mauritius",
    "latitude": -20.4375,
    "longitude": 57.55083
  },
  {
    "city": "Camp Berthaud",
    "city_zh": "Camp Berthaud",
    "country": "Mauritius",
    "country_zh": "模里西斯",
    "country_iso_code": "MU",
    "timezone": "Indian/Mauritius",
    "latitude": -20.4425,
    "longitude": 57.55194
  },
  {
    "city": "Senneville",
    "city_zh": "Senneville",
    "country": "Mauritius",
    "country_zh": "模里西斯",
    "country_iso_code": "MU",
    "timezone": "Indian/Mauritius",
    "latitude": -20.50111,
    "longitude": 57.55
  },
  {
    "city": "Beau Bois",
    "city_zh": "Beau Bois",
    "country": "Mauritius",
    "country_zh": "模里西斯",
    "country_iso_code": "MU",
    "timezone": "Indian/Mauritius",
    "latitude": -20.46056,
    "longitude": 57.53694
  },
  {
    "city": "Tyack",
    "city_zh": "Tyack",
    "country": "Mauritius",
    "country_zh": "模里西斯",
    "country_iso_code": "MU",
    "timezone": "Indian/Mauritius",
    "latitude": -20.47611,
    "longitude": 57.55194
  },
  {
    "city": "Terracine",
    "city_zh": "Terracine",
    "country": "Mauritius",
    "country_zh": "模里西斯",
    "country_iso_code": "MU",
    "timezone": "Indian/Mauritius",
    "latitude": -20.50611,
    "longitude": 57.51444
  },
  {
    "city": "Riambel",
    "city_zh": "Riambel",
    "country": "Mauritius",
    "country_zh": "模里西斯",
    "country_iso_code": "MU",
    "timezone": "Indian/Mauritius",
    "latitude": -20.515,
    "longitude": 57.5
  },
  {
    "city": "Pomponnette",
    "city_zh": "Pomponnette",
    "country": "Mauritius",
    "country_zh": "模里西斯",
    "country_iso_code": "MU",
    "timezone": "Indian/Mauritius",
    "latitude": -20.50944,
    "longitude": 57.48028
  },
  {
    "city": "Fontenelle",
    "city_zh": "Fontenelle",
    "country": "Mauritius",
    "country_zh": "模里西斯",
    "country_iso_code": "MU",
    "timezone": "Indian/Mauritius",
    "latitude": -20.49861,
    "longitude": 57.53528
  },
  {
    "city": "Saint Felix",
    "city_zh": "Saint Felix",
    "country": "Mauritius",
    "country_zh": "模里西斯",
    "country_iso_code": "MU",
    "timezone": "Indian/Mauritius",
    "latitude": -20.50167,
    "longitude": 57.46056
  },
  {
    "city": "Valruche",
    "city_zh": "Valruche",
    "country": "Mauritius",
    "country_zh": "模里西斯",
    "country_iso_code": "MU",
    "timezone": "Indian/Mauritius",
    "latitude": -20.45806,
    "longitude": 57.43667
  },
  {
    "city": "Valentina",
    "city_zh": "Valentina",
    "country": "Mauritius",
    "country_zh": "模里西斯",
    "country_iso_code": "MU",
    "timezone": "Indian/Mauritius",
    "latitude": -20.49083,
    "longitude": 57.45833
  },
  {
    "city": "L’Embrasure",
    "city_zh": "L’Embrasure",
    "country": "Mauritius",
    "country_zh": "模里西斯",
    "country_iso_code": "MU",
    "timezone": "Indian/Mauritius",
    "latitude": -20.46417,
    "longitude": 57.33639
  },
  {
    "city": "La Gaulette",
    "city_zh": "La Gaulette",
    "country": "Mauritius",
    "country_zh": "模里西斯",
    "country_iso_code": "MU",
    "timezone": "Indian/Mauritius",
    "latitude": -20.42788,
    "longitude": 57.36082
  },
  {
    "city": "La Flora",
    "city_zh": "La Flora",
    "country": "Mauritius",
    "country_zh": "模里西斯",
    "country_iso_code": "MU",
    "timezone": "Indian/Mauritius",
    "latitude": -20.41028,
    "longitude": 57.55361
  },
  {
    "city": "Bananes",
    "city_zh": "Bananes",
    "country": "Mauritius",
    "country_zh": "模里西斯",
    "country_iso_code": "MU",
    "timezone": "Indian/Mauritius",
    "latitude": -20.34667,
    "longitude": 57.58861
  },
  {
    "city": "Forest Side",
    "city_zh": "Forest Side",
    "country": "Mauritius",
    "country_zh": "模里西斯",
    "country_iso_code": "MU",
    "timezone": "Indian/Mauritius",
    "latitude": -20.32962,
    "longitude": 57.53746
  },
  {
    "city": "Engrais Cathan",
    "city_zh": "Engrais Cathan",
    "country": "Mauritius",
    "country_zh": "模里西斯",
    "country_iso_code": "MU",
    "timezone": "Indian/Mauritius",
    "latitude": -20.29917,
    "longitude": 57.51861
  },
  {
    "city": "Engrais Martial",
    "city_zh": "Engrais Martial",
    "country": "Mauritius",
    "country_zh": "模里西斯",
    "country_iso_code": "MU",
    "timezone": "Indian/Mauritius",
    "latitude": -20.30028,
    "longitude": 57.50944
  },
  {
    "city": "Mesnil",
    "city_zh": "Mesnil",
    "country": "Mauritius",
    "country_zh": "模里西斯",
    "country_iso_code": "MU",
    "timezone": "Indian/Mauritius",
    "latitude": -20.29028,
    "longitude": 57.51167
  },
  {
    "city": "Saint Antoine",
    "city_zh": "Saint Antoine",
    "country": "Mauritius",
    "country_zh": "模里西斯",
    "country_iso_code": "MU",
    "timezone": "Indian/Mauritius",
    "latitude": -20.28139,
    "longitude": 57.52389
  },
  {
    "city": "Belle Terre",
    "city_zh": "Belle Terre",
    "country": "Mauritius",
    "country_zh": "模里西斯",
    "country_iso_code": "MU",
    "timezone": "Indian/Mauritius",
    "latitude": -20.26936,
    "longitude": 57.52776
  },
  {
    "city": "Cinq Arpents",
    "city_zh": "Cinq Arpents",
    "country": "Mauritius",
    "country_zh": "模里西斯",
    "country_iso_code": "MU",
    "timezone": "Indian/Mauritius",
    "latitude": -20.27097,
    "longitude": 57.53089
  },
  {
    "city": "Valentina",
    "city_zh": "Valentina",
    "country": "Mauritius",
    "country_zh": "模里西斯",
    "country_iso_code": "MU",
    "timezone": "Indian/Mauritius",
    "latitude": -20.27122,
    "longitude": 57.5106
  },
  {
    "city": "Petit Camp",
    "city_zh": "Petit Camp",
    "country": "Mauritius",
    "country_zh": "模里西斯",
    "country_iso_code": "MU",
    "timezone": "Indian/Mauritius",
    "latitude": -20.26983,
    "longitude": 57.49755
  },
  {
    "city": "Camp Caval",
    "city_zh": "Camp Caval",
    "country": "Mauritius",
    "country_zh": "模里西斯",
    "country_iso_code": "MU",
    "timezone": "Indian/Mauritius",
    "latitude": -20.32,
    "longitude": 57.50194
  },
  {
    "city": "Camp Mapou",
    "city_zh": "Camp Mapou",
    "country": "Mauritius",
    "country_zh": "模里西斯",
    "country_iso_code": "MU",
    "timezone": "Indian/Mauritius",
    "latitude": -20.33222,
    "longitude": 57.46528
  },
  {
    "city": "Camp La Savanne",
    "city_zh": "Camp La Savanne",
    "country": "Mauritius",
    "country_zh": "模里西斯",
    "country_iso_code": "MU",
    "timezone": "Indian/Mauritius",
    "latitude": -20.325,
    "longitude": 57.46861
  },
  {
    "city": "Camp Roches",
    "city_zh": "Camp Roches",
    "country": "Mauritius",
    "country_zh": "模里西斯",
    "country_iso_code": "MU",
    "timezone": "Indian/Mauritius",
    "latitude": -20.32194,
    "longitude": 57.46778
  },
  {
    "city": "Glen Park",
    "city_zh": "Glen Park",
    "country": "Mauritius",
    "country_zh": "模里西斯",
    "country_iso_code": "MU",
    "timezone": "Indian/Mauritius",
    "latitude": -20.32111,
    "longitude": 57.47833
  },
  {
    "city": "Holyrood",
    "city_zh": "Holyrood",
    "country": "Mauritius",
    "country_zh": "模里西斯",
    "country_iso_code": "MU",
    "timezone": "Indian/Mauritius",
    "latitude": -20.30972,
    "longitude": 57.4675
  },
  {
    "city": "Les Casernes",
    "city_zh": "Les Casernes",
    "country": "Mauritius",
    "country_zh": "模里西斯",
    "country_iso_code": "MU",
    "timezone": "Indian/Mauritius",
    "latitude": -20.32611,
    "longitude": 57.49861
  },
  {
    "city": "Carreau La Liane",
    "city_zh": "Carreau La Liane",
    "country": "Mauritius",
    "country_zh": "模里西斯",
    "country_iso_code": "MU",
    "timezone": "Indian/Mauritius",
    "latitude": -20.28056,
    "longitude": 57.47639
  },
  {
    "city": "La Source",
    "city_zh": "La Source",
    "country": "Mauritius",
    "country_zh": "模里西斯",
    "country_iso_code": "MU",
    "timezone": "Indian/Mauritius",
    "latitude": -20.27109,
    "longitude": 57.46249
  },
  {
    "city": "Stanley",
    "city_zh": "Stanley",
    "country": "Mauritius",
    "country_zh": "模里西斯",
    "country_iso_code": "MU",
    "timezone": "Indian/Mauritius",
    "latitude": -20.25029,
    "longitude": 57.45967
  },