[
  {
    "city": "Zúñiga",
    "city_zh": "Zúñiga",
    "country": "Chile",
    "country_zh": "智利",
    "country_iso_code": "CL",
    "timezone": "America/Santiago",
    "latitude": -34.35537,
    "longitude": -71.09972
  },
  {
    "city": "Zorzal Blanco",
    "city_zh": "Zorzal Blanco",
    "country": "Chile",
    "country_zh": "智利",
    "country_iso_code": "CL",
    "timezone": "America/Santiago",
    "latitude": -36.23608,
    "longitude": -72.5489
  },
  {
    "city": "Zorrilla",
    "city_zh": "Zorrilla",
    "country": "Chile",
    "country_zh": "智利",
    "country_iso_code": "CL",
    "timezone": "America/Santiago",
    "latitude": -30.84032,
    "longitude": -71.51378
  },
  {
    "city": "Zorras",
    "city_zh": "Zorras",
    "country": "Chile",
    "country_zh": "智利",
    "country_iso_code": "CL",
    "timezone": "America/Santiago",
    "latitude": -24.48333,
    "longitude": -68.7
  },
  {
    "city": "Zemita",
    "city_zh": "Zemita",
    "country": "Chile",
    "country_zh": "智利",
    "country_iso_code": "CL",
    "timezone": "America/Santiago",
    "latitude": -30.81758,
    "longitude": -70.79413
  },
  {
    "city": "Zarzal",
    "city_zh": "Zarzal",
    "country": "Chile",
    "country_zh": "智利",
    "country_iso_code": "CL",
    "timezone": "America/Santiago",
    "latitude": -36.8953,
    "longitude": -71.98146
  },
  {
    "city": "Zapiga",
    "city_zh": "Zapiga",
    "country": "Chile",
    "country_zh": "智利",
    "country_iso_code": "CL",
    "timezone": "America/Santiago",
    "latitude": -19.64006,
    "longitude": -69.96392
  },
  {
    "city": "Zapar",
    "city_zh": "Zapar",
    "country": "Chile",
    "country_zh": "智利",
    "country_iso_code": "CL",
    "timezone": "America/Santiago",
    "latitude": -23.12176,
    "longitude": -68.0212
  },
  {
    "city": "Zapallar",
    "city_zh": "Zapallar",
    "country": "Chile",
    "country_zh": "智利",
    "country_iso_code": "CL",
    "timezone": "America/Santiago",
    "latitude": -32.5539,
    "longitude": -71.4577
  },
  {
    "city": "Zapallar",
    "city_zh": "Zapallar",
    "country": "Chile",
    "country_zh": "智利",
    "country_iso_code": "CL",
    "timezone": "America/Santiago",
    "latitude": -31.70313,
    "longitude": -70.75539
  },
  {
    "city": "Zapahuire",
    "city_zh": "Zapahuire",
    "country": "Chile",
    "country_zh": "智利",
    "country_iso_code": "CL",
    "timezone": "America/Santiago",
    "latitude": -18.36667,
    "longitude": -69.45
  },
  {
    "city": "Zapahuira",
    "city_zh": "Zapahuira",
    "country": "Chile",
    "country_zh": "智利",
    "country_iso_code": "CL",
    "timezone": "America/Santiago",
    "latitude": -18.269,
    "longitude": -69.5819
  },
  {
    "city": "Zanjón",
    "city_zh": "Zanjón",
    "country": "Chile",
    "country_zh": "智利",
    "country_iso_code": "CL",
    "timezone": "America/Santiago",
    "latitude": -28.15546,
    "longitude": -70.85061
  },
  {
    "city": "Yutuy",
    "city_zh": "Yutuy",
    "country": "Chile",
    "country_zh": "智利",
    "country_iso_code": "CL",
    "timezone": "America/Santiago",
    "latitude": -42.51844,
    "longitude": -73.75125
  },
  {
    "city": "Yutreco",
    "city_zh": "Yutreco",
    "country": "Chile",
    "country_zh": "智利",
    "country_iso_code": "CL",
    "timezone": "America/Santiago",
    "latitude": -40.54678,
    "longitude": -73.02331
  },
  {
    "city": "Reducción Yupehue",
    "city_zh": "Reducción Yupehue",
    "country": "Chile",
    "country_zh": "智利",
    "country_iso_code": "CL",
    "timezone": "America/Santiago",
    "latitude": -38.55438,
    "longitude": -73.48681
  },
  {
    "city": "Yungay",
    "city_zh": "Yungay",
    "country": "Chile",
    "country_zh": "智利",
    "country_iso_code": "CL",
    "timezone": "America/Santiago",
    "latitude": -37.11977,
    "longitude": -72.01984
  },
  {
    "city": "Yungay",
    "city_zh": "Yungay",
    "country": "Chile",
    "country_zh": "智利",
    "country_iso_code": "CL",
    "timezone": "America/Santiago",
    "latitude": -34.21316,
    "longitude": -70.77202
  },
  {
    "city": "Yumbel",
    "city_zh": "Yumbel",
    "country": "Chile",
    "country_zh": "智利",
    "country_iso_code": "CL",
    "timezone": "America/Santiago",
    "latitude": -37.14446,
    "longitude": -72.53861
  },
  {
    "city": "Yumbel",
    "city_zh": "雲貝爾",
    "country": "Chile",
    "country_zh": "智利",
    "country_iso_code": "CL",
    "timezone": "America/Santiago",
    "latitude": -37.0982,
    "longitude": -72.56084
  },
  {
    "city": "Yumbe",
    "city_zh": "Yumbe",
    "country": "Chile",
    "country_zh": "智利",
    "country_iso_code": "CL",
    "timezone": "America/Santiago",
    "latitude": -30.08102,
    "longitude": -70.60934
  },
  {
    "city": "Yuma",
    "city_zh": "Yuma",
    "country": "Chile",
    "country_zh": "智利",
    "country_iso_code": "CL",
    "timezone": "America/Santiago",
    "latitude": -21.03333,
    "longitude": -68.5
  },
  {
    "city": "Yolanda Norte",
    "city_zh": "Yolanda Norte",
    "country": "Chile",
    "country_zh": "智利",
    "country_iso_code": "CL",
    "timezone": "America/Santiago",
    "latitude": -24.91667,
    "longitude": -70.11667
  },
  {
    "city": "Yerbas Buenas",
    "city_zh": "Yerbas Buenas",
    "country": "Chile",
    "country_zh": "智利",
    "country_iso_code": "CL",
    "timezone": "America/Santiago",
    "latitude": -35.74816,
    "longitude": -71.5853
  },
  {
    "city": "Yerbas Buenas",
    "city_zh": "Yerbas Buenas",
    "country": "Chile",
    "country_zh": "智利",
    "country_iso_code": "CL",
    "timezone": "America/Santiago",
    "latitude": -34.41234,
    "longitude": -71.64751
  },
  {
    "city": "Yerbas Buenas",
    "city_zh": "Yerbas Buenas",
    "country": "Chile",
    "country_zh": "智利",
    "country_iso_code": "CL",
    "timezone": "America/Santiago",
    "latitude": -29.57454,
    "longitude": -71.29969
  },
  {
    "city": "Yerbas Buenas",
    "city_zh": "Yerbas Buenas",
    "country": "Chile",
    "country_zh": "智利",
    "country_iso_code": "CL",
    "timezone": "America/Santiago",
    "latitude": -28.13878,
    "longitude": -70.83884
  },
  {
    "city": "Yerba Buena",
    "city_zh": "Yerba Buena",
    "country": "Chile",
    "country_zh": "智利",
    "country_iso_code": "CL",
    "timezone": "America/Santiago",
    "latitude": -28.05312,
    "longitude": -70.2454
  },
  {
    "city": "Estancia Yendegai",
    "city_zh": "Estancia Yendegai",
    "country": "Chile",
    "country_zh": "智利",
    "country_iso_code": "CL",
    "timezone": "America/Santiago",
    "latitude": -54.85728,
    "longitude": -68.82203
  },
  {
    "city": "El Yeco",
    "city_zh": "El Yeco",
    "country": "Chile",
    "country_zh": "智利",
    "country_iso_code": "CL",
    "timezone": "America/Santiago",
    "latitude": -33.30901,
    "longitude": -71.64689
  },
  {
    "city": "Yáquil",
    "city_zh": "Yáquil",
    "country": "Chile",
    "country_zh": "智利",
    "country_iso_code": "CL",
    "timezone": "America/Santiago",
    "latitude": -34.62141,
    "longitude": -71.17143
  },
  {
    "city": "Yaldad",
    "city_zh": "Yaldad",
    "country": "Chile",
    "country_zh": "智利",
    "country_iso_code": "CL",
    "timezone": "America/Santiago",
    "latitude": -43.11144,
    "longitude": -73.70654
  },
  {
    "city": "Yalañusco",
    "city_zh": "Yalañusco",
    "country": "Chile",
    "country_zh": "智利",
    "country_iso_code": "CL",
    "timezone": "America/Santiago",
    "latitude": -19.3738,
    "longitude": -69.55183
  },
  {
    "city": "Yalamanta",
    "city_zh": "Yalamanta",
    "country": "Chile",
    "country_zh": "智利",
    "country_iso_code": "CL",
    "timezone": "America/Santiago",
    "latitude": -19.39062,
    "longitude": -69.57991
  },
  {
    "city": "Yal",
    "city_zh": "Yal",
    "country": "Chile",
    "country_zh": "智利",
    "country_iso_code": "CL",
    "timezone": "America/Santiago",
    "latitude": -42.66667,
    "longitude": -73.71667
  },
  {
    "city": "Voipire",
    "city_zh": "Voipire",
    "country": "Chile",
    "country_zh": "智利",
    "country_iso_code": "CL",
    "timezone": "America/Santiago",
    "latitude": -39.33326,
    "longitude": -72.26576
  },
  {
    "city": "Voipire",
    "city_zh": "Voipire",
    "country": "Chile",
    "country_zh": "智利",
    "country_iso_code": "CL",
    "timezone": "America/Santiago",
    "latitude": -39.30399,
    "longitude": -72.25861
  },
  {
    "city": "Voigue",
    "city_zh": "Voigue",
    "country": "Chile",
    "country_zh": "智利",
    "country_iso_code": "CL",
    "timezone": "America/Santiago",
    "latitude": -42.30077,
    "longitude": -73.21906
  },
  {
    "city": "Vizcachitas",
    "city_zh": "Vizcachitas",
    "country": "Chile",
    "country_zh": "智利",
    "country_iso_code": "CL",
    "timezone": "America/Santiago",
    "latitude": -28.84375,
    "longitude": -70.76013
  },
  {
    "city": "Vitacura",
    "city_zh": "維塔庫拉",
    "country": "Chile",
    "country_zh": "智利",
    "country_iso_code": "CL",
    "timezone": "America/Santiago",
    "latitude": -33.39227,
    "longitude": -70.58275
  },
  {
    "city": "Visviri",
    "city_zh": "Visviri",
    "country": "Chile",
    "country_zh": "智利",
    "country_iso_code": "CL",
    "timezone": "America/Santiago",
    "latitude": -17.59495,
    "longitude": -69.4809
  },
  {
    "city": "Vista Hermosa",
    "city_zh": "Vista Hermosa",
    "country": "Chile",
    "country_zh": "智利",
    "country_iso_code": "CL",
    "timezone": "America/Santiago",
    "latitude": -34.9111,
    "longitude": -71.16131
  },
  {
    "city": "Vista Bella",
    "city_zh": "Vista Bella",
    "country": "Chile",
    "country_zh": "智利",
    "country_iso_code": "CL",
    "timezone": "America/Santiago",
    "latitude": -36.62649,
    "longitude": -72.29937
  },
  {
    "city": "Vista Alegre",
    "city_zh": "Vista Alegre",
    "country": "Chile",
    "country_zh": "智利",
    "country_iso_code": "CL",
    "timezone": "America/Santiago",
    "latitude": -39.67793,
    "longitude": -72.72089
  },
  {
    "city": "Visalla",
    "city_zh": "Visalla",
    "country": "Chile",
    "country_zh": "智利",
    "country_iso_code": "CL",
    "timezone": "America/Santiago",
    "latitude": -18.51667,
    "longitude": -69.03333
  },
  {
    "city": "Vinara",
    "city_zh": "Vinara",
    "country": "Chile",
    "country_zh": "智利",
    "country_iso_code": "CL",
    "timezone": "America/Santiago",
    "latitude": -19.40479,
    "longitude": -68.51891
  },
  {
    "city": "Viña Guzmán",
    "city_zh": "Viña Guzmán",
    "country": "Chile",
    "country_zh": "智利",
    "country_iso_code": "CL",
    "timezone": "America/Santiago",
    "latitude": -32.86393,
    "longitude": -71.10751
  },
  {
    "city": "Viña del Mar",
    "city_zh": "比尼亚德尔马",
    "country": "Chile",
    "country_zh": "智利",
    "country_iso_code": "CL",
    "timezone": "America/Santiago",
    "latitude": -33.02457,
    "longitude": -71.55183
  },
  {
    "city": "Viluyo",
    "city_zh": "Viluyo",
    "country": "Chile",
    "country_zh": "智利",
    "country_iso_code": "CL",
    "timezone": "America/Santiago",
    "latitude": -17.81194,
    "longitude": -69.68894
  },
  {
    "city": "Vilupulli",
    "city_zh": "Vilupulli",
    "country": "Chile",
    "country_zh": "智利",
    "country_iso_code": "CL",
    "timezone": "America/Santiago",
    "latitude": -42.60574,
    "longitude": -73.79082
  },
  {
    "city": "Vilullo",
    "city_zh": "Vilullo",
    "country": "Chile",
    "country_zh": "智利",
    "country_iso_code": "CL",
    "timezone": "America/Santiago",
    "latitude": -19.30862,
    "longitude": -68.71696
  },
  {
    "city": "Viluco",
    "city_zh": "Viluco",
    "country": "Chile",
    "country_zh": "智利",
    "country_iso_code": "CL",
    "timezone": "America/Santiago",
    "latitude": -34.89492,
    "longitude": -71.16255
  },
  {
    "city": "Viluco",
    "city_zh": "Viluco",
    "country": "Chile",
    "country_zh": "智利",
    "country_iso_code": "CL",
    "timezone": "America/Santiago",
    "latitude": -34.286,
    "longitude": -71.62335
  },
  {
    "city": "Viluco",
    "city_zh": "Viluco",
    "country": "Chile",
    "country_zh": "智利",
    "country_iso_code": "CL",
    "timezone": "America/Santiago",
    "latitude": -33.77825,
    "longitude": -70.79527
  },
  {
    "city": "Vilquico",
    "city_zh": "Vilquico",
    "country": "Chile",
    "country_zh": "智利",
    "country_iso_code": "CL",
    "timezone": "America/Santiago",
    "latitude": -36.24972,
    "longitude": -72.26648
  },
  {
    "city": "Villucura",
    "city_zh": "Villucura",
    "country": "Chile",
    "country_zh": "智利",
    "country_iso_code": "CL",
    "timezone": "America/Santiago",
    "latitude": -38.11091,
    "longitude": -71.41903
  },
  {
    "city": "Villita Arriba",
    "city_zh": "Villita Arriba",
    "country": "Chile",
    "country_zh": "智利",
    "country_iso_code": "CL",
    "timezone": "America/Santiago",
    "latitude": -33.76857,
    "longitude": -70.87996
  },
  {
    "city": "Villa Tacora",
    "city_zh": "Villa Tacora",
    "country": "Chile",
    "country_zh": "智利",
    "country_iso_code": "CL",
    "timezone": "America/Santiago",
    "latitude": -17.77625,
    "longitude": -69.73451
  },
  {
    "city": "Villaseca",
    "city_zh": "Villaseca",
    "country": "Chile",
    "country_zh": "智利",
    "country_iso_code": "CL",
    "timezone": "America/Santiago",
    "latitude": -35.86268,
    "longitude": -71.83808
  },
  {
    "city": "Villaseca",
    "city_zh": "Villaseca",
    "country": "Chile",
    "country_zh": "智利",
    "country_iso_code": "CL",
    "timezone": "America/Santiago",
    "latitude": -30.56685,
    "longitude": -71.14928
  },
  {
    "city": "Villarrica",
    "city_zh": "比亞里卡",
    "country": "Chile",
    "country_zh": "智利",
    "country_iso_code": "CL",
    "timezone": "America/Santiago",
    "latitude": -39.28569,
    "longitude": -72.2279
  },
  {
    "city": "Villa Prat",
    "city_zh": "Villa Prat",
    "country": "Chile",
    "country_zh": "智利",
    "country_iso_code": "CL",
    "timezone": "America/Santiago",
    "latitude": -35.09751,
    "longitude": -71.61465
  },
  {
    "city": "Villa Paulina",
    "city_zh": "Villa Paulina",
    "country": "Chile",
    "country_zh": "智利",
    "country_iso_code": "CL",
    "timezone": "America/Santiago",
    "latitude": -33.26817,
    "longitude": -70.29675
  },
  {
    "city": "Villa Industrial",
    "city_zh": "Villa Industrial",
    "country": "Chile",
    "country_zh": "智利",
    "country_iso_code": "CL",
    "timezone": "America/Santiago",
    "latitude": -17.78318,
    "longitude": -69.70731
  },
  {
    "city": "Villa del Cóbil",
    "city_zh": "Villa del Cóbil",
    "country": "Chile",
    "country_zh": "智利",
    "country_iso_code": "CL",
    "timezone": "America/Santiago",
    "latitude": -34.39584,
    "longitude": -70.87895
  },
  {
    "city": "Villa de las Hojas",
    "city_zh": "Villa de las Hojas",
    "country": "Chile",
    "country_zh": "智利",
    "country_iso_code": "CL",
    "timezone": "America/Santiago",
    "latitude": -34.3896,
    "longitude": -70.87149
  },
  {
    "city": "Catemu",
    "city_zh": "Catemu",
    "country": "Chile",
    "country_zh": "智利",
    "country_iso_code": "CL",
    "timezone": "America/Santiago",
    "latitude": -32.77721,
    "longitude": -70.96653
  },
  {
    "city": "Villa de Cartagena",
    "city_zh": "Villa de Cartagena",
    "country": "Chile",
    "country_zh": "智利",
    "country_iso_code": "CL",
    "timezone": "America/Santiago",
    "latitude": -34.19317,
    "longitude": -71.79995
  },
  {
    "city": "Villa Blanca",
    "city_zh": "Villa Blanca",
    "country": "Chile",
    "country_zh": "智利",
    "country_iso_code": "CL",
    "timezone": "America/Santiago",
    "latitude": -19.59364,
    "longitude": -68.64957
  },
  {
    "city": "Villa Alhué",
    "city_zh": "Villa Alhué",
    "country": "Chile",
    "country_zh": "智利",
    "country_iso_code": "CL",
    "timezone": "America/Santiago",
    "latitude": -34.03268,
    "longitude": -71.10033
  },
  {
    "city": "Villa Alemana",
    "city_zh": "阿萊馬納鎮",
    "country": "Chile",
    "country_zh": "智利",
    "country_iso_code": "CL",
    "timezone": "America/Santiago",
    "latitude": -33.04823,
    "longitude": -71.3729
  },
  {
    "city": "Villa Alegre",
    "city_zh": "Villa Alegre",
    "country": "Chile",
    "country_zh": "智利",
    "country_iso_code": "CL",
    "timezone": "America/Santiago",
    "latitude": -38.24106,
    "longitude": -72.31248
  },
  {
    "city": "Villa Alegre",
    "city_zh": "Villa Alegre",
    "country": "Chile",
    "country_zh": "智利",
    "country_iso_code": "CL",
    "timezone": "America/Santiago",
    "latitude": -35.67296,
    "longitude": -71.7443
  },
  {
    "city": "Villa Alegre",
    "city_zh": "Villa Alegre",
    "country": "Chile",
    "country_zh": "智利",
    "country_iso_code": "CL",
    "timezone": "America/Santiago",
    "latitude": -34.60692,
    "longitude": -71.07993
  },
  {
    "city": "Villa Alegre",
    "city_zh": "Villa Alegre",
    "country": "Chile",
    "country_zh": "智利",
    "country_iso_code": "CL",
    "timezone": "America/Santiago",
    "latitude": -32.85773,
    "longitude": -70.6618
  },
  {
    "city": "Villa Alegre",
    "city_zh": "Villa Alegre",
    "country": "Chile",
    "country_zh": "智利",
    "country_iso_code": "CL",
    "timezone": "America/Santiago",
    "latitude": -37.42371,
    "longitude": -73.4401
  },
  {
    "city": "Villa Alegre",
    "city_zh": "Villa Alegre",
    "country": "Chile",
    "country_zh": "智利",
    "country_iso_code": "CL",
    "timezone": "America/Santiago",
    "latitude": -34.31137,
    "longitude": -71.13704
  },
  {
    "city": "Vilcún",
    "city_zh": "Vilcún",
    "country": "Chile",
    "country_zh": "智利",
    "country_iso_code": "CL",
    "timezone": "America/Santiago",
    "latitude": -42.83833,
    "longitude": -72.81992
  },
  {
    "city": "Vilcún",
    "city_zh": "Vilcún",
    "country": "Chile",
    "country_zh": "智利",
    "country_iso_code": "CL",
    "timezone": "America/Santiago",
    "latitude": -42.07756,
    "longitude": -73.78243
  },
  {
    "city": "Vilcún",
    "city_zh": "Vilcún",
    "country": "Chile",
    "country_zh": "智利",
    "country_iso_code": "CL",
    "timezone": "America/Santiago",
    "latitude": -38.66875,
    "longitude": -72.22565
  },
  {
    "city": "Vilches",
    "city_zh": "Vilches",
    "country": "Chile",
    "country_zh": "智利",
    "country_iso_code": "CL",
    "timezone": "America/Santiago",
    "latitude": -35.56388,
    "longitude": -71.17493
  },
  {
    "city": "Vilavila",
    "city_zh": "Vilavila",
    "country": "Chile",
    "country_zh": "智利",
    "country_iso_code": "CL",
    "timezone": "America/Santiago",
    "latitude": -19.29031,
    "longitude": -69.37697
  },
  {
    "city": "Vilacollo",
    "city_zh": "Vilacollo",
    "country": "Chile",
    "country_zh": "智利",
    "country_iso_code": "CL",
    "timezone": "America/Santiago",
    "latitude": -19.38814,
    "longitude": -68.54365
  },
  {
    "city": "Vicuña",
    "city_zh": "Vicuña",
    "country": "Chile",
    "country_zh": "智利",
    "country_iso_code": "CL",
    "timezone": "America/Santiago",
    "latitude": -30.03541,
    "longitude": -70.71274
  },
  {
    "city": "Victoria",
    "city_zh": "維多利亞",
    "country": "Chile",
    "country_zh": "智利",
    "country_iso_code": "CL",
    "timezone": "America/Santiago",
    "latitude": -38.23291,
    "longitude": -72.33292
  },
  {
    "city": "Vichuquencito",
    "city_zh": "Vichuquencito",
    "country": "Chile",
    "country_zh": "智利",
    "country_iso_code": "CL",
    "timezone": "America/Santiago",
    "latitude": -34.68268,
    "longitude": -71.7322
  },
  {
    "city": "Vichuquén",
    "city_zh": "Vichuquén",
    "country": "Chile",
    "country_zh": "智利",
    "country_iso_code": "CL",
    "timezone": "America/Santiago",
    "latitude": -34.88333,
    "longitude": -71.99236
  },
  {
    "city": "Vergara",
    "city_zh": "Vergara",
    "country": "Chile",
    "country_zh": "智利",
    "country_iso_code": "CL",
    "timezone": "America/Santiago",
    "latitude": -30.19159,
    "longitude": -71.03146
  },
  {
    "city": "Las Ventanas",
    "city_zh": "Las Ventanas",
    "country": "Chile",
    "country_zh": "智利",
    "country_iso_code": "CL",
    "timezone": "America/Santiago",
    "latitude": -32.74585,
    "longitude": -71.48079
  },
  {
    "city": "Ventanas",
    "city_zh": "Ventanas",
    "country": "Chile",
    "country_zh": "智利",
    "country_iso_code": "CL",
    "timezone": "America/Santiago",
    "latitude": -28.52664,
    "longitude": -70.86993
  },
  {
    "city": "Ventana del Bajo",
    "city_zh": "Ventana del Bajo",
    "country": "Chile",
    "country_zh": "智利",
    "country_iso_code": "CL",
    "timezone": "America/Santiago",
    "latitude": -34.91788,
    "longitude": -71.07111
  },
  {
    "city": "Vegas de Itata",
    "city_zh": "Vegas de Itata",
    "country": "Chile",
    "country_zh": "智利",
    "country_iso_code": "CL",
    "timezone": "America/Santiago",
    "latitude": -36.40156,
    "longitude": -72.85062
  },
  {
    "city": "Vásquez",
    "city_zh": "Vásquez",
    "country": "Chile",
    "country_zh": "智利",
    "country_iso_code": "CL",
    "timezone": "America/Santiago",
    "latitude": -40.21955,
    "longitude": -72.16197
  },
  {
    "city": "Varrillar",
    "city_zh": "Varrillar",
    "country": "Chile",
    "country_zh": "智利",
    "country_iso_code": "CL",
    "timezone": "America/Santiago",
    "latitude": -30.73956,
    "longitude": -70.75607
  },
  {
    "city": "Varillar",
    "city_zh": "Varillar",
    "country": "Chile",
    "country_zh": "智利",
    "country_iso_code": "CL",
    "timezone": "America/Santiago",
    "latitude": -29.9488,
    "longitude": -70.53457
  },
  {
    "city": "Vara Gruesa",
    "city_zh": "Vara Gruesa",
    "country": "Chile",
    "country_zh": "智利",
    "country_iso_code": "CL",
    "timezone": "America/Santiago",
    "latitude": -35.83268,
    "longitude": -71.52463
  },
  {
    "city": "Vaquería",
    "city_zh": "Vaquería",
    "country": "Chile",
    "country_zh": "智利",
    "country_iso_code": "CL",
    "timezone": "America/Santiago",
    "latitude": -35.2,
    "longitude": -72.31667
  },
  {
    "city": "Vaquería",
    "city_zh": "Vaquería",
    "country": "Chile",
    "country_zh": "智利",
    "country_iso_code": "CL",
    "timezone": "America/Santiago",
    "latitude": -35.19237,
    "longitude": -72.24971
  },
  {
    "city": "Valparaíso",
    "city_zh": "瓦尔帕莱索",
    "country": "Chile",
    "country_zh": "智利",
    "country_iso_code": "CL",
    "timezone": "America/Santiago",
    "latitude": -33.036,
    "longitude": -71.62963
  },
  {
    "city": "Valle Negro",
    "city_zh": "Valle Negro",
    "country": "Chile",
    "country_zh": "智利",
    "country_iso_code": "CL",
    "timezone": "America/Santiago",
    "latitude": -34.1,
    "longitude": -71.86667
  },
  {
    "city": "Vallenar",
    "city_zh": "Vallenar",
    "country": "Chile",
    "country_zh": "智利",
    "country_iso_code": "CL",
    "timezone": "America/Santiago",
    "latitude": -28.57617,
    "longitude": -70.75938
  },
  {
    "city": "Valle Hermoso",
    "city_zh": "Valle Hermoso",
    "country": "Chile",
    "country_zh": "智利",
    "country_iso_code": "CL",
    "timezone": "America/Santiago",
    "latitude": -32.45,
    "longitude": -71.2
  },
  {
    "city": "Valle Hermoso",
    "city_zh": "Valle Hermoso",
    "country": "Chile",
    "country_zh": "智利",
    "country_iso_code": "CL",
    "timezone": "America/Santiago",
    "latitude": -32.40765,
    "longitude": -71.20797
  },
  {
    "city": "Valle Fértil",
    "city_zh": "Valle Fértil",
    "country": "Chile",
    "country_zh": "智利",
    "country_iso_code": "CL",
    "timezone": "America/Santiago",
    "latitude": -27.36007,
    "longitude": -70.62902
  },
  {
    "city": "Valle Alegre",
    "city_zh": "Valle Alegre",
    "country": "Chile",
    "country_zh": "智利",
    "country_iso_code": "CL",
    "timezone": "America/Santiago",
    "latitude": -32.81667,
    "longitude": -70.63333
  },
  {
    "city": "Valle Alegre",
    "city_zh": "Valle Alegre",
    "country": "Chile",
    "country_zh": "智利",
    "country_iso_code": "CL",
    "timezone": "America/Santiago",
    "latitude": -32.80867,
    "longitude": -71.43287
  },
  {
    "city": "Valdivia de Paine",
    "city_zh": "Valdivia de Paine",
    "country": "Chile",
    "country_zh": "智利",
    "country_iso_code": "CL",
    "timezone": "America/Santiago",
    "latitude": -33.80806,
    "longitude": -70.85797
  },
  {
    "city": "Lo Valdivia",
    "city_zh": "Lo Valdivia",
    "country": "Chile",
    "country_zh": "智利",
    "country_iso_code": "CL",
    "timezone": "America/Santiago",
    "latitude": -34.99248,
    "longitude": -71.33703
  },
  {
    "city": "Valdivia",
    "city_zh": "瓦尔迪维亚",
    "country": "Chile",
    "country_zh": "智利",
    "country_iso_code": "CL",
    "timezone": "America/Santiago",
    "latitude": -39.81422,
    "longitude": -73.24589
  },
  {
    "city": "Valdivia",
    "city_zh": "Valdivia",
    "country": "Chile",
    "country_zh": "智利",
    "country_iso_code": "CL",
    "timezone": "America/Santiago",
    "latitude": -35.2,
    "longitude": -72.26667
  },
  {
    "city": "Valdivia",
    "city_zh": "Valdivia",
    "country": "Chile",
    "country_zh": "智利",
    "country_iso_code": "CL",
    "timezone": "America/Santiago",
    "latitude": -30.75194,
    "longitude": -70.67582
  },
  {
    "city": "Vado Hondo",
    "city_zh": "Vado Hondo",
    "country": "Chile",
    "country_zh": "智利",
    "country_iso_code": "CL",
    "timezone": "America/Santiago",
    "latitude": -30.91132,
    "longitude": -70.78068
  },
  {
    "city": "Vaca Muerta",
    "city_zh": "Vaca Muerta",
    "country": "Chile",
    "country_zh": "智利",
    "country_iso_code": "CL",
    "timezone": "America/Santiago",
    "latitude": -30.99272,
    "longitude": -71.09171
  },
  {
    "city": "Uva Blanca",
    "city_zh": "Uva Blanca",
    "country": "Chile",
    "country_zh": "智利",
    "country_iso_code": "CL",
    "timezone": "America/Santiago",
    "latitude": -34.38122,
    "longitude": -71.02837
  },
  {
    "city": "Usmagama",
    "city_zh": "Usmagama",
    "country": "Chile",
    "country_zh": "智利",
    "country_iso_code": "CL",
    "timezone": "America/Santiago",
    "latitude": -19.74302,
    "longitude": -69.21981
  },
  {
    "city": "Usiga Chico",
    "city_zh": "Usiga Chico",
    "country": "Chile",
    "country_zh": "智利",
    "country_iso_code": "CL",
    "timezone": "America/Santiago",
    "latitude": -19.3167,
    "longitude": -68.62132
  },
  {
    "city": "Usiga",
    "city_zh": "Usiga",
    "country": "Chile",
    "country_zh": "智利",
    "country_iso_code": "CL",
    "timezone": "America/Santiago",
    "latitude": -19.32991,
    "longitude": -68.61387
  },
  {
    "city": "Uscana",
    "city_zh": "Uscana",
    "country": "Chile",
    "country_zh": "智利",
    "country_iso_code": "CL",
    "timezone": "America/Santiago",
    "latitude": -19.28333,
    "longitude": -68.95
  },
  {
    "city": "Upeo",
    "city_zh": "Upeo",
    "country": "Chile",
    "country_zh": "智利",
    "country_iso_code": "CL",
    "timezone": "America/Santiago",
    "latitude": -35.12487,
    "longitude": -71.03855
  },
  {
    "city": "Unihue",
    "city_zh": "Unihue",
    "country": "Chile",
    "country_zh": "智利",
    "country_iso_code": "CL",
    "timezone": "America/Santiago",
    "latitude": -37.1166,
    "longitude": -72.94281
  },
  {
    "city": "Unicavén",
    "city_zh": "Unicavén",
    "country": "Chile",
    "country_zh": "智利",
    "country_iso_code": "CL",
    "timezone": "America/Santiago",
    "latitude": -36.07876,
    "longitude": -72.01642
  },
  {
    "city": "Uncaliri",
    "city_zh": "Uncaliri",
    "country": "Chile",
    "country_zh": "智利",
    "country_iso_code": "CL",
    "timezone": "America/Santiago",
    "latitude": -18.55914,
    "longitude": -69.11294
  },
  {
    "city": "Uncaliri Grande",
    "city_zh": "Uncaliri Grande",
    "country": "Chile",
    "country_zh": "智利",
    "country_iso_code": "CL",
    "timezone": "America/Santiago",
    "latitude": -18.00652,
    "longitude": -69.26481
  },
  {
    "city": "Uncaliri Chico",
    "city_zh": "Uncaliri Chico",
    "country": "Chile",
    "country_zh": "智利",
    "country_iso_code": "CL",
    "timezone": "America/Santiago",
    "latitude": -18.00798,
    "longitude": -69.26154
  },
  {
    "city": "Uncaliri",
    "city_zh": "Uncaliri",
    "country": "Chile",
    "country_zh": "智利",
    "country_iso_code": "CL",
    "timezone": "America/Santiago",
    "latitude": -18.5,
    "longitude": -69.1
  },
  {
    "city": "Umirpa",
    "city_zh": "Umirpa",
    "country": "Chile",
    "country_zh": "智利",
    "country_iso_code": "CL",
    "timezone": "America/Santiago",
    "latitude": -18.792,
    "longitude": -69.33867
  },
  {
    "city": "Umiña",
    "city_zh": "Umiña",
    "country": "Chile",
    "country_zh": "智利",
    "country_iso_code": "CL",
    "timezone": "America/Santiago",
    "latitude": -19.50031,
    "longitude": -68.71536
  },
  {
    "city": "Umaquilca",
    "city_zh": "Umaquilca",
    "country": "Chile",
    "country_zh": "智利",
    "country_iso_code": "CL",
    "timezone": "America/Santiago",
    "latitude": -17.74281,
    "longitude": -69.38606
  },
  {
    "city": "Umagata",
    "city_zh": "Umagata",
    "country": "Chile",
    "country_zh": "智利",
    "country_iso_code": "CL",
    "timezone": "America/Santiago",
    "latitude": -18.57029,
    "longitude": -69.77843
  },
  {
    "city": "Ullumalla",
    "city_zh": "Ullumalla",
    "country": "Chile",
    "country_zh": "智利",
    "country_iso_code": "CL",
    "timezone": "America/Santiago",
    "latitude": -19.5,
    "longitude": -69.03333
  },
  {
    "city": "Ujina",
    "city_zh": "Ujina",
    "country": "Chile",
    "country_zh": "智利",
    "country_iso_code": "CL",
    "timezone": "America/Santiago",
    "latitude": -20.96996,
    "longitude": -68.62115
  },
  {
    "city": "Ucúquer",
    "city_zh": "Ucúquer",
    "country": "Chile",
    "country_zh": "智利",
    "country_iso_code": "CL",
    "timezone": "America/Santiago",
    "latitude": -34.01433,
    "longitude": -71.672
  },
  {
    "city": "Tutuquén Alto",
    "city_zh": "Tutuquén Alto",
    "country": "Chile",
    "country_zh": "智利",
    "country_iso_code": "CL",
    "timezone": "America/Santiago",
    "latitude": -34.96015,
    "longitude": -71.28975
  },
  {
    "city": "Turquía",
    "city_zh": "Turquía",
    "country": "Chile",
    "country_zh": "智利",
    "country_iso_code": "CL",
    "timezone": "America/Santiago",
    "latitude": -37.21665,
    "longitude": -72.64025
  },
  {
    "city": "Turiza",
    "city_zh": "Turiza",
    "country": "Chile",
    "country_zh": "智利",
    "country_iso_code": "CL",
    "timezone": "America/Santiago",
    "latitude": -19.43353,
    "longitude": -69.83534
  },
  {
    "city": "Turicapur",
    "city_zh": "Turicapur",
    "country": "Chile",
    "country_zh": "智利",
    "country_iso_code": "CL",
    "timezone": "America/Santiago",
    "latitude": -22.57438,
    "longitude": -68.23338
  },
  {
    "city": "Turi",
    "city_zh": "Turi",
    "country": "Chile",
    "country_zh": "智利",
    "country_iso_code": "CL",
    "timezone": "America/Santiago",
    "latitude": -22.25031,
    "longitude": -68.30833
  },
  {
    "city": "Tuquí",
    "city_zh": "Tuquí",
    "country": "Chile",
    "country_zh": "智利",
    "country_iso_code": "CL",
    "timezone": "America/Santiago",
    "latitude": -30.56507,
    "longitude": -71.1691
  },
  {
    "city": "Tunquén",
    "city_zh": "Tunquén",
    "country": "Chile",
    "country_zh": "智利",
    "country_iso_code": "CL",
    "timezone": "America/Santiago",
    "latitude": -33.26513,
    "longitude": -71.64612
  },
  {
    "city": "Tuniche",
    "city_zh": "Tuniche",
    "country": "Chile",
    "country_zh": "智利",
    "country_iso_code": "CL",
    "timezone": "America/Santiago",
    "latitude": -34.09417,
    "longitude": -70.74406
  },
  {
    "city": "Tunga de Petorca",
    "city_zh": "Tunga de Petorca",
    "country": "Chile",
    "country_zh": "智利",
    "country_iso_code": "CL",
    "timezone": "America/Santiago",
    "latitude": -31.61154,
    "longitude": -71.41768
  },
  {
    "city": "Tunga Norte",
    "city_zh": "Tunga Norte",
    "country": "Chile",
    "country_zh": "智利",
    "country_iso_code": "CL",
    "timezone": "America/Santiago",
    "latitude": -31.62715,
    "longitude": -71.3658
  },
  {
    "city": "Túnel del Árbol",
    "city_zh": "Túnel del Árbol",
    "country": "Chile",
    "country_zh": "智利",
    "country_iso_code": "CL",
    "timezone": "America/Santiago",
    "latitude": -34.44178,
    "longitude": -71.81638
  },
  {
    "city": "Tunca Arriba",
    "city_zh": "Tunca Arriba",
    "country": "Chile",
    "country_zh": "智利",
    "country_iso_code": "CL",
    "timezone": "America/Santiago",
    "latitude": -34.3797,
    "longitude": -71.08342
  },
  {
    "city": "Tunca Abajo",
    "city_zh": "Tunca Abajo",
    "country": "Chile",
    "country_zh": "智利",
    "country_iso_code": "CL",
    "timezone": "America/Santiago",
    "latitude": -34.41706,
    "longitude": -71.10933
  },
  {
    "city": "Tunca",
    "city_zh": "Tunca",
    "country": "Chile",
    "country_zh": "智利",
    "country_iso_code": "CL",
    "timezone": "America/Santiago",
    "latitude": -34.39543,
    "longitude": -71.10367
  },
  {
    "city": "Tuna",
    "city_zh": "Tuna",
    "country": "Chile",
    "country_zh": "智利",
    "country_iso_code": "CL",
    "timezone": "America/Santiago",
    "latitude": -20.90686,
    "longitude": -69.07866
  },
  {
    "city": "Tumán",
    "city_zh": "Tumán",
    "country": "Chile",
    "country_zh": "智利",
    "country_iso_code": "CL",
    "timezone": "America/Santiago",
    "latitude": -34.0586,
    "longitude": -71.90963
  },
  {
    "city": "Tulor",
    "city_zh": "Tulor",
    "country": "Chile",
    "country_zh": "智利",
    "country_iso_code": "CL",
    "timezone": "America/Santiago",
    "latitude": -22.9768,
    "longitude": -68.24234
  },
  {
    "city": "Tulduni",
    "city_zh": "Tulduni",
    "country": "Chile",
    "country_zh": "智利",
    "country_iso_code": "CL",
    "timezone": "America/Santiago",
    "latitude": -18.21096,
    "longitude": -69.27497
  },
  {
    "city": "Tulahuén",
    "city_zh": "Tulahuén",
    "country": "Chile",
    "country_zh": "智利",
    "country_iso_code": "CL",
    "timezone": "America/Santiago",
    "latitude": -30.96484,
    "longitude": -70.76835
  },
  {
    "city": "Tucapel",
    "city_zh": "Tucapel",
    "country": "Chile",
    "country_zh": "智利",
    "country_iso_code": "CL",
    "timezone": "America/Santiago",
    "latitude": -37.64699,
    "longitude": -73.34472
  },
  {
    "city": "Tucapel",
    "city_zh": "圖卡佩爾",
    "country": "Chile",
    "country_zh": "智利",
    "country_iso_code": "CL",
    "timezone": "America/Santiago",
    "latitude": -37.29079,
    "longitude": -71.94929
  },
  {
    "city": "Tucapel",
    "city_zh": "Tucapel",
    "country": "Chile",
    "country_zh": "智利",
    "country_iso_code": "CL",
    "timezone": "America/Santiago",
    "latitude": -36.77709,
    "longitude": -73.02065
  },
  {
    "city": "Trupán",
    "city_zh": "Trupán",
    "country": "Chile",
    "country_zh": "智利",
    "country_iso_code": "CL",
    "timezone": "America/Santiago",
    "latitude": -37.27597,
    "longitude": -71.83578
  },
  {
    "city": "Trumao",
    "city_zh": "Trumao",
    "country": "Chile",
    "country_zh": "智利",
    "country_iso_code": "CL",
    "timezone": "America/Santiago",
    "latitude": -40.36073,
    "longitude": -73.16967
  },
  {
    "city": "Troyo",
    "city_zh": "Troyo",
    "country": "Chile",
    "country_zh": "智利",
    "country_iso_code": "CL",
    "timezone": "America/Santiago",
    "latitude": -38.25997,
    "longitude": -71.29787
  },
  {
    "city": "Troya",
    "city_zh": "Troya",
    "country": "Chile",
    "country_zh": "智利",
    "country_iso_code": "CL",
    "timezone": "America/Santiago",
    "latitude": -36.21387,
    "longitude": -72.30227
  },
  {
    "city": "Trovolhue",
    "city_zh": "Trovolhue",
    "country": "Chile",
    "country_zh": "智利",
    "country_iso_code": "CL",
    "timezone": "America/Santiago",
    "latitude": -38.63161,
    "longitude": -73.31944
  },
  {
    "city": "Tromen",
    "city_zh": "Tromen",
    "country": "Chile",
    "country_zh": "智利",
    "country_iso_code": "CL",
    "timezone": "America/Santiago",
    "latitude": -38.68917,
    "longitude": -72.76576
  },
  {
    "city": "Trogualemo",
    "city_zh": "Trogualemo",
    "country": "Chile",
    "country_zh": "智利",
    "country_iso_code": "CL",
    "timezone": "America/Santiago",
    "latitude": -35.98535,
    "longitude": -72.72247
  },
  {
    "city": "Trintre",
    "city_zh": "Trintre",
    "country": "Chile",
    "country_zh": "智利",
    "country_iso_code": "CL",
    "timezone": "America/Santiago",
    "latitude": -37.9204,
    "longitude": -72.76777
  },
  {
    "city": "Trinidad",
    "city_zh": "Trinidad",
    "country": "Chile",
    "country_zh": "智利",
    "country_iso_code": "CL",
    "timezone": "America/Santiago",
    "latitude": -34.37731,
    "longitude": -71.5652
  },
  {
    "city": "Trincao",
    "city_zh": "Trincao",
    "country": "Chile",
    "country_zh": "智利",
    "country_iso_code": "CL",
    "timezone": "America/Santiago",
    "latitude": -43.13955,
    "longitude": -73.70112
  },
  {
    "city": "Trilaleo",
    "city_zh": "Trilaleo",
    "country": "Chile",
    "country_zh": "智利",
    "country_iso_code": "CL",
    "timezone": "America/Santiago",
    "latitude": -36.88604,
    "longitude": -71.95282
  },
  {
    "city": "Trigo Blanco",
    "city_zh": "Trigo Blanco",
    "country": "Chile",
    "country_zh": "智利",
    "country_iso_code": "CL",
    "timezone": "America/Santiago",
    "latitude": -29.7376,
    "longitude": -71.31995
  },
  {
    "city": "Tricauco",
    "city_zh": "Tricauco",
    "country": "Chile",
    "country_zh": "智利",
    "country_iso_code": "CL",
    "timezone": "America/Santiago",
    "latitude": -38.28762,
    "longitude": -72.54803
  },
  {
    "city": "Tricao",
    "city_zh": "Tricao",
    "country": "Chile",
    "country_zh": "智利",
    "country_iso_code": "CL",
    "timezone": "America/Santiago",
    "latitude": -36.81647,
    "longitude": -72.0242
  },
  {
    "city": "Tricao",
    "city_zh": "Tricao",
    "country": "Chile",
    "country_zh": "智利",
    "country_iso_code": "CL",
    "timezone": "America/Santiago",
    "latitude": -34.95403,
    "longitude": -71.40381
  },
  {
    "city": "Tres Redes",
    "city_zh": "Tres Redes",
    "country": "Chile",
    "country_zh": "智利",
    "country_iso_code": "CL",
    "timezone": "America/Santiago",
    "latitude": -42.63333,
    "longitude": -73.3
  },
  {
    "city": "Tres Puntas",
    "city_zh": "Tres Puntas",
    "country": "Chile",
    "country_zh": "智利",
    "country_iso_code": "CL",
    "timezone": "America/Santiago",
    "latitude": -22.15,
    "longitude": -70.21667
  },
  {
    "city": "Tres Puentes",
    "city_zh": "Tres Puentes",
    "country": "Chile",
    "country_zh": "智利",
    "country_iso_code": "CL",
    "timezone": "America/Santiago",
    "latitude": -53.08338,
    "longitude": -70.93176
  },
  {
    "city": "Tres Puentes",
    "city_zh": "Tres Puentes",
    "country": "Chile",
    "country_zh": "智利",
    "country_iso_code": "CL",
    "timezone": "America/Santiago",
    "latitude": -34.65152,
    "longitude": -70.93896
  },
  {
    "city": "Tres Puentes",
    "city_zh": "Tres Puentes",
    "country": "Chile",
    "country_zh": "智利",
    "country_iso_code": "CL",
    "timezone": "America/Santiago",
    "latitude": -27.80138,
    "longitude": -70.14332
  },
  {
    "city": "Tres Pinos",
    "city_zh": "Tres Pinos",
    "country": "Chile",
    "country_zh": "智利",
    "country_iso_code": "CL",
    "timezone": "America/Santiago",
    "latitude": -37.62836,
    "longitude": -73.40826
  },
  {
    "city": "Tres Esquinas",
    "city_zh": "Tres Esquinas",
    "country": "Chile",
    "country_zh": "智利",
    "country_iso_code": "CL",
    "timezone": "America/Santiago",
    "latitude": -38.31013,
    "longitude": -72.03493
  },
  {
    "city": "Tres Esquinas",
    "city_zh": "Tres Esquinas",
    "country": "Chile",
    "country_zh": "智利",
    "country_iso_code": "CL",
    "timezone": "America/Santiago",
    "latitude": -36.46505,
    "longitude": -71.77117
  },
  {
    "city": "Tres Esquinas",
    "city_zh": "Tres Esquinas",
    "country": "Chile",
    "country_zh": "智利",
    "country_iso_code": "CL",
    "timezone": "America/Santiago",
    "latitude": -35.6,
    "longitude": -71.43333
  },
  {
    "city": "Tres Cruces",
    "city_zh": "Tres Cruces",
    "country": "Chile",
    "country_zh": "智利",
    "country_iso_code": "CL",
    "timezone": "America/Santiago",
    "latitude": -29.37523,
    "longitude": -70.93428
  },
  {
    "city": "Treguaco",
    "city_zh": "Treguaco",
    "country": "Chile",
    "country_zh": "智利",
    "country_iso_code": "CL",
    "timezone": "America/Santiago",
    "latitude": -36.4324,
    "longitude": -72.6697
  },
  {
    "city": "Trapiche",
    "city_zh": "Trapiche",
    "country": "Chile",
    "country_zh": "智利",
    "country_iso_code": "CL",
    "timezone": "America/Santiago",
    "latitude": -35.29379,
    "longitude": -72.05792
  },
  {
    "city": "Trapiche",
    "city_zh": "Trapiche",
    "country": "Chile",
    "country_zh": "智利",
    "country_iso_code": "CL",
    "timezone": "America/Santiago",
    "latitude": -34.96792,
    "longitude": -71.37892
  },
  {
    "city": "Trapiche",
    "city_zh": "Trapiche",
    "country": "Chile",
    "country_zh": "智利",
    "country_iso_code": "CL",
    "timezone": "America/Santiago",
    "latitude": -30.62665,
    "longitude": -71.33128
  },
  {
    "city": "Trape",
    "city_zh": "Trape",
    "country": "Chile",
    "country_zh": "智利",
    "country_iso_code": "CL",
    "timezone": "America/Santiago",
    "latitude": -39.48318,
    "longitude": -72.17059
  },
  {
    "city": "Trapatrapa",
    "city_zh": "Trapatrapa",
    "country": "Chile",
    "country_zh": "智利",
    "country_iso_code": "CL",
    "timezone": "America/Santiago",
    "latitude": -37.72675,
    "longitude": -71.22946
  },
  {
    "city": "Tranquilla",
    "city_zh": "Tranquilla",
    "country": "Chile",
    "country_zh": "智利",
    "country_iso_code": "CL",
    "timezone": "America/Santiago",
    "latitude": -31.90076,
    "longitude": -70.66729
  },
  {
    "city": "Tranqui",
    "city_zh": "Tranqui",
    "country": "Chile",
    "country_zh": "智利",
    "country_iso_code": "CL",
    "timezone": "America/Santiago",
    "latitude": -42.9173,
    "longitude": -73.52449
  },
  {
    "city": "Tranque Lautaro",
    "city_zh": "Tranque Lautaro",
    "country": "Chile",
    "country_zh": "智利",
    "country_iso_code": "CL",
    "timezone": "America/Santiago",
    "latitude": -27.97751,
    "longitude": -70.02749
  },
  {
    "city": "Trancura",
    "city_zh": "Trancura",
    "country": "Chile",
    "country_zh": "智利",
    "country_iso_code": "CL",
    "timezone": "America/Santiago",
    "latitude": -39.4967,
    "longitude": -71.54808
  },
  {
    "city": "Trancas",
    "city_zh": "Trancas",
    "country": "Chile",
    "country_zh": "智利",
    "country_iso_code": "CL",
    "timezone": "America/Santiago",
    "latitude": -29.40763,
    "longitude": -70.29291
  },
  {
    "city": "Tranamán",
    "city_zh": "Tranamán",
    "country": "Chile",
    "country_zh": "智利",
    "country_iso_code": "CL",
    "timezone": "America/Santiago",
    "latitude": -38.26667,
    "longitude": -72.98333
  },
  {
    "city": "Reducción Traitraico",
    "city_zh": "Reducción Traitraico",
    "country": "Chile",
    "country_zh": "智利",
    "country_iso_code": "CL",
    "timezone": "America/Santiago",
    "latitude": -39.54155,
    "longitude": -72.04138
  },
  {
    "city": "Traitraico",
    "city_zh": "Traitraico",
    "country": "Chile",
    "country_zh": "智利",
    "country_iso_code": "CL",
    "timezone": "America/Santiago",
    "latitude": -39.03904,
    "longitude": -72.4789
  },
  {
    "city": "Traiguén",
    "city_zh": "Traiguén",
    "country": "Chile",
    "country_zh": "智利",
    "country_iso_code": "CL",
    "timezone": "America/Santiago",
    "latitude": -42.55,
    "longitude": -73.41667
  },
  {
    "city": "Traiguén",
    "city_zh": "Traiguén",
    "country": "Chile",
    "country_zh": "智利",
    "country_iso_code": "CL",
    "timezone": "America/Santiago",
    "latitude": -41.91048,
    "longitude": -73.97537
  },
  {
    "city": "Traiguén",
    "city_zh": "特賴根",
    "country": "Chile",
    "country_zh": "智利",
    "country_iso_code": "CL",
    "timezone": "America/Santiago",
    "latitude": -38.2496,
    "longitude": -72.67027
  },
  {
    "city": "Tracalpulli",
    "city_zh": "Tracalpulli",
    "country": "Chile",
    "country_zh": "智利",
    "country_iso_code": "CL",
    "timezone": "America/Santiago",
    "latitude": -39.57642,
    "longitude": -72.17526
  },
  {
    "city": "Trabunco",
    "city_zh": "Trabunco",
    "country": "Chile",
    "country_zh": "智利",
    "country_iso_code": "CL",
    "timezone": "America/Santiago",
    "latitude": -38.63333,
    "longitude": -72.61667
  },
  {
    "city": "Totoralillo",
    "city_zh": "Totoralillo",
    "country": "Chile",
    "country_zh": "智利",
    "country_iso_code": "CL",
    "timezone": "America/Santiago",
    "latitude": -32.02466,
    "longitude": -71.50529
  },
  {
    "city": "Totoralillo",
    "city_zh": "Totoralillo",
    "country": "Chile",
    "country_zh": "智利",
    "country_iso_code": "CL",
    "timezone": "America/Santiago",
    "latitude": -30.06325,
    "longitude": -71.36753
  },
  {
    "city": "Totoralillo",
    "city_zh": "Totoralillo",
    "country": "Chile",
    "country_zh": "智利",
    "country_iso_code": "CL",
    "timezone": "America/Santiago",
    "latitude": -29.515,
    "longitude": -71.30028
  },
  {
    "city": "Totoral",
    "city_zh": "Totoral",
    "country": "Chile",
    "country_zh": "智利",
    "country_iso_code": "CL",
    "timezone": "America/Santiago",
    "latitude": -41.21749,
    "longitude": -73.05666
  },
  {
    "city": "Totoral",
    "city_zh": "Totoral",
    "country": "Chile",
    "country_zh": "智利",
    "country_iso_code": "CL",
    "timezone": "America/Santiago",
    "latitude": -29.23333,
    "longitude": -71.4
  },
  {
    "city": "Totoral",
    "city_zh": "Totoral",
    "country": "Chile",
    "country_zh": "智利",
    "country_iso_code": "CL",
    "timezone": "America/Santiago",
    "latitude": -27.90212,
    "longitude": -70.9571
  },
  {
    "city": "Totoral",
    "city_zh": "Totoral",
    "country": "Chile",
    "country_zh": "智利",
    "country_iso_code": "CL",
    "timezone": "America/Santiago",
    "latitude": -36.11939,
    "longitude": -72.32673
  },
  {
    "city": "Totora",
    "city_zh": "Totora",
    "country": "Chile",
    "country_zh": "智利",
    "country_iso_code": "CL",
    "timezone": "America/Santiago",
    "latitude": -28.6,
    "longitude": -71.1
  },
  {
    "city": "Totora",
    "city_zh": "Totora",
    "country": "Chile",
    "country_zh": "智利",
    "country_iso_code": "CL",
    "timezone": "America/Santiago",
    "latitude": -28.58834,
    "longitude": -71.0769
  },
  {
    "city": "Totihue",
    "city_zh": "Totihue",
    "country": "Chile",
    "country_zh": "智利",
    "country_iso_code": "CL",
    "timezone": "America/Santiago",
    "latitude": -34.33293,
    "longitude": -70.79649
  },
  {
    "city": "Caleta Tortel",
    "city_zh": "Caleta Tortel",
    "country": "Chile",
    "country_zh": "智利",
    "country_iso_code": "CL",
    "timezone": "America/Coyhaique",
    "latitude": -47.79874,
    "longitude": -73.5363
  },
  {
    "city": "Tortel",
    "city_zh": "Tortel",
    "country": "Chile",
    "country_zh": "智利",
    "country_iso_code": "CL",
    "timezone": "America/Coyhaique",
    "latitude": -47.80098,
    "longitude": -73.53678
  },
  {
    "city": "Torrecilla",
    "city_zh": "Torrecilla",
    "country": "Chile",
    "country_zh": "智利",
    "country_iso_code": "CL",
    "timezone": "America/Santiago",
    "latitude": -36.34242,
    "longitude": -72.33156
  },
  {
    "city": "Toro",
    "city_zh": "Toro",
    "country": "Chile",
    "country_zh": "智利",
    "country_iso_code": "CL",
    "timezone": "America/Santiago",
    "latitude": -25.20782,
    "longitude": -69.84363
  },
  {
    "city": "Toquihua Arriba",
    "city_zh": "Toquihua Arriba",
    "country": "Chile",
    "country_zh": "智利",
    "country_iso_code": "CL",
    "timezone": "America/Santiago",
    "latitude": -34.38292,
    "longitude": -71.12372
  },
  {
    "city": "Topocalma",
    "city_zh": "Topocalma",
    "country": "Chile",
    "country_zh": "智利",
    "country_iso_code": "CL",
    "timezone": "America/Santiago",
    "latitude": -34.10405,
    "longitude": -71.92763
  },
  {
    "city": "Topain",
    "city_zh": "Topain",
    "country": "Chile",
    "country_zh": "智利",
    "country_iso_code": "CL",
    "timezone": "America/Santiago",
    "latitude": -22.15937,
    "longitude": -68.32494
  },
  {
    "city": "Tongoy",
    "city_zh": "Tongoy",
    "country": "Chile",
    "country_zh": "智利",
    "country_iso_code": "CL",
    "timezone": "America/Santiago",
    "latitude": -30.25474,
    "longitude": -71.49892
  },
  {
    "city": "Tongoicillo",
    "city_zh": "Tongoicillo",
    "country": "Chile",
    "country_zh": "智利",
    "country_iso_code": "CL",
    "timezone": "America/Santiago",
    "latitude": -30.17811,
    "longitude": -71.30581
  },
  {
    "city": "Tomeco",
    "city_zh": "Tomeco",
    "country": "Chile",
    "country_zh": "智利",
    "country_iso_code": "CL",
    "timezone": "America/Santiago",
    "latitude": -36.98662,
    "longitude": -72.62509
  },
  {
    "city": "Tomé",
    "city_zh": "托梅",
    "country": "Chile",
    "country_zh": "智利",
    "country_iso_code": "CL",
    "timezone": "America/Santiago",
    "latitude": -36.61756,
    "longitude": -72.95593
  },
  {
    "city": "Tomaguaya",
    "city_zh": "Tomaguaya",
    "country": "Chile",
    "country_zh": "智利",
    "country_iso_code": "CL",
    "timezone": "America/Santiago",
    "latitude": -18.54789,
    "longitude": -69.12486
  },
  {
    "city": "Nueva Toltén",
    "city_zh": "Nueva Toltén",
    "country": "Chile",
    "country_zh": "智利",
    "country_iso_code": "CL",
    "timezone": "America/Santiago",
    "latitude": -39.17852,
    "longitude": -73.16448
  },
  {
    "city": "Toltén",
    "city_zh": "Toltén",
    "country": "Chile",
    "country_zh": "智利",
    "country_iso_code": "CL",
    "timezone": "America/Santiago",
    "latitude": -39.20755,
    "longitude": -73.20987
  },
  {
    "city": "Tollo",
    "city_zh": "Tollo",
    "country": "Chile",
    "country_zh": "智利",
    "country_iso_code": "CL",
    "timezone": "America/Santiago",
    "latitude": -33.38684,
    "longitude": -70.37882
  },
  {
    "city": "Toledo",
    "city_zh": "Toledo",
    "country": "Chile",
    "country_zh": "智利",
    "country_iso_code": "CL",
    "timezone": "America/Santiago",
    "latitude": -27.30732,
    "longitude": -70.44487
  },
  {
    "city": "Toldos",
    "city_zh": "Toldos",
    "country": "Chile",
    "country_zh": "智利",
    "country_iso_code": "CL",
    "timezone": "America/Santiago",
    "latitude": -37.82071,
    "longitude": -73.13059
  },
  {
    "city": "Tolar",
    "city_zh": "Tolar",
    "country": "Chile",
    "country_zh": "智利",
    "country_iso_code": "CL",
    "timezone": "America/Santiago",
    "latitude": -20.93333,
    "longitude": -68.88333
  },
  {
    "city": "Toculla",
    "city_zh": "Toculla",
    "country": "Chile",
    "country_zh": "智利",
    "country_iso_code": "CL",
    "timezone": "America/Santiago",
    "latitude": -19.11544,
    "longitude": -69.17252
  },
  {
    "city": "Toctosaya",
    "city_zh": "Toctosaya",
    "country": "Chile",
    "country_zh": "智利",
    "country_iso_code": "CL",
    "timezone": "America/Santiago",
    "latitude": -19.31667,
    "longitude": -68.68333
  },
  {
    "city": "Tocopilla",
    "city_zh": "托科皮亚",
    "country": "Chile",
    "country_zh": "智利",
    "country_iso_code": "CL",
    "timezone": "America/Santiago",
    "latitude": -22.09198,
    "longitude": -70.19792
  },
  {
    "city": "Tocontase",
    "city_zh": "Tocontase",
    "country": "Chile",
    "country_zh": "智利",
    "country_iso_code": "CL",
    "timezone": "America/Santiago",
    "latitude": -18.37284,
    "longitude": -69.90278
  },
  {
    "city": "Toconey Alto",
    "city_zh": "Toconey Alto",
    "country": "Chile",
    "country_zh": "智利",
    "country_iso_code": "CL",
    "timezone": "America/Santiago",
    "latitude": -35.40529,
    "longitude": -72.07858
  },
  {
    "city": "Toconey",
    "city_zh": "Toconey",
    "country": "Chile",
    "country_zh": "智利",
    "country_iso_code": "CL",
    "timezone": "America/Santiago",
    "latitude": -35.40087,
    "longitude": -72.07131
  },
  {
    "city": "Toconce",
    "city_zh": "Toconce",
    "country": "Chile",
    "country_zh": "智利",
    "country_iso_code": "CL",
    "timezone": "America/Santiago",
    "latitude": -22.26505,
    "longitude": -68.16565
  },
  {
    "city": "Toconao",
    "city_zh": "Toconao",
    "country": "Chile",
    "country_zh": "智利",
    "country_iso_code": "CL",
    "timezone": "America/Santiago",
    "latitude": -23.19008,
    "longitude": -68.00529
  },
  {
    "city": "Toco",
    "city_zh": "Toco",
    "country": "Chile",
    "country_zh": "智利",
    "country_iso_code": "CL",
    "timezone": "America/Santiago",
    "latitude": -22.06981,
    "longitude": -69.59976
  },
  {
    "city": "Tiuquilemu",
    "city_zh": "Tiuquilemu",
    "country": "Chile",
    "country_zh": "智利",
    "country_iso_code": "CL",
    "timezone": "America/Santiago",
    "latitude": -36.06842,
    "longitude": -72.77605
  },
  {
    "city": "Tiuquilemo",
    "city_zh": "Tiuquilemo",
    "country": "Chile",
    "country_zh": "智利",
    "country_iso_code": "CL",
    "timezone": "America/Santiago",
    "latitude": -36.36179,
    "longitude": -71.87706
  },
  {
    "city": "Titiri",
    "city_zh": "Titiri",
    "country": "Chile",
    "country_zh": "智利",
    "country_iso_code": "CL",
    "timezone": "America/Santiago",
    "latitude": -17.846,
    "longitude": -69.70148
  },
  {
    "city": "Tirúa",
    "city_zh": "蒂魯阿",
    "country": "Chile",
    "country_zh": "智利",
    "country_iso_code": "CL",
    "timezone": "America/Santiago",
    "latitude": -38.34179,
    "longitude": -73.49149
  },
  {
    "city": "Tiquina",
    "city_zh": "Tiquina",
    "country": "Chile",
    "country_zh": "智利",
    "country_iso_code": "CL",
    "timezone": "America/Santiago",
    "latitude": -19.55532,
    "longitude": -69.25528
  },
  {
    "city": "Tiquima",
    "city_zh": "Tiquima",
    "country": "Chile",
    "country_zh": "智利",
    "country_iso_code": "CL",
    "timezone": "America/Santiago",
    "latitude": -20.93218,
    "longitude": -69.09974
  },
  {
    "city": "Tiquel",
    "city_zh": "Tiquel",
    "country": "Chile",
    "country_zh": "智利",
    "country_iso_code": "CL",
    "timezone": "America/Santiago",
    "latitude": -36.14097,
    "longitude": -72.32789
  },
  {
    "city": "Tinguiririca",
    "city_zh": "Tinguiririca",
    "country": "Chile",
    "country_zh": "智利",
    "country_iso_code": "CL",
    "timezone": "America/Santiago",
    "latitude": -34.65308,
    "longitude": -70.97027
  },
  {
    "city": "Tinajillas",
    "city_zh": "Tinajillas",
    "country": "Chile",
    "country_zh": "智利",
    "country_iso_code": "CL",
    "timezone": "America/Santiago",
    "latitude": -29.05,
    "longitude": -70.41667
  },
  {
    "city": "Tinajas",
    "city_zh": "Tinajas",
    "country": "Chile",
    "country_zh": "智利",
    "country_iso_code": "CL",
    "timezone": "America/Santiago",
    "latitude": -29.02032,
    "longitude": -70.48061
  },
  {
    "city": "Timar",
    "city_zh": "Timar",
    "country": "Chile",
    "country_zh": "智利",
    "country_iso_code": "CL",
    "timezone": "America/Santiago",
    "latitude": -18.74961,
    "longitude": -69.69129
  },
  {
    "city": "Timalchaca",
    "city_zh": "Timalchaca",
    "country": "Chile",
    "country_zh": "智利",
    "country_iso_code": "CL",
    "timezone": "America/Santiago",
    "latitude": -18.68232,
    "longitude": -69.41415
  },
  {
    "city": "Tiltil Viejo",
    "city_zh": "Tiltil Viejo",
    "country": "Chile",
    "country_zh": "智利",
    "country_iso_code": "CL",
    "timezone": "America/Santiago",
    "latitude": -33.08988,
    "longitude": -70.91858
  },
  {
    "city": "Tiltil",
    "city_zh": "Tiltil",
    "country": "Chile",
    "country_zh": "智利",
    "country_iso_code": "CL",
    "timezone": "America/Santiago",
    "latitude": -33.0831,
    "longitude": -70.92924
  },
  {
    "city": "Tilopozo",
    "city_zh": "Tilopozo",
    "country": "Chile",
    "country_zh": "智利",
    "country_iso_code": "CL",
    "timezone": "America/Santiago",
    "latitude": -23.78304,
    "longitude": -68.23927
  },
  {
    "city": "Tilomonte",
    "city_zh": "Tilomonte",
    "country": "Chile",
    "country_zh": "智利",
    "country_iso_code": "CL",
    "timezone": "America/Santiago",
    "latitude": -23.79473,
    "longitude": -68.10971
  },
  {
    "city": "Tilluma",
    "city_zh": "Tilluma",
    "country": "Chile",
    "country_zh": "智利",
    "country_iso_code": "CL",
    "timezone": "America/Santiago",
    "latitude": -19.39895,
    "longitude": -68.5295
  },
  {
    "city": "Tillujaya",
    "city_zh": "Tillujaya",
    "country": "Chile",
    "country_zh": "智利",
    "country_iso_code": "CL",
    "timezone": "America/Santiago",
    "latitude": -19.61716,
    "longitude": -68.5705
  },
  {
    "city": "Tiliviche",
    "city_zh": "Tiliviche",
    "country": "Chile",
    "country_zh": "智利",
    "country_iso_code": "CL",
    "timezone": "America/Santiago",
    "latitude": -19.54956,
    "longitude": -69.94659
  },
  {
    "city": "Tilicura",
    "city_zh": "Tilicura",
    "country": "Chile",
    "country_zh": "智利",
    "country_iso_code": "CL",
    "timezone": "America/Santiago",
    "latitude": -34.85719,
    "longitude": -71.93236
  },
  {
    "city": "Tilama",
    "city_zh": "Tilama",
    "country": "Chile",
    "country_zh": "智利",
    "country_iso_code": "CL",
    "timezone": "America/Santiago",
    "latitude": -32.08602,
    "longitude": -71.16808
  },
  {
    "city": "Tijeral",
    "city_zh": "Tijeral",
    "country": "Chile",
    "country_zh": "智利",
    "country_iso_code": "CL",
    "timezone": "America/Santiago",
    "latitude": -37.73329,
    "longitude": -72.61616
  },
  {
    "city": "Tignamar",
    "city_zh": "Tignamar",
    "country": "Chile",
    "country_zh": "智利",
    "country_iso_code": "CL",
    "timezone": "America/Santiago",
    "latitude": -18.58117,
    "longitude": -69.49439
  },
  {
    "city": "Tierras Blancas",
    "city_zh": "Tierras Blancas",
    "country": "Chile",
    "country_zh": "智利",
    "country_iso_code": "CL",
    "timezone": "America/Santiago",
    "latitude": -32.78438,
    "longitude": -70.71697
  },
  {
    "city": "Tierras Blancas",
    "city_zh": "Tierras Blancas",
    "country": "Chile",
    "country_zh": "智利",
    "country_iso_code": "CL",
    "timezone": "America/Santiago",
    "latitude": -32.61593,
    "longitude": -71.29484
  },
  {
    "city": "Tierra Amarilla",
    "city_zh": "Tierra Amarilla",
    "country": "Chile",
    "country_zh": "智利",
    "country_iso_code": "CL",
    "timezone": "America/Santiago",
    "latitude": -27.46633,
    "longitude": -70.26255
  },
  {
    "city": "Tiacolpa",
    "city_zh": "Tiacolpa",
    "country": "Chile",
    "country_zh": "智利",
    "country_iso_code": "CL",
    "timezone": "America/Santiago",
    "latitude": -17.94988,
    "longitude": -69.47528
  },
  {
    "city": "Teupa",
    "city_zh": "Teupa",
    "country": "Chile",
    "country_zh": "智利",
    "country_iso_code": "CL",
    "timezone": "America/Santiago",
    "latitude": -42.6703,
    "longitude": -73.67833
  },
  {
    "city": "Terao",
    "city_zh": "Terao",
    "country": "Chile",
    "country_zh": "智利",
    "country_iso_code": "CL",
    "timezone": "America/Santiago",
    "latitude": -42.7055,
    "longitude": -73.65
  },
  {
    "city": "Teodoro Schmidt",
    "city_zh": "Teodoro Schmidt",
    "country": "Chile",
    "country_zh": "智利",
    "country_iso_code": "CL",
    "timezone": "America/Santiago",
    "latitude": -38.99442,
    "longitude": -73.08927
  },
  {
    "city": "Teno",
    "city_zh": "Teno",
    "country": "Chile",
    "country_zh": "智利",
    "country_iso_code": "CL",
    "timezone": "America/Santiago",
    "latitude": -34.87055,
    "longitude": -71.16219
  },
  {
    "city": "Teno",
    "city_zh": "Teno",
    "country": "Chile",
    "country_zh": "智利",
    "country_iso_code": "CL",
    "timezone": "America/Santiago",
    "latitude": -34.87835,
    "longitude": -71.26203
  },
  {
    "city": "Tenaún",
    "city_zh": "Tenaún",
    "country": "Chile",
    "country_zh": "智利",
    "country_iso_code": "CL",
    "timezone": "America/Santiago",
    "latitude": -42.33228,
    "longitude": -73.37405
  },
  {
    "city": "Temuco",
    "city_zh": "特木科",
    "country": "Chile",
    "country_zh": "智利",
    "country_iso_code": "CL",
    "timezone": "America/Santiago",
    "latitude": -38.73628,
    "longitude": -72.59738
  },
  {
    "city": "Temuco Chico",
    "city_zh": "Temuco Chico",
    "country": "Chile",
    "country_zh": "智利",
    "country_iso_code": "CL",
    "timezone": "America/Santiago",
    "latitude": -37.66795,
    "longitude": -73.38863
  },
  {
    "city": "Templanza",
    "city_zh": "Templanza",
    "country": "Chile",
    "country_zh": "智利",
    "country_iso_code": "CL",
    "timezone": "America/Santiago",
    "latitude": -19.61222,
    "longitude": -68.65086
  },
  {
    "city": "Teleschuño",
    "city_zh": "Teleschuño",
    "country": "Chile",
    "country_zh": "智利",
    "country_iso_code": "CL",
    "timezone": "America/Santiago",
    "latitude": -17.85351,
    "longitude": -69.64579
  },
  {
    "city": "Tejería",
    "city_zh": "Tejería",
    "country": "Chile",
    "country_zh": "智利",
    "country_iso_code": "CL",
    "timezone": "America/Santiago",
    "latitude": -35.7152,
    "longitude": -72.42943
  },
  {
    "city": "Tejas Verdes",
    "city_zh": "Tejas Verdes",
    "country": "Chile",
    "country_zh": "智利",
    "country_iso_code": "CL",
    "timezone": "America/Santiago",
    "latitude": -33.61903,
    "longitude": -71.60545
  },
  {
    "city": "Tegualda",
    "city_zh": "Tegualda",
    "country": "Chile",
    "country_zh": "智利",
    "country_iso_code": "CL",
    "timezone": "America/Santiago",
    "latitude": -41.03838,
    "longitude": -73.40867
  },
  {
    "city": "Teguaco",
    "city_zh": "Teguaco",
    "country": "Chile",
    "country_zh": "智利",
    "country_iso_code": "CL",
    "timezone": "America/Santiago",
    "latitude": -41.92085,
    "longitude": -73.97078
  },
  {
    "city": "Teatinos",
    "city_zh": "Teatinos",
    "country": "Chile",
    "country_zh": "智利",
    "country_iso_code": "CL",
    "timezone": "America/Santiago",
    "latitude": -29.8,
    "longitude": -71.28333
  },
  {
    "city": "Taulemu",
    "city_zh": "Taulemu",
    "country": "Chile",
    "country_zh": "智利",
    "country_iso_code": "CL",
    "timezone": "America/Santiago",
    "latitude": -34.61754,
    "longitude": -71.09073
  },
  {
    "city": "Tatara",
    "city_zh": "Tatara",
    "country": "Chile",
    "country_zh": "智利",
    "country_iso_code": "CL",
    "timezone": "America/Santiago",
    "latitude": -28.52167,
    "longitude": -70.9658
  },
  {
    "city": "Tasma",
    "city_zh": "Tasma",
    "country": "Chile",
    "country_zh": "智利",
    "country_iso_code": "CL",
    "timezone": "America/Santiago",
    "latitude": -20.31667,
    "longitude": -69.35
  },
  {
    "city": "Taruguiri",
    "city_zh": "Taruguiri",
    "country": "Chile",
    "country_zh": "智利",
    "country_iso_code": "CL",
    "timezone": "America/Santiago",
    "latitude": -18.90742,
    "longitude": -69.24025
  },
  {
    "city": "Tarapacá",
    "city_zh": "Tarapacá",
    "country": "Chile",
    "country_zh": "智利",
    "country_iso_code": "CL",
    "timezone": "America/Santiago",
    "latitude": -19.92435,
    "longitude": -69.51109
  },
  {
    "city": "Tapinga",
    "city_zh": "Tapinga",
    "country": "Chile",
    "country_zh": "智利",
    "country_iso_code": "CL",
    "timezone": "America/Santiago",
    "latitude": -20.28207,
    "longitude": -69.10474
  },
  {
    "city": "Tapiche",
    "city_zh": "Tapiche",
    "country": "Chile",
    "country_zh": "智利",
    "country_iso_code": "CL",
    "timezone": "America/Santiago",
    "latitude": -21.9,
    "longitude": -68.6
  },
  {
    "city": "Tanilvoro",
    "city_zh": "Tanilvoro",
    "country": "Chile",
    "country_zh": "智利",
    "country_iso_code": "CL",
    "timezone": "America/Santiago",
    "latitude": -36.7076,
    "longitude": -71.84061
  },
  {
    "city": "Tangue",
    "city_zh": "Tangue",
    "country": "Chile",
    "country_zh": "智利",
    "country_iso_code": "CL",
    "timezone": "America/Santiago",
    "latitude": -30.32338,
    "longitude": -71.58974
  },
  {
    "city": "Tanguao",
    "city_zh": "Tanguao",
    "country": "Chile",
    "country_zh": "智利",
    "country_iso_code": "CL",
    "timezone": "America/Santiago",
    "latitude": -35.42334,
    "longitude": -72.05558
  },
  {
    "city": "Tamentica",
    "city_zh": "Tamentica",
    "country": "Chile",
    "country_zh": "智利",
    "country_iso_code": "CL",
    "timezone": "America/Santiago",
    "latitude": -20.96333,
    "longitude": -69.17045
  },
  {
    "city": "Tameñelo",
    "city_zh": "Tameñelo",
    "country": "Chile",
    "country_zh": "智利",
    "country_iso_code": "CL",
    "timezone": "America/Santiago",
    "latitude": -36.25192,
    "longitude": -72.8075
  },
  {
    "city": "Tambo de Cosapilla",
    "city_zh": "Tambo de Cosapilla",
    "country": "Chile",
    "country_zh": "智利",
    "country_iso_code": "CL",
    "timezone": "America/Santiago",
    "latitude": -17.95,
    "longitude": -69.3
  },
  {
    "city": "Tambo",
    "city_zh": "Tambo",
    "country": "Chile",
    "country_zh": "智利",
    "country_iso_code": "CL",
    "timezone": "America/Santiago",
    "latitude": -19.86667,
    "longitude": -68.63333
  },
  {
    "city": "Tambillos",
    "city_zh": "Tambillos",
    "country": "Chile",
    "country_zh": "智利",
    "country_iso_code": "CL",
    "timezone": "America/Santiago",
    "latitude": -30.18678,
    "longitude": -71.24638
  },
  {
    "city": "Tambillo",
    "city_zh": "Tambillo",
    "country": "Chile",
    "country_zh": "智利",
    "country_iso_code": "CL",
    "timezone": "America/Santiago",
    "latitude": -30.19692,
    "longitude": -71.22385
  },
  {
    "city": "Tambillo",
    "city_zh": "Tambillo",
    "country": "Chile",
    "country_zh": "智利",
    "country_iso_code": "CL",
    "timezone": "America/Santiago",
    "latitude": -30.11792,
    "longitude": -71.29022
  },
  {
    "city": "Tambillo",
    "city_zh": "Tambillo",
    "country": "Chile",
    "country_zh": "智利",
    "country_iso_code": "CL",
    "timezone": "America/Santiago",
    "latitude": -23.11846,
    "longitude": -68.0819
  },
  {
    "city": "Tambillo",
    "city_zh": "Tambillo",
    "country": "Chile",
    "country_zh": "智利",
    "country_iso_code": "CL",
    "timezone": "America/Santiago",
    "latitude": -20.43896,
    "longitude": -69.14038
  },
  {
    "city": "Tambillo",
    "city_zh": "Tambillo",
    "country": "Chile",
    "country_zh": "智利",
    "country_iso_code": "CL",
    "timezone": "America/Santiago",
    "latitude": -20.24155,
    "longitude": -69.39991
  },
  {
    "city": "Tambería",
    "city_zh": "Tambería",
    "country": "Chile",
    "country_zh": "智利",
    "country_iso_code": "CL",
    "timezone": "America/Santiago",
    "latitude": -28.46622,
    "longitude": -69.76315
  },
  {
    "city": "Tambería",
    "city_zh": "Tambería",
    "country": "Chile",
    "country_zh": "智利",
    "country_iso_code": "CL",
    "timezone": "America/Santiago",
    "latitude": -27.85245,
    "longitude": -69.4696
  },
  {
    "city": "Tambería",
    "city_zh": "Tambería",
    "country": "Chile",
    "country_zh": "智利",
    "country_iso_code": "CL",
    "timezone": "America/Santiago",
    "latitude": -26.83333,
    "longitude": -69.15
  },
  {
    "city": "Taltape",
    "city_zh": "Taltape",
    "country": "Chile",
    "country_zh": "智利",
    "country_iso_code": "CL",
    "timezone": "America/Santiago",
    "latitude": -18.98505,
    "longitude": -69.78385
  },
  {
    "city": "Taltal",
    "city_zh": "塔爾塔爾",
    "country": "Chile",
    "country_zh": "智利",
    "country_iso_code": "CL",
    "timezone": "America/Santiago",
    "latitude": -25.40713,
    "longitude": -70.48554
  },
  {
    "city": "Talquipén",
    "city_zh": "Talquipén",
    "country": "Chile",
    "country_zh": "智利",
    "country_iso_code": "CL",
    "timezone": "America/Santiago",
    "latitude": -36.62915,
    "longitude": -71.9251
  },
  {
    "city": "Talinay Bajo",
    "city_zh": "Talinay Bajo",
    "country": "Chile",
    "country_zh": "智利",
    "country_iso_code": "CL",
    "timezone": "America/Santiago",
    "latitude": -30.8652,
    "longitude": -71.61535
  },
  {
    "city": "Talinay Alto",
    "city_zh": "Talinay Alto",
    "country": "Chile",
    "country_zh": "智利",
    "country_iso_code": "CL",
    "timezone": "America/Santiago",
    "latitude": -30.85226,
    "longitude": -71.60406
  },
  {
    "city": "Talcarehue",
    "city_zh": "Talcarehue",
    "country": "Chile",
    "country_zh": "智利",
    "country_iso_code": "CL",
    "timezone": "America/Santiago",
    "latitude": -34.62313,
    "longitude": -70.92512
  },
  {
    "city": "Talcamó",
    "city_zh": "Talcamó",
    "country": "Chile",
    "country_zh": "智利",
    "country_iso_code": "CL",
    "timezone": "America/Santiago",
    "latitude": -36.84038,
    "longitude": -72.5707
  },
  {
    "city": "Talcamávida",
    "city_zh": "Talcamávida",
    "country": "Chile",
    "country_zh": "智利",
    "country_iso_code": "CL",
    "timezone": "America/Santiago",
    "latitude": -37.16126,
    "longitude": -72.90757
  },
  {
    "city": "Talcamávida",
    "city_zh": "Talcamávida",
    "country": "Chile",
    "country_zh": "智利",
    "country_iso_code": "CL",
    "timezone": "America/Santiago",
    "latitude": -36.06907,
    "longitude": -72.7429
  },
  {
    "city": "Talcalonco",
    "city_zh": "Talcalonco",
    "country": "Chile",
    "country_zh": "智利",
    "country_iso_code": "CL",
    "timezone": "America/Santiago",
    "latitude": -36.08002,
    "longitude": -72.09035
  },
  {
    "city": "Talcahuano",
    "city_zh": "塔爾卡瓦諾",
    "country": "Chile",
    "country_zh": "智利",
    "country_iso_code": "CL",
    "timezone": "America/Santiago",
    "latitude": -36.72494,
    "longitude": -73.11684
  },
  {
    "city": "Talca",
    "city_zh": "塔爾卡",
    "country": "Chile",
    "country_zh": "智利",
    "country_iso_code": "CL",
    "timezone": "America/Santiago",
    "latitude": -35.4232,
    "longitude": -71.64974
  },
  {
    "city": "Talca",
    "city_zh": "Talca",
    "country": "Chile",
    "country_zh": "智利",
    "country_iso_code": "CL",
    "timezone": "America/Santiago",
    "latitude": -30.01076,
    "longitude": -71.03769
  },
  {
    "city": "Talami",
    "city_zh": "Talami",
    "country": "Chile",
    "country_zh": "智利",
    "country_iso_code": "CL",
    "timezone": "America/Santiago",
    "latitude": -34.05161,
    "longitude": -70.98892
  },
  {
    "city": "Talagante",
    "city_zh": "塔拉甘特",
    "country": "Chile",
    "country_zh": "智利",
    "country_iso_code": "CL",
    "timezone": "America/Santiago",
    "latitude": -33.66386,
    "longitude": -70.92734
  },
  {
    "city": "Talabre",
    "city_zh": "Talabre",
    "country": "Chile",
    "country_zh": "智利",
    "country_iso_code": "CL",
    "timezone": "America/Santiago",
    "latitude": -23.32476,
    "longitude": -67.83353
  },
  {
    "city": "Taipullo",
    "city_zh": "Taipullo",
    "country": "Chile",
    "country_zh": "智利",
    "country_iso_code": "CL",
    "timezone": "America/Santiago",
    "latitude": -17.80969,
    "longitude": -69.58622
  },
  {
    "city": "Taipimarca",
    "city_zh": "Taipimarca",
    "country": "Chile",
    "country_zh": "智利",
    "country_iso_code": "CL",
    "timezone": "America/Santiago",
    "latitude": -18.38809,
    "longitude": -69.94997
  },
  {
    "city": "Taimo",
    "city_zh": "Taimo",
    "country": "Chile",
    "country_zh": "智利",
    "country_iso_code": "CL",
    "timezone": "America/Santiago",
    "latitude": -36.21946,
    "longitude": -72.61949
  },
  {
    "city": "Tahuinco",
    "city_zh": "Tahuinco",
    "country": "Chile",
    "country_zh": "智利",
    "country_iso_code": "CL",
    "timezone": "America/Santiago",
    "latitude": -31.79135,
    "longitude": -71.05705
  },
  {
    "city": "Tacupa",
    "city_zh": "Tacupa",
    "country": "Chile",
    "country_zh": "智利",
    "country_iso_code": "CL",
    "timezone": "America/Santiago",
    "latitude": -19.45005,
    "longitude": -68.64423
  },
  {
    "city": "Tacora",
    "city_zh": "Tacora",
    "country": "Chile",
    "country_zh": "智利",
    "country_iso_code": "CL",
    "timezone": "America/Santiago",
    "latitude": -17.77263,
    "longitude": -69.72492
  },
  {
    "city": "Tacata",
    "city_zh": "Tacata",
    "country": "Chile",
    "country_zh": "智利",
    "country_iso_code": "CL",
    "timezone": "America/Santiago",
    "latitude": -17.97347,
    "longitude": -69.28476
  },
  {
    "city": "Tabunco",
    "city_zh": "Tabunco",
    "country": "Chile",
    "country_zh": "智利",
    "country_iso_code": "CL",
    "timezone": "America/Santiago",
    "latitude": -35.19531,
    "longitude": -71.98874
  },
  {
    "city": "Tabuco",
    "city_zh": "Tabuco",
    "country": "Chile",
    "country_zh": "智利",
    "country_iso_code": "CL",
    "timezone": "America/Santiago",
    "latitude": -34.77693,
    "longitude": -71.99114
  },
  {
    "city": "Tabolango",
    "city_zh": "Tabolango",
    "country": "Chile",
    "country_zh": "智利",
    "country_iso_code": "CL",
    "timezone": "America/Santiago",
    "latitude": -32.92906,
    "longitude": -71.36851
  },
  {
    "city": "Tabolango",
    "city_zh": "Tabolango",
    "country": "Chile",
    "country_zh": "智利",
    "country_iso_code": "CL",
    "timezone": "America/Santiago",
    "latitude": -32.83746,
    "longitude": -70.66016
  },
  {
    "city": "Tablas",
    "city_zh": "Tablas",
    "country": "Chile",
    "country_zh": "智利",
    "country_iso_code": "CL",
    "timezone": "America/Santiago",
    "latitude": -35.50975,
    "longitude": -72.42518
  },
  {
    "city": "Tabalongo",
    "city_zh": "Tabalongo",
    "country": "Chile",
    "country_zh": "智利",
    "country_iso_code": "CL",
    "timezone": "America/Santiago",
    "latitude": -32.67517,
    "longitude": -70.61856
  },
  {
    "city": "Tabalí",
    "city_zh": "Tabalí",
    "country": "Chile",
    "country_zh": "智利",
    "country_iso_code": "CL",
    "timezone": "America/Santiago",
    "latitude": -30.63776,
    "longitude": -71.42671
  },
  {
    "city": "Tabalí",
    "city_zh": "Tabalí",
    "country": "Chile",
    "country_zh": "智利",
    "country_iso_code": "CL",
    "timezone": "America/Santiago",
    "latitude": -28.1094,
    "longitude": -70.78722
  },
  {
    "city": "Tabaco Alto",
    "city_zh": "Tabaco Alto",
    "country": "Chile",
    "country_zh": "智利",
    "country_iso_code": "CL",
    "timezone": "America/Santiago",
    "latitude": -29.13333,
    "longitude": -70.58333
  },
  {
    "city": "Surire",
    "city_zh": "Surire",
    "country": "Chile",
    "country_zh": "智利",
    "country_iso_code": "CL",
    "timezone": "America/Santiago",
    "latitude": -19.11667,
    "longitude": -69.13333
  },
  {
    "city": "Surire",
    "city_zh": "Surire",
    "country": "Chile",
    "country_zh": "智利",
    "country_iso_code": "CL",
    "timezone": "America/Santiago",
    "latitude": -18.91649,
    "longitude": -69.10611
  },
  {
    "city": "Sucuna",
    "city_zh": "Sucuna",
    "country": "Chile",
    "country_zh": "智利",
    "country_iso_code": "CL",
    "timezone": "America/Santiago",
    "latitude": -18.84357,
    "longitude": -69.44461
  },
  {
    "city": "Suca Alto",
    "city_zh": "Suca Alto",
    "country": "Chile",
    "country_zh": "智利",
    "country_iso_code": "CL",
    "timezone": "America/Santiago",
    "latitude": -19.26667,
    "longitude": -69.78333
  },
  {
    "city": "Suca",
    "city_zh": "Suca",
    "country": "Chile",
    "country_zh": "智利",
    "country_iso_code": "CL",
    "timezone": "America/Santiago",
    "latitude": -19.26778,
    "longitude": -69.79607
  },
  {
    "city": "Sotomó",
    "city_zh": "Sotomó",
    "country": "Chile",
    "country_zh": "智利",
    "country_iso_code": "CL",
    "timezone": "America/Santiago",
    "latitude": -41.65129,
    "longitude": -72.31198
  },
  {
    "city": "Sotoca",
    "city_zh": "Sotoca",
    "country": "Chile",
    "country_zh": "智利",
    "country_iso_code": "CL",
    "timezone": "America/Santiago",
    "latitude": -19.59603,
    "longitude": -69.23282
  },
  {
    "city": "Sotaquí",
    "city_zh": "Sotaquí",
    "country": "Chile",
    "country_zh": "智利",
    "country_iso_code": "CL",
    "timezone": "America/Santiago",
    "latitude": -30.62967,
    "longitude": -71.12
  },
  {
    "city": "Soruco",
    "city_zh": "Soruco",
    "country": "Chile",
    "country_zh": "智利",
    "country_iso_code": "CL",
    "timezone": "America/Santiago",
    "latitude": -31.10719,
    "longitude": -71.11153
  },
  {
    "city": "El Sordo",
    "city_zh": "El Sordo",
    "country": "Chile",
    "country_zh": "智利",
    "country_iso_code": "CL",
    "timezone": "America/Coyhaique",
    "latitude": -48.09103,
    "longitude": -72.93173
  },
  {
    "city": "Sora",
    "city_zh": "Sora",
    "country": "Chile",
    "country_zh": "智利",
    "country_iso_code": "CL",
    "timezone": "America/Santiago",
    "latitude": -18.34414,
    "longitude": -69.86859
  },
  {
    "city": "Sopocalane",
    "city_zh": "Sopocalane",
    "country": "Chile",
    "country_zh": "智利",
    "country_iso_code": "CL",
    "timezone": "America/Santiago",
    "latitude": -18.28201,
    "longitude": -69.15998
  },
  {
    "city": "Soncor",
    "city_zh": "Soncor",
    "country": "Chile",
    "country_zh": "智利",
    "country_iso_code": "CL",
    "timezone": "America/Santiago",
    "latitude": -23.33333,
    "longitude": -68.0
  },
  {
    "city": "Sombrero",
    "city_zh": "Sombrero",
    "country": "Chile",
    "country_zh": "智利",
    "country_iso_code": "CL",
    "timezone": "America/Santiago",
    "latitude": -52.77516,
    "longitude": -69.29012
  },
  {
    "city": "Sólor",
    "city_zh": "Sólor",
    "country": "Chile",
    "country_zh": "智利",
    "country_iso_code": "CL",
    "timezone": "America/Santiago",
    "latitude": -22.94615,
    "longitude": -68.18573
  },
  {
    "city": "Soga",
    "city_zh": "Soga",
    "country": "Chile",
    "country_zh": "智利",
    "country_iso_code": "CL",
    "timezone": "America/Santiago",
    "latitude": -19.48113,
    "longitude": -69.33826
  },
  {
    "city": "Socoroma",
    "city_zh": "Socoroma",
    "country": "Chile",
    "country_zh": "智利",
    "country_iso_code": "CL",
    "timezone": "America/Santiago",
    "latitude": -18.26416,
    "longitude": -69.60253
  },
  {
    "city": "Soco",
    "city_zh": "Soco",
    "country": "Chile",
    "country_zh": "智利",
    "country_iso_code": "CL",
    "timezone": "America/Santiago",
    "latitude": -30.66667,
    "longitude": -71.5
  },
  {
    "city": "Socaire",
    "city_zh": "Socaire",
    "country": "Chile",
    "country_zh": "智利",
    "country_iso_code": "CL",
    "timezone": "America/Santiago",
    "latitude": -23.58997,
    "longitude": -67.89062
  },
  {
    "city": "Tranque Sloman",
    "city_zh": "Tranque Sloman",
    "country": "Chile",
    "country_zh": "智利",
    "country_iso_code": "CL",
    "timezone": "America/Santiago",
    "latitude": -21.85283,
    "longitude": -69.51501
  },
  {
    "city": "Sitari",
    "city_zh": "Sitari",
    "country": "Chile",
    "country_zh": "智利",
    "country_iso_code": "CL",
    "timezone": "America/Santiago",
    "latitude": -19.26667,
    "longitude": -68.66667
  },
  {
    "city": "Sitani",
    "city_zh": "Sitani",
    "country": "Chile",
    "country_zh": "智利",
    "country_iso_code": "CL",
    "timezone": "America/Santiago",
    "latitude": -19.26795,
    "longitude": -68.66271
  },
  {
    "city": "Sipiza",
    "city_zh": "Sipiza",
    "country": "Chile",
    "country_zh": "智利",
    "country_iso_code": "CL",
    "timezone": "America/Santiago",
    "latitude": -19.63736,
    "longitude": -69.24123
  },
  {
    "city": "Silpasilvani",
    "city_zh": "Silpasilvani",
    "country": "Chile",
    "country_zh": "智利",
    "country_iso_code": "CL",
    "timezone": "America/Santiago",
    "latitude": -18.1838,
    "longitude": -69.29406
  },
  {
    "city": "Sierra Overa",
    "city_zh": "Sierra Overa",
    "country": "Chile",
    "country_zh": "智利",
    "country_iso_code": "CL",
    "timezone": "America/Santiago",
    "latitude": -25.79137,
    "longitude": -69.91134
  },
  {
    "city": "Sierra Gorda",
    "city_zh": "Sierra Gorda",
    "country": "Chile",
    "country_zh": "智利",
    "country_iso_code": "CL",
    "timezone": "America/Santiago",
    "latitude": -22.89061,
    "longitude": -69.31959
  },
  {
    "city": "Sibaya",
    "city_zh": "Sibaya",
    "country": "Chile",
    "country_zh": "智利",
    "country_iso_code": "CL",
    "timezone": "America/Santiago",
    "latitude": -19.78291,
    "longitude": -69.17318
  },
  {
    "city": "Choshuenco",
    "city_zh": "Choshuenco",
    "country": "Chile",
    "country_zh": "智利",
    "country_iso_code": "CL",
    "timezone": "America/Santiago",
    "latitude": -39.84405,
    "longitude": -72.06954
  },
  {
    "city": "Sewel",
    "city_zh": "Sewel",
    "country": "Chile",
    "country_zh": "智利",
    "country_iso_code": "CL",
    "timezone": "America/Santiago",
    "latitude": -34.08428,
    "longitude": -70.38059
  },
  {
    "city": "Serón",
    "city_zh": "Serón",
    "country": "Chile",
    "country_zh": "智利",
    "country_iso_code": "CL",
    "timezone": "America/Santiago",
    "latitude": -30.33204,
    "longitude": -70.74629
  },
  {
    "city": "Selva Oscura",
    "city_zh": "Selva Oscura",
    "country": "Chile",
    "country_zh": "智利",
    "country_iso_code": "CL",
    "timezone": "America/Santiago",
    "latitude": -38.36938,
    "longitude": -72.1663
  },
  {
    "city": "Seguel",
    "city_zh": "Seguel",
    "country": "Chile",
    "country_zh": "智利",
    "country_iso_code": "CL",
    "timezone": "America/Coyhaique",
    "latitude": -46.96006,
    "longitude": -72.8067
  },
  {
    "city": "Sección Tapera",
    "city_zh": "Sección Tapera",
    "country": "Chile",
    "country_zh": "智利",
    "country_iso_code": "CL",
    "timezone": "America/Coyhaique",
    "latitude": -44.64588,
    "longitude": -71.67377
  },
  {
    "city": "Sección San Jorge",
    "city_zh": "Sección San Jorge",
    "country": "Chile",
    "country_zh": "智利",
    "country_iso_code": "CL",
    "timezone": "America/Santiago",
    "latitude": -52.33393,
    "longitude": -70.26389
  },
  {
    "city": "Sección Manzano",
    "city_zh": "Sección Manzano",
    "country": "Chile",
    "country_zh": "智利",
    "country_iso_code": "CL",
    "timezone": "America/Santiago",
    "latitude": -52.60032,
    "longitude": -71.24666
  },
  {
    "city": "Sección Lazo",
    "city_zh": "Sección Lazo",
    "country": "Chile",
    "country_zh": "智利",
    "country_iso_code": "CL",
    "timezone": "America/Santiago",
    "latitude": -51.12025,
    "longitude": -72.81588
  },
  {
    "city": "Sección La Vega",
    "city_zh": "Sección La Vega",
    "country": "Chile",
    "country_zh": "智利",
    "country_iso_code": "CL",
    "timezone": "America/Santiago",
    "latitude": -52.28964,
    "longitude": -70.53145
  },
  {
    "city": "Sección Dicky",
    "city_zh": "Sección Dicky",
    "country": "Chile",
    "country_zh": "智利",
    "country_iso_code": "CL",
    "timezone": "America/Santiago",
    "latitude": -52.12691,
    "longitude": -69.86839
  },
  {
    "city": "Sección Ciaike",
    "city_zh": "Sección Ciaike",
    "country": "Chile",
    "country_zh": "智利",
    "country_iso_code": "CL",
    "timezone": "America/Santiago",
    "latitude": -52.23526,
    "longitude": -70.27775
  },
  {
    "city": "Saya",
    "city_zh": "Saya",
    "country": "Chile",
    "country_zh": "智利",
    "country_iso_code": "CL",
    "timezone": "America/Santiago",
    "latitude": -19.6,
    "longitude": -69.25
  },
  {
    "city": "Saya",
    "city_zh": "Saya",
    "country": "Chile",
    "country_zh": "智利",
    "country_iso_code": "CL",
    "timezone": "America/Santiago",
    "latitude": -19.51667,
    "longitude": -70.11667
  },
  {
    "city": "Saxamar",
    "city_zh": "Saxamar",
    "country": "Chile",
    "country_zh": "智利",
    "country_iso_code": "CL",
    "timezone": "America/Santiago",
    "latitude": -18.56667,
    "longitude": -69.48333
  },
  {
    "city": "Sauzal",
    "city_zh": "Sauzal",
    "country": "Chile",
    "country_zh": "智利",
    "country_iso_code": "CL",
    "timezone": "America/Santiago",
    "latitude": -35.72048,
    "longitude": -72.12567
  },
  {
    "city": "Central Sauzal",
    "city_zh": "Central Sauzal",
    "country": "Chile",
    "country_zh": "智利",
    "country_iso_code": "CL",
    "timezone": "America/Santiago",
    "latitude": -34.25787,
    "longitude": -70.61571
  },
  {
    "city": "Saujagua",
    "city_zh": "Saujagua",
    "country": "Chile",
    "country_zh": "智利",
    "country_iso_code": "CL",
    "timezone": "America/Santiago",
    "latitude": -19.31667,
    "longitude": -69.58333
  },
  {
    "city": "Sauce Pérez",
    "city_zh": "Sauce Pérez",
    "country": "Chile",
    "country_zh": "智利",
    "country_iso_code": "CL",
    "timezone": "America/Santiago",
    "latitude": -28.64428,
    "longitude": -71.12659
  },
  {
    "city": "Saucache",
    "city_zh": "Saucache",
    "country": "Chile",
    "country_zh": "智利",
    "country_iso_code": "CL",
    "timezone": "America/Santiago",
    "latitude": -18.48777,
    "longitude": -70.28459
  },
  {
    "city": "Cooperativa Sarmiento",
    "city_zh": "Cooperativa Sarmiento",
    "country": "Chile",
    "country_zh": "智利",
    "country_iso_code": "CL",
    "timezone": "America/Santiago",
    "latitude": -34.93527,
    "longitude": -71.20026
  },
  {
    "city": "Miriam Cecilia",
    "city_zh": "Miriam Cecilia",
    "country": "Chile",
    "country_zh": "智利",
    "country_iso_code": "CL",
    "timezone": "America/Santiago",
    "latitude": -52.97754,
    "longitude": -70.1046
  },
  {
    "city": "Sargento Aldea",
    "city_zh": "Sargento Aldea",
    "country": "Chile",
    "country_zh": "智利",
    "country_iso_code": "CL",
    "timezone": "America/Santiago",
    "latitude": -23.73333,
    "longitude": -70.36667
  },
  {
    "city": "Sarco",
    "city_zh": "Sarco",
    "country": "Chile",
    "country_zh": "智利",
    "country_iso_code": "CL",
    "timezone": "America/Santiago",
    "latitude": -28.81983,
    "longitude": -71.42053
  },
  {
    "city": "Sarayuma",
    "city_zh": "Sarayuma",
    "country": "Chile",
    "country_zh": "智利",
    "country_iso_code": "CL",
    "timezone": "America/Santiago",
    "latitude": -17.82446,
    "longitude": -69.69369
  },
  {
    "city": "Saracota",
    "city_zh": "Saracota",
    "country": "Chile",
    "country_zh": "智利",
    "country_iso_code": "CL",
    "timezone": "America/Santiago",
    "latitude": -18.0841,
    "longitude": -69.17519
  },
  {
    "city": "Sara",
    "city_zh": "Sara",
    "country": "Chile",
    "country_zh": "智利",
    "country_iso_code": "CL",
    "timezone": "America/Santiago",
    "latitude": -25.34203,
    "longitude": -69.86705
  },
  {
    "city": "San Vicente de Tagua Tagua",
    "city_zh": "San Vicente de Tagua Tagua",
    "country": "Chile",
    "country_zh": "智利",
    "country_iso_code": "CL",
    "timezone": "America/Santiago",
    "latitude": -34.43859,
    "longitude": -71.07751
  },
  {
    "city": "San Vicente de Naltagua",
    "city_zh": "San Vicente de Naltagua",
    "country": "Chile",
    "country_zh": "智利",
    "country_iso_code": "CL",
    "timezone": "America/Santiago",
    "latitude": -33.73251,
    "longitude": -70.96031
  },
  {
    "city": "San Vicente de Arrayanes",
    "city_zh": "San Vicente de Arrayanes",
    "country": "Chile",
    "country_zh": "智利",
    "country_iso_code": "CL",
    "timezone": "America/Santiago",
    "latitude": -34.04391,
    "longitude": -71.74748
  },
  {
    "city": "San Vicente",
    "city_zh": "San Vicente",
    "country": "Chile",
    "country_zh": "智利",
    "country_iso_code": "CL",
    "timezone": "America/Santiago",
    "latitude": -36.81795,
    "longitude": -71.89032
  },
  {
    "city": "San Vicente",
    "city_zh": "San Vicente",
    "country": "Chile",
    "country_zh": "智利",
    "country_iso_code": "CL",
    "timezone": "America/Santiago",
    "latitude": -36.72389,
    "longitude": -73.12723
  },
  {
    "city": "San Vicente",
    "city_zh": "San Vicente",
    "country": "Chile",
    "country_zh": "智利",
    "country_iso_code": "CL",
    "timezone": "America/Santiago",
    "latitude": -34.43333,
    "longitude": -71.08333
  },
  {
    "city": "San Vicente",
    "city_zh": "San Vicente",
    "country": "Chile",
    "country_zh": "智利",
    "country_iso_code": "CL",
    "timezone": "America/Santiago",
    "latitude": -34.07005,
    "longitude": -71.72498
  },
  {
    "city": "San Vicente",
    "city_zh": "San Vicente",
    "country": "Chile",
    "country_zh": "智利",
    "country_iso_code": "CL",
    "timezone": "America/Santiago",
    "latitude": -34.03785,
    "longitude": -71.35741
  },
  {
    "city": "Santuario las Peñas",
    "city_zh": "Santuario las Peñas",
    "country": "Chile",
    "country_zh": "智利",
    "country_iso_code": "CL",
    "timezone": "America/Santiago",
    "latitude": -18.5569,
    "longitude": -69.76828
  },
  {
    "city": "Santo Domingo de Lonquén",
    "city_zh": "Santo Domingo de Lonquén",
    "country": "Chile",
    "country_zh": "智利",
    "country_iso_code": "CL",
    "timezone": "America/Santiago",
    "latitude": -33.7,
    "longitude": -70.86667
  },
  {
    "city": "Santiago",
    "city_zh": "圣地亚哥",
    "country": "Chile",
    "country_zh": "智利",
    "country_iso_code": "CL",
    "timezone": "America/Santiago",
    "latitude": -33.45694,
    "longitude": -70.64827
  },
  {
    "city": "Sante Flor De Parajalla",
    "city_zh": "Sante Flor De Parajalla",
    "country": "Chile",
    "country_zh": "智利",
    "country_iso_code": "CL",
    "timezone": "America/Santiago",
    "latitude": -19.10197,
    "longitude": -68.92903
  },
  {
    "city": "Santa Virginia",
    "city_zh": "Santa Virginia",
    "country": "Chile",
    "country_zh": "智利",
    "country_iso_code": "CL",
    "timezone": "America/Santiago",
    "latitude": -32.8,
    "longitude": -70.93333
  },
  {
    "city": "Santa Victoria",
    "city_zh": "Santa Victoria",
    "country": "Chile",
    "country_zh": "智利",
    "country_iso_code": "CL",
    "timezone": "America/Santiago",
    "latitude": -33.80967,
    "longitude": -70.76387
  },
  {
    "city": "Santa Teresa de Lo Ovalle",
    "city_zh": "Santa Teresa de Lo Ovalle",
    "country": "Chile",
    "country_zh": "智利",
    "country_iso_code": "CL",
    "timezone": "America/Santiago",
    "latitude": -33.38333,
    "longitude": -70.78333
  },
  {
    "city": "Santa Teresa",
    "city_zh": "Santa Teresa",
    "country": "Chile",
    "country_zh": "智利",
    "country_iso_code": "CL",
    "timezone": "America/Santiago",
    "latitude": -34.76667,
    "longitude": -71.1
  },
  {
    "city": "Santa Teresa",
    "city_zh": "Santa Teresa",
    "country": "Chile",
    "country_zh": "智利",
    "country_iso_code": "CL",
    "timezone": "America/Santiago",
    "latitude": -33.61667,
    "longitude": -70.76667
  },
  {
    "city": "Santa Teresa",
    "city_zh": "Santa Teresa",
    "country": "Chile",
    "country_zh": "智利",
    "country_iso_code": "CL",
    "timezone": "America/Santiago",
    "latitude": -32.84186,
    "longitude": -70.92752
  },
  {
    "city": "Santa Sara",
    "city_zh": "Santa Sara",
    "country": "Chile",
    "country_zh": "智利",
    "country_iso_code": "CL",
    "timezone": "America/Santiago",
    "latitude": -34.47016,
    "longitude": -71.33001
  },
  {
    "city": "Santa Rosa",
    "city_zh": "Santa Rosa",
    "country": "Chile",
    "country_zh": "智利",
    "country_iso_code": "CL",
    "timezone": "America/Santiago",
    "latitude": -36.39018,
    "longitude": -72.54308
  },
  {
    "city": "Santa Rosa",
    "city_zh": "Santa Rosa",
    "country": "Chile",
    "country_zh": "智利",
    "country_iso_code": "CL",
    "timezone": "America/Santiago",
    "latitude": -35.54773,
    "longitude": -71.74074
  },
  {
    "city": "Santa Rosa",
    "city_zh": "Santa Rosa",
    "country": "Chile",
    "country_zh": "智利",
    "country_iso_code": "CL",
    "timezone": "America/Santiago",
    "latitude": -35.09955,
    "longitude": -71.27329
  },
  {
    "city": "Santa Rosa",
    "city_zh": "Santa Rosa",
    "country": "Chile",
    "country_zh": "智利",
    "country_iso_code": "CL",
    "timezone": "America/Santiago",
    "latitude": -30.68044,
    "longitude": -71.40816
  },
  {
    "city": "Santa Rosa",
    "city_zh": "Santa Rosa",
    "country": "Chile",
    "country_zh": "智利",
    "country_iso_code": "CL",
    "timezone": "America/Santiago",
    "latitude": -34.84375,
    "longitude": -71.05562
  },
  {
    "city": "Santa Rosa",
    "city_zh": "Santa Rosa",
    "country": "Chile",
    "country_zh": "智利",
    "country_iso_code": "CL",
    "timezone": "America/Santiago",
    "latitude": -33.62346,
    "longitude": -71.26327
  },
  {
    "city": "Santa Rita de Pirque",
    "city_zh": "Santa Rita de Pirque",
    "country": "Chile",
    "country_zh": "智利",
    "country_iso_code": "CL",
    "timezone": "America/Santiago",
    "latitude": -33.67121,
    "longitude": -70.53068
  },
  {
    "city": "Santa Mónica",
    "city_zh": "Santa Mónica",
    "country": "Chile",
    "country_zh": "智利",
    "country_iso_code": "CL",
    "timezone": "America/Santiago",
    "latitude": -34.14777,
    "longitude": -71.82971
  },
  {
    "city": "Santa Melania",
    "city_zh": "Santa Melania",
    "country": "Chile",
    "country_zh": "智利",
    "country_iso_code": "CL",
    "timezone": "America/Santiago",
    "latitude": -34.41667,
    "longitude": -70.85
  },
  {
    "city": "Santa María",
    "city_zh": "Santa María",
    "country": "Chile",
    "country_zh": "智利",
    "country_iso_code": "CL",
    "timezone": "America/Santiago",
    "latitude": -38.81667,
    "longitude": -71.66667
  },
  {
    "city": "Santa María",
    "city_zh": "Santa María",
    "country": "Chile",
    "country_zh": "智利",
    "country_iso_code": "CL",
    "timezone": "America/Santiago",
    "latitude": -32.74732,
    "longitude": -70.65666
  },
  {
    "city": "Santa Margarita",
    "city_zh": "Santa Margarita",
    "country": "Chile",
    "country_zh": "智利",
    "country_iso_code": "CL",
    "timezone": "America/Santiago",
    "latitude": -33.26667,
    "longitude": -70.63333
  },
  {
    "city": "Santa Lucía",
    "city_zh": "Santa Lucía",
    "country": "Chile",
    "country_zh": "智利",
    "country_iso_code": "CL",
    "timezone": "America/Santiago",
    "latitude": -35.05839,
    "longitude": -71.19311
  },
  {
    "city": "Santa Lucía",
    "city_zh": "Santa Lucía",
    "country": "Chile",
    "country_zh": "智利",
    "country_iso_code": "CL",
    "timezone": "America/Santiago",
    "latitude": -30.62126,
    "longitude": -71.12535
  },
  {
    "city": "Santa Loreto",
    "city_zh": "Santa Loreto",
    "country": "Chile",
    "country_zh": "智利",
    "country_iso_code": "CL",
    "timezone": "America/Santiago",
    "latitude": -33.65,
    "longitude": -70.9
  },
  {
    "city": "Santa Julia",
    "city_zh": "Santa Julia",
    "country": "Chile",
    "country_zh": "智利",
    "country_iso_code": "CL",
    "timezone": "America/Santiago",
    "latitude": -33.47063,
    "longitude": -70.5959
  },
  {
    "city": "Santa Juana",
    "city_zh": "Santa Juana",
    "country": "Chile",
    "country_zh": "智利",
    "country_iso_code": "CL",
    "timezone": "America/Santiago",
    "latitude": -37.1751,
    "longitude": -72.9433
  },
  {
    "city": "Santa Inés",
    "city_zh": "Santa Inés",
    "country": "Chile",
    "country_zh": "智利",
    "country_iso_code": "CL",
    "timezone": "America/Santiago",
    "latitude": -33.65,
    "longitude": -70.76667
  },
  {
    "city": "Santa Inés",
    "city_zh": "Santa Inés",
    "country": "Chile",
    "country_zh": "智利",
    "country_iso_code": "CL",
    "timezone": "America/Santiago",
    "latitude": -33.48968,
    "longitude": -71.00365
  },
  {
    "city": "Santa Inés",
    "city_zh": "Santa Inés",
    "country": "Chile",
    "country_zh": "智利",
    "country_iso_code": "CL",
    "timezone": "America/Santiago",
    "latitude": -32.14724,
    "longitude": -71.48633
  },
  {
    "city": "Santa Gracia",
    "city_zh": "Santa Gracia",
    "country": "Chile",
    "country_zh": "智利",
    "country_iso_code": "CL",
    "timezone": "America/Santiago",
    "latitude": -29.75,
    "longitude": -71.05
  },
  {
    "city": "Santa Gracia",
    "city_zh": "Santa Gracia",
    "country": "Chile",
    "country_zh": "智利",
    "country_iso_code": "CL",
    "timezone": "America/Santiago",
    "latitude": -29.74516,
    "longitude": -71.11908
  },
  {
    "city": "Santa Florencia",
    "city_zh": "Santa Florencia",
    "country": "Chile",
    "country_zh": "智利",
    "country_iso_code": "CL",
    "timezone": "America/Santiago",
    "latitude": -29.9699,
    "longitude": -71.32076
  },
  {
    "city": "Santa Filomena",
    "city_zh": "Santa Filomena",
    "country": "Chile",
    "country_zh": "智利",
    "country_iso_code": "CL",
    "timezone": "America/Santiago",
    "latitude": -36.94862,
    "longitude": -71.99259
  },
  {
    "city": "Santa Filomena",
    "city_zh": "Santa Filomena",
    "country": "Chile",
    "country_zh": "智利",
    "country_iso_code": "CL",
    "timezone": "America/Santiago",
    "latitude": -32.69355,
    "longitude": -70.61409
  },
  {
    "city": "Colonia Santa Fé",
    "city_zh": "Colonia Santa Fé",
    "country": "Chile",
    "country_zh": "智利",
    "country_iso_code": "CL",
    "timezone": "America/Santiago",
    "latitude": -37.46486,
    "longitude": -72.58254
  },
  {
    "city": "Santa Fe",
    "city_zh": "Santa Fe",
    "country": "Chile",
    "country_zh": "智利",
    "country_iso_code": "CL",
    "timezone": "America/Santiago",
    "latitude": -26.41624,
    "longitude": -70.18076
  },
  {
    "city": "Santa Elvira",
    "city_zh": "Santa Elvira",
    "country": "Chile",
    "country_zh": "智利",
    "country_iso_code": "CL",
    "timezone": "America/Santiago",
    "latitude": -33.66667,
    "longitude": -71.21667
  },
  {
    "city": "Santa Elena",
    "city_zh": "Santa Elena",
    "country": "Chile",
    "country_zh": "智利",
    "country_iso_code": "CL",
    "timezone": "America/Santiago",
    "latitude": -18.69275,
    "longitude": -69.52167
  },
  {
    "city": "Santa Cruz",
    "city_zh": "Santa Cruz",
    "country": "Chile",
    "country_zh": "智利",
    "country_iso_code": "CL",
    "timezone": "America/Santiago",
    "latitude": -36.26891,
    "longitude": -72.54629
  },