[
  {
    "city": "Trujillo",
    "city_zh": "Trujillo",
    "country": "Cuba",
    "country_zh": "古巴",
    "country_iso_code": "CU",
    "timezone": "America/Havana",
    "latitude": 22.20942,
    "longitude": -80.45971
  },
  {
    "city": "Esteban Hernández",
    "city_zh": "Esteban Hernández",
    "country": "Cuba",
    "country_zh": "古巴",
    "country_iso_code": "CU",
    "timezone": "America/Havana",
    "latitude": 22.95198,
    "longitude": -80.93755
  },
  {
    "city": "La Zurrapa",
    "city_zh": "La Zurrapa",
    "country": "Cuba",
    "country_zh": "古巴",
    "country_iso_code": "CU",
    "timezone": "America/Havana",
    "latitude": 22.04013,
    "longitude": -79.41515
  },
  {
    "city": "Zumalacarry",
    "city_zh": "Zumalacarry",
    "country": "Cuba",
    "country_zh": "古巴",
    "country_iso_code": "CU",
    "timezone": "America/Havana",
    "latitude": 22.56067,
    "longitude": -83.15784
  },
  {
    "city": "Zulueta del Sur",
    "city_zh": "Zulueta del Sur",
    "country": "Cuba",
    "country_zh": "古巴",
    "country_iso_code": "CU",
    "timezone": "America/Havana",
    "latitude": 22.35,
    "longitude": -79.58333
  },
  {
    "city": "Zulueta",
    "city_zh": "Zulueta",
    "country": "Cuba",
    "country_zh": "古巴",
    "country_iso_code": "CU",
    "timezone": "America/Havana",
    "latitude": 22.36747,
    "longitude": -79.56884
  },
  {
    "city": "Zuarnaba",
    "city_zh": "Zuarnaba",
    "country": "Cuba",
    "country_zh": "古巴",
    "country_iso_code": "CU",
    "timezone": "America/Havana",
    "latitude": 22.75,
    "longitude": -80.71667
  },
  {
    "city": "Zorrilla",
    "city_zh": "Zorrilla",
    "country": "Cuba",
    "country_zh": "古巴",
    "country_iso_code": "CU",
    "timezone": "America/Havana",
    "latitude": 23.01667,
    "longitude": -81.86667
  },
  {
    "city": "Zorral",
    "city_zh": "Zorral",
    "country": "Cuba",
    "country_zh": "古巴",
    "country_iso_code": "CU",
    "timezone": "America/Havana",
    "latitude": 21.01667,
    "longitude": -77.56667
  },
  {
    "city": "Zona del Central Stewart",
    "city_zh": "Zona del Central Stewart",
    "country": "Cuba",
    "country_zh": "古巴",
    "country_iso_code": "CU",
    "timezone": "America/Havana",
    "latitude": 21.74019,
    "longitude": -78.79417
  },
  {
    "city": "Zona de Calicito",
    "city_zh": "Zona de Calicito",
    "country": "Cuba",
    "country_zh": "古巴",
    "country_iso_code": "CU",
    "timezone": "America/Havana",
    "latitude": 20.25,
    "longitude": -77.18333
  },
  {
    "city": "Zoila",
    "city_zh": "Zoila",
    "country": "Cuba",
    "country_zh": "古巴",
    "country_iso_code": "CU",
    "timezone": "America/Havana",
    "latitude": 20.9,
    "longitude": -77.26667
  },
  {
    "city": "Zequeira",
    "city_zh": "Zequeira",
    "country": "Cuba",
    "country_zh": "古巴",
    "country_iso_code": "CU",
    "timezone": "America/Havana",
    "latitude": 22.88985,
    "longitude": -81.4527
  },
  {
    "city": "Zenea",
    "city_zh": "Zenea",
    "country": "Cuba",
    "country_zh": "古巴",
    "country_iso_code": "CU",
    "timezone": "America/Havana",
    "latitude": 22.98333,
    "longitude": -82.08333
  },
  {
    "city": "Zaza del Medio",
    "city_zh": "Zaza del Medio",
    "country": "Cuba",
    "country_zh": "古巴",
    "country_iso_code": "CU",
    "timezone": "America/Havana",
    "latitude": 21.99712,
    "longitude": -79.36678
  },
  {
    "city": "Zaza",
    "city_zh": "Zaza",
    "country": "Cuba",
    "country_zh": "古巴",
    "country_iso_code": "CU",
    "timezone": "America/Havana",
    "latitude": 22.28333,
    "longitude": -79.63333
  },
  {
    "city": "Zayas",
    "city_zh": "Zayas",
    "country": "Cuba",
    "country_zh": "古巴",
    "country_iso_code": "CU",
    "timezone": "America/Havana",
    "latitude": 22.81869,
    "longitude": -82.79452
  },
  {
    "city": "Zayas",
    "city_zh": "Zayas",
    "country": "Cuba",
    "country_zh": "古巴",
    "country_iso_code": "CU",
    "timezone": "America/Havana",
    "latitude": 22.74324,
    "longitude": -82.25962
  },
  {
    "city": "Zayas",
    "city_zh": "Zayas",
    "country": "Cuba",
    "country_zh": "古巴",
    "country_iso_code": "CU",
    "timezone": "America/Havana",
    "latitude": 22.73108,
    "longitude": -81.44916
  },
  {
    "city": "Zarzal",
    "city_zh": "Zarzal",
    "country": "Cuba",
    "country_zh": "古巴",
    "country_iso_code": "CU",
    "timezone": "America/Havana",
    "latitude": 22.21667,
    "longitude": -84.08333
  },
  {
    "city": "Zarzal",
    "city_zh": "Zarzal",
    "country": "Cuba",
    "country_zh": "古巴",
    "country_iso_code": "CU",
    "timezone": "America/Havana",
    "latitude": 20.19034,
    "longitude": -76.95258
  },
  {
    "city": "Zarzal",
    "city_zh": "Zarzal",
    "country": "Cuba",
    "country_zh": "古巴",
    "country_iso_code": "CU",
    "timezone": "America/Havana",
    "latitude": 22.24475,
    "longitude": -78.57687
  },
  {
    "city": "Zaza Gorda",
    "city_zh": "Zaza Gorda",
    "country": "Cuba",
    "country_zh": "古巴",
    "country_iso_code": "CU",
    "timezone": "America/Havana",
    "latitude": 22.17183,
    "longitude": -79.43994
  },
  {
    "city": "Zaragoza",
    "city_zh": "Zaragoza",
    "country": "Cuba",
    "country_zh": "古巴",
    "country_iso_code": "CU",
    "timezone": "America/Havana",
    "latitude": 22.93456,
    "longitude": -82.03602
  },
  {
    "city": "Zaragoza",
    "city_zh": "Zaragoza",
    "country": "Cuba",
    "country_zh": "古巴",
    "country_iso_code": "CU",
    "timezone": "America/Havana",
    "latitude": 21.86273,
    "longitude": -78.8076
  },
  {
    "city": "Zarabanda",
    "city_zh": "Zarabanda",
    "country": "Cuba",
    "country_zh": "古巴",
    "country_iso_code": "CU",
    "timezone": "America/Havana",
    "latitude": 22.38395,
    "longitude": -81.01383
  },
  {
    "city": "Zar",
    "city_zh": "Zar",
    "country": "Cuba",
    "country_zh": "古巴",
    "country_iso_code": "CU",
    "timezone": "America/Havana",
    "latitude": 22.58333,
    "longitude": -81.11667
  },
  {
    "city": "Zapote",
    "city_zh": "Zapote",
    "country": "Cuba",
    "country_zh": "古巴",
    "country_iso_code": "CU",
    "timezone": "America/Havana",
    "latitude": 22.81667,
    "longitude": -82.03333
  },
  {
    "city": "Zapote",
    "city_zh": "Zapote",
    "country": "Cuba",
    "country_zh": "古巴",
    "country_iso_code": "CU",
    "timezone": "America/Havana",
    "latitude": 22.74886,
    "longitude": -82.12982
  },
  {
    "city": "Zapatero",
    "city_zh": "Zapatero",
    "country": "Cuba",
    "country_zh": "古巴",
    "country_iso_code": "CU",
    "timezone": "America/Havana",
    "latitude": 22.25736,
    "longitude": -80.03424
  },
  {
    "city": "Zana Batey",
    "city_zh": "Zana Batey",
    "country": "Cuba",
    "country_zh": "古巴",
    "country_iso_code": "CU",
    "timezone": "America/Havana",
    "latitude": 22.81667,
    "longitude": -81.01667
  },
  {
    "city": "Zamora",
    "city_zh": "Zamora",
    "country": "Cuba",
    "country_zh": "古巴",
    "country_iso_code": "CU",
    "timezone": "America/Havana",
    "latitude": 20.60722,
    "longitude": -76.74639
  },
  {
    "city": "Zambumbia",
    "city_zh": "Zambumbia",
    "country": "Cuba",
    "country_zh": "古巴",
    "country_iso_code": "CU",
    "timezone": "America/Havana",
    "latitude": 22.83333,
    "longitude": -80.3
  },
  {
    "city": "Zambrana",
    "city_zh": "Zambrana",
    "country": "Cuba",
    "country_zh": "古巴",
    "country_iso_code": "CU",
    "timezone": "America/Havana",
    "latitude": 22.3,
    "longitude": -80.83333
  },
  {
    "city": "Zamacois",
    "city_zh": "Zamacois",
    "country": "Cuba",
    "country_zh": "古巴",
    "country_iso_code": "CU",
    "timezone": "America/Havana",
    "latitude": 22.33333,
    "longitude": -83.73333
  },
  {
    "city": "Zaldívar",
    "city_zh": "Zaldívar",
    "country": "Cuba",
    "country_zh": "古巴",
    "country_iso_code": "CU",
    "timezone": "America/Havana",
    "latitude": 20.96667,
    "longitude": -75.83333
  },
  {
    "city": "Sacaria",
    "city_zh": "Sacaria",
    "country": "Cuba",
    "country_zh": "古巴",
    "country_iso_code": "CU",
    "timezone": "America/Havana",
    "latitude": 22.98178,
    "longitude": -82.14516
  },
  {
    "city": "Zabala",
    "city_zh": "Zabala",
    "country": "Cuba",
    "country_zh": "古巴",
    "country_iso_code": "CU",
    "timezone": "America/Havana",
    "latitude": 20.58333,
    "longitude": -75.23333
  },
  {
    "city": "Yuraguana",
    "city_zh": "Yuraguana",
    "country": "Cuba",
    "country_zh": "古巴",
    "country_iso_code": "CU",
    "timezone": "America/Havana",
    "latitude": 19.97703,
    "longitude": -77.56184
  },
  {
    "city": "Yumurí",
    "city_zh": "Yumurí",
    "country": "Cuba",
    "country_zh": "古巴",
    "country_iso_code": "CU",
    "timezone": "America/Havana",
    "latitude": 21.75417,
    "longitude": -78.75611
  },
  {
    "city": "Yumaisy",
    "city_zh": "Yumaisy",
    "country": "Cuba",
    "country_zh": "古巴",
    "country_iso_code": "CU",
    "timezone": "America/Havana",
    "latitude": 21.35461,
    "longitude": -77.35978
  },
  {
    "city": "Yucayo",
    "city_zh": "Yucayo",
    "country": "Cuba",
    "country_zh": "古巴",
    "country_iso_code": "CU",
    "timezone": "America/Havana",
    "latitude": 22.62822,
    "longitude": -83.14479
  },
  {
    "city": "Yucayo",
    "city_zh": "Yucayo",
    "country": "Cuba",
    "country_zh": "古巴",
    "country_iso_code": "CU",
    "timezone": "America/Havana",
    "latitude": 20.47875,
    "longitude": -76.8119
  },
  {
    "city": "Yirimia",
    "city_zh": "Yirimia",
    "country": "Cuba",
    "country_zh": "古巴",
    "country_iso_code": "CU",
    "timezone": "America/Havana",
    "latitude": 20.48243,
    "longitude": -75.32693
  },
  {
    "city": "Yince",
    "city_zh": "Yince",
    "country": "Cuba",
    "country_zh": "古巴",
    "country_iso_code": "CU",
    "timezone": "America/Havana",
    "latitude": 22.83111,
    "longitude": -81.3
  },
  {
    "city": "Yerba de Guinea",
    "city_zh": "Yerba de Guinea",
    "country": "Cuba",
    "country_zh": "古巴",
    "country_iso_code": "CU",
    "timezone": "America/Havana",
    "latitude": 20.09178,
    "longitude": -75.52656
  },
  {
    "city": "Yaya",
    "city_zh": "Yaya",
    "country": "Cuba",
    "country_zh": "古巴",
    "country_iso_code": "CU",
    "timezone": "America/Havana",
    "latitude": 22.51667,
    "longitude": -80.76667
  },
  {
    "city": "Ya Veremos",
    "city_zh": "Ya Veremos",
    "country": "Cuba",
    "country_zh": "古巴",
    "country_iso_code": "CU",
    "timezone": "America/Havana",
    "latitude": 20.37574,
    "longitude": -76.08989
  },
  {
    "city": "Yateritas",
    "city_zh": "Yateritas",
    "country": "Cuba",
    "country_zh": "古巴",
    "country_iso_code": "CU",
    "timezone": "America/Havana",
    "latitude": 19.99572,
    "longitude": -74.9938
  },
  {
    "city": "Yareyal Viejo",
    "city_zh": "Yareyal Viejo",
    "country": "Cuba",
    "country_zh": "古巴",
    "country_iso_code": "CU",
    "timezone": "America/Havana",
    "latitude": 20.87222,
    "longitude": -76.36806
  },
  {
    "city": "Yarayal",
    "city_zh": "Yarayal",
    "country": "Cuba",
    "country_zh": "古巴",
    "country_iso_code": "CU",
    "timezone": "America/Havana",
    "latitude": 20.8728,
    "longitude": -76.35072
  },
  {
    "city": "Yareniquén",
    "city_zh": "Yareniquén",
    "country": "Cuba",
    "country_zh": "古巴",
    "country_iso_code": "CU",
    "timezone": "America/Havana",
    "latitude": 20.9925,
    "longitude": -76.28167
  },
  {
    "city": "Yarayabo",
    "city_zh": "Yarayabo",
    "country": "Cuba",
    "country_zh": "古巴",
    "country_iso_code": "CU",
    "timezone": "America/Havana",
    "latitude": 20.15643,
    "longitude": -75.94528
  },
  {
    "city": "Yaraguanal",
    "city_zh": "Yaraguanal",
    "country": "Cuba",
    "country_zh": "古巴",
    "country_iso_code": "CU",
    "timezone": "America/Havana",
    "latitude": 21.63333,
    "longitude": -78.03333
  },
  {
    "city": "Yaragabo",
    "city_zh": "Yaragabo",
    "country": "Cuba",
    "country_zh": "古巴",
    "country_iso_code": "CU",
    "timezone": "America/Havana",
    "latitude": 20.1,
    "longitude": -77.43333
  },
  {
    "city": "Yaragabo",
    "city_zh": "Yaragabo",
    "country": "Cuba",
    "country_zh": "古巴",
    "country_iso_code": "CU",
    "timezone": "America/Havana",
    "latitude": 20.08333,
    "longitude": -77.41667
  },
  {
    "city": "Yara Arriba",
    "city_zh": "Yara Arriba",
    "country": "Cuba",
    "country_zh": "古巴",
    "country_iso_code": "CU",
    "timezone": "America/Havana",
    "latitude": 20.22384,
    "longitude": -76.96613
  },
  {
    "city": "Yara",
    "city_zh": "Yara",
    "country": "Cuba",
    "country_zh": "古巴",
    "country_iso_code": "CU",
    "timezone": "America/Havana",
    "latitude": 22.50722,
    "longitude": -80.79472
  },
  {
    "city": "Yara",
    "city_zh": "Yara",
    "country": "Cuba",
    "country_zh": "古巴",
    "country_iso_code": "CU",
    "timezone": "America/Havana",
    "latitude": 20.27465,
    "longitude": -76.95132
  },
  {
    "city": "Yáquimo",
    "city_zh": "Yáquimo",
    "country": "Cuba",
    "country_zh": "古巴",
    "country_iso_code": "CU",
    "timezone": "America/Havana",
    "latitude": 20.78333,
    "longitude": -77.65
  },
  {
    "city": "Yániz",
    "city_zh": "Yániz",
    "country": "Cuba",
    "country_zh": "古巴",
    "country_iso_code": "CU",
    "timezone": "America/Havana",
    "latitude": 22.83333,
    "longitude": -79.98333
  },
  {
    "city": "Yumurí",
    "city_zh": "Yumurí",
    "country": "Cuba",
    "country_zh": "古巴",
    "country_iso_code": "CU",
    "timezone": "America/Havana",
    "latitude": 22.44473,
    "longitude": -80.29161
  },
  {
    "city": "Yamagueyes",
    "city_zh": "Yamagueyes",
    "country": "Cuba",
    "country_zh": "古巴",
    "country_iso_code": "CU",
    "timezone": "America/Havana",
    "latitude": 20.77667,
    "longitude": -77.59594
  },
  {
    "city": "Yamagual",
    "city_zh": "Yamagual",
    "country": "Cuba",
    "country_zh": "古巴",
    "country_iso_code": "CU",
    "timezone": "America/Havana",
    "latitude": 20.5,
    "longitude": -75.21667
  },
  {
    "city": "Yamagual",
    "city_zh": "Yamagual",
    "country": "Cuba",
    "country_zh": "古巴",
    "country_iso_code": "CU",
    "timezone": "America/Havana",
    "latitude": 20.31667,
    "longitude": -76.93333
  },
  {
    "city": "Yamagua de Puyáns",
    "city_zh": "Yamagua de Puyáns",
    "country": "Cuba",
    "country_zh": "古巴",
    "country_iso_code": "CU",
    "timezone": "America/Havana",
    "latitude": 20.4,
    "longitude": -75.55
  },
  {
    "city": "La Yamagua Abajo",
    "city_zh": "La Yamagua Abajo",
    "country": "Cuba",
    "country_zh": "古巴",
    "country_iso_code": "CU",
    "timezone": "America/Havana",
    "latitude": 20.03538,
    "longitude": -76.23832
  },
  {
    "city": "Yagüey",
    "city_zh": "Yagüey",
    "country": "Cuba",
    "country_zh": "古巴",
    "country_iso_code": "CU",
    "timezone": "America/Havana",
    "latitude": 22.41756,
    "longitude": -79.4145
  },
  {
    "city": "Yaguaramas",
    "city_zh": "Yaguaramas",
    "country": "Cuba",
    "country_zh": "古巴",
    "country_iso_code": "CU",
    "timezone": "America/Havana",
    "latitude": 22.25451,
    "longitude": -80.72196
  },
  {
    "city": "Yaguaramas",
    "city_zh": "Yaguaramas",
    "country": "Cuba",
    "country_zh": "古巴",
    "country_iso_code": "CU",
    "timezone": "America/Havana",
    "latitude": 21.76476,
    "longitude": -79.72964
  },
  {
    "city": "Yaguaneque",
    "city_zh": "Yaguaneque",
    "country": "Cuba",
    "country_zh": "古巴",
    "country_iso_code": "CU",
    "timezone": "America/Havana",
    "latitude": 20.65317,
    "longitude": -75.06836
  },
  {
    "city": "Yaguanabo Arriba",
    "city_zh": "Yaguanabo Arriba",
    "country": "Cuba",
    "country_zh": "古巴",
    "country_iso_code": "CU",
    "timezone": "America/Havana",
    "latitude": 21.89229,
    "longitude": -80.1916
  },
  {
    "city": "Yaguajay Arriba",
    "city_zh": "Yaguajay Arriba",
    "country": "Cuba",
    "country_zh": "古巴",
    "country_iso_code": "CU",
    "timezone": "America/Havana",
    "latitude": 21.0857,
    "longitude": -75.81323
  },
  {
    "city": "Yaguajay",
    "city_zh": "Yaguajay",
    "country": "Cuba",
    "country_zh": "古巴",
    "country_iso_code": "CU",
    "timezone": "America/Havana",
    "latitude": 22.32691,
    "longitude": -79.23567
  },
  {
    "city": "Yaguajay",
    "city_zh": "Yaguajay",
    "country": "Cuba",
    "country_zh": "古巴",
    "country_iso_code": "CU",
    "timezone": "America/Havana",
    "latitude": 21.10269,
    "longitude": -75.81465
  },
  {
    "city": "Yaguabo",
    "city_zh": "Yaguabo",
    "country": "Cuba",
    "country_zh": "古巴",
    "country_iso_code": "CU",
    "timezone": "America/Havana",
    "latitude": 20.75983,
    "longitude": -77.90099
  },
  {
    "city": "Yaguabo",
    "city_zh": "Yaguabo",
    "country": "Cuba",
    "country_zh": "古巴",
    "country_iso_code": "CU",
    "timezone": "America/Havana",
    "latitude": 20.632,
    "longitude": -76.42299
  },
  {
    "city": "Las Yaguas",
    "city_zh": "Las Yaguas",
    "country": "Cuba",
    "country_zh": "古巴",
    "country_iso_code": "CU",
    "timezone": "America/Havana",
    "latitude": 22.45866,
    "longitude": -80.76017
  },
  {
    "city": "Yagua",
    "city_zh": "Yagua",
    "country": "Cuba",
    "country_zh": "古巴",
    "country_iso_code": "CU",
    "timezone": "America/Havana",
    "latitude": 21.74741,
    "longitude": -79.44454
  },
  {
    "city": "Yacabo Abajo",
    "city_zh": "Yacabo Abajo",
    "country": "Cuba",
    "country_zh": "古巴",
    "country_iso_code": "CU",
    "timezone": "America/Havana",
    "latitude": 20.061,
    "longitude": -74.69084
  },
  {
    "city": "Yabunales",
    "city_zh": "Yabunales",
    "country": "Cuba",
    "country_zh": "古巴",
    "country_iso_code": "CU",
    "timezone": "America/Havana",
    "latitude": 22.51667,
    "longitude": -83.55
  },
  {
    "city": "Yabucito",
    "city_zh": "Yabucito",
    "country": "Cuba",
    "country_zh": "古巴",
    "country_iso_code": "CU",
    "timezone": "America/Havana",
    "latitude": 22.58361,
    "longitude": -80.15111
  },
  {
    "city": "Yabú",
    "city_zh": "Yabú",
    "country": "Cuba",
    "country_zh": "古巴",
    "country_iso_code": "CU",
    "timezone": "America/Havana",
    "latitude": 22.59321,
    "longitude": -80.12403
  },
  {
    "city": "Yabazón Abajo",
    "city_zh": "Yabazón Abajo",
    "country": "Cuba",
    "country_zh": "古巴",
    "country_iso_code": "CU",
    "timezone": "America/Havana",
    "latitude": 21.02851,
    "longitude": -76.18242
  },
  {
    "city": "Xenes",
    "city_zh": "Xenes",
    "country": "Cuba",
    "country_zh": "古巴",
    "country_iso_code": "CU",
    "timezone": "America/Havana",
    "latitude": 22.96667,
    "longitude": -81.81667
  },
  {
    "city": "Xavier",
    "city_zh": "Xavier",
    "country": "Cuba",
    "country_zh": "古巴",
    "country_iso_code": "CU",
    "timezone": "America/Havana",
    "latitude": 20.31667,
    "longitude": -76.11667
  },
  {
    "city": "Woodfred",
    "city_zh": "Woodfred",
    "country": "Cuba",
    "country_zh": "古巴",
    "country_iso_code": "CU",
    "timezone": "America/Havana",
    "latitude": 20.56667,
    "longitude": -75.71667
  },
  {
    "city": "William Soler",
    "city_zh": "William Soler",
    "country": "Cuba",
    "country_zh": "古巴",
    "country_iso_code": "CU",
    "timezone": "America/Havana",
    "latitude": 22.64513,
    "longitude": -81.1386
  },
  {
    "city": "Wilfredo Pagés",
    "city_zh": "Wilfredo Pagés",
    "country": "Cuba",
    "country_zh": "古巴",
    "country_iso_code": "CU",
    "timezone": "America/Havana",
    "latitude": 22.55567,
    "longitude": -80.03521
  },
  {
    "city": "Warren",
    "city_zh": "Warren",
    "country": "Cuba",
    "country_zh": "古巴",
    "country_iso_code": "CU",
    "timezone": "America/Havana",
    "latitude": 21.73333,
    "longitude": -78.71667
  },
  {
    "city": "Wajay",
    "city_zh": "Wajay",
    "country": "Cuba",
    "country_zh": "古巴",
    "country_iso_code": "CU",
    "timezone": "America/Havana",
    "latitude": 22.83944,
    "longitude": -81.67389
  },
  {
    "city": "Wajay",
    "city_zh": "Wajay",
    "country": "Cuba",
    "country_zh": "古巴",
    "country_iso_code": "CU",
    "timezone": "America/Havana",
    "latitude": 23.00308,
    "longitude": -82.4238
  },
  {
    "city": "Vuelta Larga",
    "city_zh": "Vuelta Larga",
    "country": "Cuba",
    "country_zh": "古巴",
    "country_iso_code": "CU",
    "timezone": "America/Havana",
    "latitude": 20.70214,
    "longitude": -75.62211
  },
  {
    "city": "Voladoras",
    "city_zh": "Voladoras",
    "country": "Cuba",
    "country_zh": "古巴",
    "country_iso_code": "CU",
    "timezone": "America/Havana",
    "latitude": 22.56806,
    "longitude": -80.52222
  },
  {
    "city": "Vivó",
    "city_zh": "Vivó",
    "country": "Cuba",
    "country_zh": "古巴",
    "country_iso_code": "CU",
    "timezone": "America/Havana",
    "latitude": 22.76667,
    "longitude": -82.93333
  },
  {
    "city": "Vivian",
    "city_zh": "Vivian",
    "country": "Cuba",
    "country_zh": "古巴",
    "country_iso_code": "CU",
    "timezone": "America/Havana",
    "latitude": 20.65306,
    "longitude": -76.55972
  },
  {
    "city": "Vivero",
    "city_zh": "Vivero",
    "country": "Cuba",
    "country_zh": "古巴",
    "country_iso_code": "CU",
    "timezone": "America/Havana",
    "latitude": 22.28333,
    "longitude": -83.81667
  },
  {
    "city": "Vivanco",
    "city_zh": "Vivanco",
    "country": "Cuba",
    "country_zh": "古巴",
    "country_iso_code": "CU",
    "timezone": "America/Havana",
    "latitude": 22.45111,
    "longitude": -83.40993
  },
  {
    "city": "Viuda Victoria",
    "city_zh": "Viuda Victoria",
    "country": "Cuba",
    "country_zh": "古巴",
    "country_iso_code": "CU",
    "timezone": "America/Havana",
    "latitude": 19.98694,
    "longitude": -75.98222
  },
  {
    "city": "La Vistosa",
    "city_zh": "La Vistosa",
    "country": "Cuba",
    "country_zh": "古巴",
    "country_iso_code": "CU",
    "timezone": "America/Havana",
    "latitude": 21.14742,
    "longitude": -77.79021
  },
  {
    "city": "Vista Larga",
    "city_zh": "Vista Larga",
    "country": "Cuba",
    "country_zh": "古巴",
    "country_iso_code": "CU",
    "timezone": "America/Havana",
    "latitude": 23.05,
    "longitude": -81.78333
  },
  {
    "city": "Vista Hermosa",
    "city_zh": "Vista Hermosa",
    "country": "Cuba",
    "country_zh": "古巴",
    "country_iso_code": "CU",
    "timezone": "America/Havana",
    "latitude": 22.95,
    "longitude": -82.4
  },
  {
    "city": "Vista Hermosa",
    "city_zh": "Vista Hermosa",
    "country": "Cuba",
    "country_zh": "古巴",
    "country_iso_code": "CU",
    "timezone": "America/Havana",
    "latitude": 22.9,
    "longitude": -80.58333
  },
  {
    "city": "Vista Hermosa",
    "city_zh": "Vista Hermosa",
    "country": "Cuba",
    "country_zh": "古巴",
    "country_iso_code": "CU",
    "timezone": "America/Havana",
    "latitude": 22.65,
    "longitude": -83.35
  },
  {
    "city": "Vista Hermosa",
    "city_zh": "Vista Hermosa",
    "country": "Cuba",
    "country_zh": "古巴",
    "country_iso_code": "CU",
    "timezone": "America/Havana",
    "latitude": 22.65,
    "longitude": -81.51667
  },
  {
    "city": "Vista Hermosa",
    "city_zh": "Vista Hermosa",
    "country": "Cuba",
    "country_zh": "古巴",
    "country_iso_code": "CU",
    "timezone": "America/Havana",
    "latitude": 22.45,
    "longitude": -83.53333
  },
  {
    "city": "Vista Hermosa",
    "city_zh": "Vista Hermosa",
    "country": "Cuba",
    "country_zh": "古巴",
    "country_iso_code": "CU",
    "timezone": "America/Havana",
    "latitude": 22.397,
    "longitude": -83.78077
  },
  {
    "city": "Vista Hermosa",
    "city_zh": "Vista Hermosa",
    "country": "Cuba",
    "country_zh": "古巴",
    "country_iso_code": "CU",
    "timezone": "America/Havana",
    "latitude": 22.23333,
    "longitude": -80.4
  },
  {
    "city": "Vistahermosa",
    "city_zh": "Vistahermosa",
    "country": "Cuba",
    "country_zh": "古巴",
    "country_iso_code": "CU",
    "timezone": "America/Havana",
    "latitude": 21.97528,
    "longitude": -78.82056
  },
  {
    "city": "Vista Hermosa",
    "city_zh": "Vista Hermosa",
    "country": "Cuba",
    "country_zh": "古巴",
    "country_iso_code": "CU",
    "timezone": "America/Havana",
    "latitude": 21.05,
    "longitude": -76.1
  },
  {
    "city": "Vista Hermosa",
    "city_zh": "Vista Hermosa",
    "country": "Cuba",
    "country_zh": "古巴",
    "country_iso_code": "CU",
    "timezone": "America/Havana",
    "latitude": 20.9,
    "longitude": -77.11667
  },
  {
    "city": "Vista Hermosa",
    "city_zh": "Vista Hermosa",
    "country": "Cuba",
    "country_zh": "古巴",
    "country_iso_code": "CU",
    "timezone": "America/Havana",
    "latitude": 20.12944,
    "longitude": -75.23472
  },
  {
    "city": "Vista Hermosa",
    "city_zh": "Vista Hermosa",
    "country": "Cuba",
    "country_zh": "古巴",
    "country_iso_code": "CU",
    "timezone": "America/Havana",
    "latitude": 23.00552,
    "longitude": -80.59537
  },
  {
    "city": "Vista Hermosa",
    "city_zh": "Vista Hermosa",
    "country": "Cuba",
    "country_zh": "古巴",
    "country_iso_code": "CU",
    "timezone": "America/Havana",
    "latitude": 22.64452,
    "longitude": -81.42585
  },
  {
    "city": "Vista Hermosa",
    "city_zh": "Vista Hermosa",
    "country": "Cuba",
    "country_zh": "古巴",
    "country_iso_code": "CU",
    "timezone": "America/Havana",
    "latitude": 22.61845,
    "longitude": -79.75725
  },
  {
    "city": "Vista Hermosa",
    "city_zh": "Vista Hermosa",
    "country": "Cuba",
    "country_zh": "古巴",
    "country_iso_code": "CU",
    "timezone": "America/Havana",
    "latitude": 22.54211,
    "longitude": -80.41105
  },
  {
    "city": "Vista Hermosa",
    "city_zh": "Vista Hermosa",
    "country": "Cuba",
    "country_zh": "古巴",
    "country_iso_code": "CU",
    "timezone": "America/Havana",
    "latitude": 22.48289,
    "longitude": -79.83201
  },
  {
    "city": "Vista Hermosa",
    "city_zh": "Vista Hermosa",
    "country": "Cuba",
    "country_zh": "古巴",
    "country_iso_code": "CU",
    "timezone": "America/Havana",
    "latitude": 22.35225,
    "longitude": -80.13626
  },
  {
    "city": "Vista Hermosa",
    "city_zh": "Vista Hermosa",
    "country": "Cuba",
    "country_zh": "古巴",
    "country_iso_code": "CU",
    "timezone": "America/Havana",
    "latitude": 22.1989,
    "longitude": -80.78797
  },
  {
    "city": "Vista Hermosa",
    "city_zh": "Vista Hermosa",
    "country": "Cuba",
    "country_zh": "古巴",
    "country_iso_code": "CU",
    "timezone": "America/Havana",
    "latitude": 20.88782,
    "longitude": -77.9248
  },
  {
    "city": "Vista Hermosa",
    "city_zh": "Vista Hermosa",
    "country": "Cuba",
    "country_zh": "古巴",
    "country_iso_code": "CU",
    "timezone": "America/Havana",
    "latitude": 21.27779,
    "longitude": -77.79969
  },
  {
    "city": "Vista Hermosa",
    "city_zh": "Vista Hermosa",
    "country": "Cuba",
    "country_zh": "古巴",
    "country_iso_code": "CU",
    "timezone": "America/Havana",
    "latitude": 21.17748,
    "longitude": -78.00838
  },
  {
    "city": "Vista del Río",
    "city_zh": "Vista del Río",
    "country": "Cuba",
    "country_zh": "古巴",
    "country_iso_code": "CU",
    "timezone": "America/Havana",
    "latitude": 21.85,
    "longitude": -82.81667
  },
  {
    "city": "Vista del Mar",
    "city_zh": "Vista del Mar",
    "country": "Cuba",
    "country_zh": "古巴",
    "country_iso_code": "CU",
    "timezone": "America/Havana",
    "latitude": 23.01953,
    "longitude": -82.81799
  },
  {
    "city": "Vista Alegre",
    "city_zh": "Vista Alegre",
    "country": "Cuba",
    "country_zh": "古巴",
    "country_iso_code": "CU",
    "timezone": "America/Havana",
    "latitude": 23.08308,
    "longitude": -82.34176
  },
  {
    "city": "Vista Alegre",
    "city_zh": "Vista Alegre",
    "country": "Cuba",
    "country_zh": "古巴",
    "country_iso_code": "CU",
    "timezone": "America/Havana",
    "latitude": 23.05418,
    "longitude": -81.98477
  },
  {
    "city": "Vista Alegre",
    "city_zh": "Vista Alegre",
    "country": "Cuba",
    "country_zh": "古巴",
    "country_iso_code": "CU",
    "timezone": "America/Havana",
    "latitude": 23.04639,
    "longitude": -81.59556
  },
  {
    "city": "Vista Alegre",
    "city_zh": "Vista Alegre",
    "country": "Cuba",
    "country_zh": "古巴",
    "country_iso_code": "CU",
    "timezone": "America/Havana",
    "latitude": 22.86667,
    "longitude": -80.36667
  },
  {
    "city": "Vista Alegre",
    "city_zh": "Vista Alegre",
    "country": "Cuba",
    "country_zh": "古巴",
    "country_iso_code": "CU",
    "timezone": "America/Havana",
    "latitude": 22.73333,
    "longitude": -83.61667
  },
  {
    "city": "Vista Alegre",
    "city_zh": "Vista Alegre",
    "country": "Cuba",
    "country_zh": "古巴",
    "country_iso_code": "CU",
    "timezone": "America/Havana",
    "latitude": 22.55,
    "longitude": -79.71667
  },
  {
    "city": "Vista Alegre",
    "city_zh": "Vista Alegre",
    "country": "Cuba",
    "country_zh": "古巴",
    "country_iso_code": "CU",
    "timezone": "America/Havana",
    "latitude": 22.41667,
    "longitude": -80.35
  },
  {
    "city": "Vista Alegre",
    "city_zh": "Vista Alegre",
    "country": "Cuba",
    "country_zh": "古巴",
    "country_iso_code": "CU",
    "timezone": "America/Havana",
    "latitude": 20.98596,
    "longitude": -78.03577
  },
  {
    "city": "Vista Alegre",
    "city_zh": "Vista Alegre",
    "country": "Cuba",
    "country_zh": "古巴",
    "country_iso_code": "CU",
    "timezone": "America/Havana",
    "latitude": 22.14389,
    "longitude": -78.73194
  },
  {
    "city": "Vista Alegre",
    "city_zh": "Vista Alegre",
    "country": "Cuba",
    "country_zh": "古巴",
    "country_iso_code": "CU",
    "timezone": "America/Havana",
    "latitude": 21.31667,
    "longitude": -77.3
  },
  {
    "city": "Vista Alegre",
    "city_zh": "Vista Alegre",
    "country": "Cuba",
    "country_zh": "古巴",
    "country_iso_code": "CU",
    "timezone": "America/Havana",
    "latitude": 20.02778,
    "longitude": -75.79583
  },
  {
    "city": "Vista Alegre",
    "city_zh": "Vista Alegre",
    "country": "Cuba",
    "country_zh": "古巴",
    "country_iso_code": "CU",
    "timezone": "America/Havana",
    "latitude": 22.35474,
    "longitude": -79.6742
  },
  {
    "city": "Vista Alegre",
    "city_zh": "Vista Alegre",
    "country": "Cuba",
    "country_zh": "古巴",
    "country_iso_code": "CU",
    "timezone": "America/Havana",
    "latitude": 22.25545,
    "longitude": -80.35682
  },
  {
    "city": "Vista Alegre",
    "city_zh": "Vista Alegre",
    "country": "Cuba",
    "country_zh": "古巴",
    "country_iso_code": "CU",
    "timezone": "America/Havana",
    "latitude": 21.98556,
    "longitude": -78.82056
  },
  {
    "city": "Vista Alegre",
    "city_zh": "Vista Alegre",
    "country": "Cuba",
    "country_zh": "古巴",
    "country_iso_code": "CU",
    "timezone": "America/Havana",
    "latitude": 21.84861,
    "longitude": -78.9175
  },
  {
    "city": "Vista Alegre",
    "city_zh": "Vista Alegre",
    "country": "Cuba",
    "country_zh": "古巴",
    "country_iso_code": "CU",
    "timezone": "America/Havana",
    "latitude": 21.08395,
    "longitude": -75.77356
  },
  {
    "city": "Vista Alegre",
    "city_zh": "Vista Alegre",
    "country": "Cuba",
    "country_zh": "古巴",
    "country_iso_code": "CU",
    "timezone": "America/Havana",
    "latitude": 20.86126,
    "longitude": -76.89925
  },
  {
    "city": "Visitación",
    "city_zh": "Visitación",
    "country": "Cuba",
    "country_zh": "古巴",
    "country_iso_code": "CU",
    "timezone": "America/Havana",
    "latitude": 20.06667,
    "longitude": -75.61667
  },
  {
    "city": "Virginia",
    "city_zh": "Virginia",
    "country": "Cuba",
    "country_zh": "古巴",
    "country_iso_code": "CU",
    "timezone": "America/Havana",
    "latitude": 22.99306,
    "longitude": -81.60083
  },
  {
    "city": "Virginia",
    "city_zh": "Virginia",
    "country": "Cuba",
    "country_zh": "古巴",
    "country_iso_code": "CU",
    "timezone": "America/Havana",
    "latitude": 22.39122,
    "longitude": -80.16538
  },
  {
    "city": "Virginia",
    "city_zh": "Virginia",
    "country": "Cuba",
    "country_zh": "古巴",
    "country_iso_code": "CU",
    "timezone": "America/Havana",
    "latitude": 21.96765,
    "longitude": -78.79821
  },
  {
    "city": "Virginia",
    "city_zh": "Virginia",
    "country": "Cuba",
    "country_zh": "古巴",
    "country_iso_code": "CU",
    "timezone": "America/Havana",
    "latitude": 21.93528,
    "longitude": -78.86833
  },
  {
    "city": "Virginia",
    "city_zh": "Virginia",
    "country": "Cuba",
    "country_zh": "古巴",
    "country_iso_code": "CU",
    "timezone": "America/Havana",
    "latitude": 20.5701,
    "longitude": -76.16607
  },
  {
    "city": "Virgen de Regla",
    "city_zh": "Virgen de Regla",
    "country": "Cuba",
    "country_zh": "古巴",
    "country_iso_code": "CU",
    "timezone": "America/Havana",
    "latitude": 22.35,
    "longitude": -79.78333
  },
  {
    "city": "Virey",
    "city_zh": "Virey",
    "country": "Cuba",
    "country_zh": "古巴",
    "country_iso_code": "CU",
    "timezone": "America/Havana",
    "latitude": 20.26667,
    "longitude": -76.73333
  },
  {
    "city": "Virama",
    "city_zh": "Virama",
    "country": "Cuba",
    "country_zh": "古巴",
    "country_iso_code": "CU",
    "timezone": "America/Havana",
    "latitude": 21.88333,
    "longitude": -79.8
  },
  {
    "city": "Virama",
    "city_zh": "Virama",
    "country": "Cuba",
    "country_zh": "古巴",
    "country_iso_code": "CU",
    "timezone": "America/Havana",
    "latitude": 21.85,
    "longitude": -79.81667
  },
  {
    "city": "Virama",
    "city_zh": "Virama",
    "country": "Cuba",
    "country_zh": "古巴",
    "country_iso_code": "CU",
    "timezone": "America/Havana",
    "latitude": 20.8,
    "longitude": -77.2
  },
  {
    "city": "Violeta Vieja",
    "city_zh": "Violeta Vieja",
    "country": "Cuba",
    "country_zh": "古巴",
    "country_iso_code": "CU",
    "timezone": "America/Havana",
    "latitude": 22.4,
    "longitude": -80.8
  },
  {
    "city": "Violeta",
    "city_zh": "Violeta",
    "country": "Cuba",
    "country_zh": "古巴",
    "country_iso_code": "CU",
    "timezone": "America/Havana",
    "latitude": 22.4,
    "longitude": -80.8
  },
  {
    "city": "Violeta",
    "city_zh": "Violeta",
    "country": "Cuba",
    "country_zh": "古巴",
    "country_iso_code": "CU",
    "timezone": "America/Havana",
    "latitude": 22.40146,
    "longitude": -80.78059
  },
  {
    "city": "Vinent",
    "city_zh": "Vinent",
    "country": "Cuba",
    "country_zh": "古巴",
    "country_iso_code": "CU",
    "timezone": "America/Havana",
    "latitude": 19.95363,
    "longitude": -75.62524
  },
  {
    "city": "Viñas",
    "city_zh": "Viñas",
    "country": "Cuba",
    "country_zh": "古巴",
    "country_iso_code": "CU",
    "timezone": "America/Havana",
    "latitude": 22.43333,
    "longitude": -79.55
  },
  {
    "city": "Viñas",
    "city_zh": "Viñas",
    "country": "Cuba",
    "country_zh": "古巴",
    "country_iso_code": "CU",
    "timezone": "America/Havana",
    "latitude": 22.4288,
    "longitude": -79.52634
  },
  {
    "city": "Viñales",
    "city_zh": "Viñales",
    "country": "Cuba",
    "country_zh": "古巴",
    "country_iso_code": "CU",
    "timezone": "America/Havana",
    "latitude": 22.61892,
    "longitude": -83.70694
  },
  {
    "city": "La Viña",
    "city_zh": "La Viña",
    "country": "Cuba",
    "country_zh": "古巴",
    "country_iso_code": "CU",
    "timezone": "America/Havana",
    "latitude": 22.46547,
    "longitude": -79.84286
  },
  {
    "city": "Vilorio",
    "city_zh": "Vilorio",
    "country": "Cuba",
    "country_zh": "古巴",
    "country_iso_code": "CU",
    "timezone": "America/Havana",
    "latitude": 20.08742,
    "longitude": -75.30831
  },
  {
    "city": "Villena",
    "city_zh": "Villena",
    "country": "Cuba",
    "country_zh": "古巴",
    "country_iso_code": "CU",
    "timezone": "America/Havana",
    "latitude": 22.8,
    "longitude": -82.63333
  },
  {
    "city": "Villegas",
    "city_zh": "Villegas",
    "country": "Cuba",
    "country_zh": "古巴",
    "country_iso_code": "CU",
    "timezone": "America/Havana",
    "latitude": 20.6,
    "longitude": -76.13333
  },
  {
    "city": "Villegas",
    "city_zh": "Villegas",
    "country": "Cuba",
    "country_zh": "古巴",
    "country_iso_code": "CU",
    "timezone": "America/Havana",
    "latitude": 22.9,
    "longitude": -82.73333
  },
  {
    "city": "Villa Zoraida",
    "city_zh": "Villa Zoraida",
    "country": "Cuba",
    "country_zh": "古巴",
    "country_iso_code": "CU",
    "timezone": "America/Havana",
    "latitude": 22.41667,
    "longitude": -80.03333
  },
  {
    "city": "Villavicencio",
    "city_zh": "Villavicencio",
    "country": "Cuba",
    "country_zh": "古巴",
    "country_iso_code": "CU",
    "timezone": "America/Havana",
    "latitude": 22.81778,
    "longitude": -81.91278
  },
  {
    "city": "Villavicencio",
    "city_zh": "Villavicencio",
    "country": "Cuba",
    "country_zh": "古巴",
    "country_iso_code": "CU",
    "timezone": "America/Havana",
    "latitude": 22.76667,
    "longitude": -80.23333
  },
  {
    "city": "Villa Verde",
    "city_zh": "Villa Verde",
    "country": "Cuba",
    "country_zh": "古巴",
    "country_iso_code": "CU",
    "timezone": "America/Havana",
    "latitude": 22.91667,
    "longitude": -80.38333
  },
  {
    "city": "Villaverde",
    "city_zh": "Villaverde",
    "country": "Cuba",
    "country_zh": "古巴",
    "country_iso_code": "CU",
    "timezone": "America/Havana",
    "latitude": 22.18333,
    "longitude": -84.08333
  },
  {
    "city": "Villa Tera",
    "city_zh": "Villa Tera",
    "country": "Cuba",
    "country_zh": "古巴",
    "country_iso_code": "CU",
    "timezone": "America/Havana",
    "latitude": 22.06667,
    "longitude": -79.51667
  },
  {
    "city": "Villa Teófila",
    "city_zh": "Villa Teófila",
    "country": "Cuba",
    "country_zh": "古巴",
    "country_iso_code": "CU",
    "timezone": "America/Havana",
    "latitude": 22.88333,
    "longitude": -82.06667
  },
  {
    "city": "Vía Nomar",
    "city_zh": "Vía Nomar",
    "country": "Cuba",
    "country_zh": "古巴",
    "country_iso_code": "CU",
    "timezone": "America/Havana",
    "latitude": 23.09251,
    "longitude": -82.28594
  },
  {
    "city": "Villa Raquel",
    "city_zh": "Villa Raquel",
    "country": "Cuba",
    "country_zh": "古巴",
    "country_iso_code": "CU",
    "timezone": "America/Havana",
    "latitude": 22.51667,
    "longitude": -83.5
  },
  {
    "city": "Villa Nueva",
    "city_zh": "Villa Nueva",
    "country": "Cuba",
    "country_zh": "古巴",
    "country_iso_code": "CU",
    "timezone": "America/Havana",
    "latitude": 22.31667,
    "longitude": -83.8
  },
  {
    "city": "Villa Nueva",
    "city_zh": "Villa Nueva",
    "country": "Cuba",
    "country_zh": "古巴",
    "country_iso_code": "CU",
    "timezone": "America/Havana",
    "latitude": 22.0,
    "longitude": -78.65
  },
  {
    "city": "Villanueva",
    "city_zh": "Villanueva",
    "country": "Cuba",
    "country_zh": "古巴",
    "country_iso_code": "CU",
    "timezone": "America/Havana",
    "latitude": 21.12664,
    "longitude": -77.09497
  },
  {
    "city": "Villamil",
    "city_zh": "Villamil",
    "country": "Cuba",
    "country_zh": "古巴",
    "country_iso_code": "CU",
    "timezone": "America/Havana",
    "latitude": 22.31667,
    "longitude": -83.81667
  },
  {
    "city": "Villa María",
    "city_zh": "Villa María",
    "country": "Cuba",
    "country_zh": "古巴",
    "country_iso_code": "CU",
    "timezone": "America/Havana",
    "latitude": 22.0175,
    "longitude": -78.66778
  },
  {
    "city": "Villa María",
    "city_zh": "Villa María",
    "country": "Cuba",
    "country_zh": "古巴",
    "country_iso_code": "CU",
    "timezone": "America/Havana",
    "latitude": 23.10242,
    "longitude": -82.28753
  },
  {
    "city": "Villalba",
    "city_zh": "Villalba",
    "country": "Cuba",
    "country_zh": "古巴",
    "country_iso_code": "CU",
    "timezone": "America/Havana",
    "latitude": 22.85236,
    "longitude": -81.0012
  },
  {
    "city": "Villa Fe",
    "city_zh": "Villa Fe",
    "country": "Cuba",
    "country_zh": "古巴",
    "country_iso_code": "CU",
    "timezone": "America/Havana",
    "latitude": 22.43333,
    "longitude": -79.95
  },
  {
    "city": "Villa Blanca",
    "city_zh": "Villa Blanca",
    "country": "Cuba",
    "country_zh": "古巴",
    "country_iso_code": "CU",
    "timezone": "America/Havana",
    "latitude": 20.31667,
    "longitude": -77.13333
  },
  {
    "city": "Villa Belkis",
    "city_zh": "Villa Belkis",
    "country": "Cuba",
    "country_zh": "古巴",
    "country_iso_code": "CU",
    "timezone": "America/Havana",
    "latitude": 21.3,
    "longitude": -77.93333
  },
  {
    "city": "Villa Alegre",
    "city_zh": "Villa Alegre",
    "country": "Cuba",
    "country_zh": "古巴",
    "country_iso_code": "CU",
    "timezone": "America/Havana",
    "latitude": 22.94861,
    "longitude": -82.96139
  },
  {
    "city": "Villa",
    "city_zh": "Villa",
    "country": "Cuba",
    "country_zh": "古巴",
    "country_iso_code": "CU",
    "timezone": "America/Havana",
    "latitude": 22.7,
    "longitude": -83.13333
  },
  {
    "city": "Vila",
    "city_zh": "Vila",
    "country": "Cuba",
    "country_zh": "古巴",
    "country_iso_code": "CU",
    "timezone": "America/Havana",
    "latitude": 20.35,
    "longitude": -76.13333
  },
  {
    "city": "Bijalito Carretera",
    "city_zh": "Bijalito Carretera",
    "country": "Cuba",
    "country_zh": "古巴",
    "country_iso_code": "CU",
    "timezone": "America/Havana",
    "latitude": 20.78798,
    "longitude": -77.9732
  },
  {
    "city": "Viguetal",
    "city_zh": "Viguetal",
    "country": "Cuba",
    "country_zh": "古巴",
    "country_iso_code": "CU",
    "timezone": "America/Havana",
    "latitude": 22.1,
    "longitude": -84.1
  },
  {
    "city": "Vigüela",
    "city_zh": "Vigüela",
    "country": "Cuba",
    "country_zh": "古巴",
    "country_iso_code": "CU",
    "timezone": "America/Havana",
    "latitude": 20.16667,
    "longitude": -76.91667
  },
  {
    "city": "Vigil",
    "city_zh": "Vigil",
    "country": "Cuba",
    "country_zh": "古巴",
    "country_iso_code": "CU",
    "timezone": "America/Havana",
    "latitude": 21.36667,
    "longitude": -77.41667
  },
  {
    "city": "La Vigía",
    "city_zh": "La Vigía",
    "country": "Cuba",
    "country_zh": "古巴",
    "country_iso_code": "CU",
    "timezone": "America/Havana",
    "latitude": 21.97165,
    "longitude": -79.31176
  },
  {
    "city": "Vigía",
    "city_zh": "Vigía",
    "country": "Cuba",
    "country_zh": "古巴",
    "country_iso_code": "CU",
    "timezone": "America/Havana",
    "latitude": 20.68333,
    "longitude": -75.76667
  },
  {
    "city": "La Vigía",
    "city_zh": "La Vigía",
    "country": "Cuba",
    "country_zh": "古巴",
    "country_iso_code": "CU",
    "timezone": "America/Havana",
    "latitude": 22.30666,
    "longitude": -84.373
  },
  {
    "city": "Vieta",
    "city_zh": "Vieta",
    "country": "Cuba",
    "country_zh": "古巴",
    "country_iso_code": "CU",
    "timezone": "America/Havana",
    "latitude": 21.23333,
    "longitude": -76.98333
  },
  {
    "city": "Vieta",
    "city_zh": "Vieta",
    "country": "Cuba",
    "country_zh": "古巴",
    "country_iso_code": "CU",
    "timezone": "America/Havana",
    "latitude": 21.1625,
    "longitude": -76.34806
  },
  {
    "city": "Viera",
    "city_zh": "Viera",
    "country": "Cuba",
    "country_zh": "古巴",
    "country_iso_code": "CU",
    "timezone": "America/Havana",
    "latitude": 22.95,
    "longitude": -82.6
  },
  {
    "city": "Viento Frío",
    "city_zh": "Viento Frío",
    "country": "Cuba",
    "country_zh": "古巴",
    "country_iso_code": "CU",
    "timezone": "America/Havana",
    "latitude": 20.28412,
    "longitude": -74.73175
  },
  {
    "city": "Vieja Linda",
    "city_zh": "Vieja Linda",
    "country": "Cuba",
    "country_zh": "古巴",
    "country_iso_code": "CU",
    "timezone": "America/Havana",
    "latitude": 23.05299,
    "longitude": -82.37029
  },
  {
    "city": "Vidot",
    "city_zh": "Vidot",
    "country": "Cuba",
    "country_zh": "古巴",
    "country_iso_code": "CU",
    "timezone": "America/Havana",
    "latitude": 21.28579,
    "longitude": -77.81748
  },
  {
    "city": "Vidal",
    "city_zh": "Vidal",
    "country": "Cuba",
    "country_zh": "古巴",
    "country_iso_code": "CU",
    "timezone": "America/Havana",
    "latitude": 22.76667,
    "longitude": -80.68333
  },
  {
    "city": "Victorino",
    "city_zh": "Victorino",
    "country": "Cuba",
    "country_zh": "古巴",
    "country_iso_code": "CU",
    "timezone": "America/Havana",
    "latitude": 20.15136,
    "longitude": -76.43673
  },
  {
    "city": "Victoria",
    "city_zh": "Victoria",
    "country": "Cuba",
    "country_zh": "古巴",
    "country_iso_code": "CU",
    "timezone": "America/Havana",
    "latitude": 22.68306,
    "longitude": -80.56722
  },
  {
    "city": "Victoria",
    "city_zh": "Victoria",
    "country": "Cuba",
    "country_zh": "古巴",
    "country_iso_code": "CU",
    "timezone": "America/Havana",
    "latitude": 22.41667,
    "longitude": -80.8
  },
  {
    "city": "Victoria",
    "city_zh": "Victoria",
    "country": "Cuba",
    "country_zh": "古巴",
    "country_iso_code": "CU",
    "timezone": "America/Havana",
    "latitude": 22.33333,
    "longitude": -80.76667
  },
  {
    "city": "Victoria",
    "city_zh": "Victoria",
    "country": "Cuba",
    "country_zh": "古巴",
    "country_iso_code": "CU",
    "timezone": "America/Havana",
    "latitude": 22.16667,
    "longitude": -80.0
  },
  {
    "city": "La Victoria",
    "city_zh": "La Victoria",
    "country": "Cuba",
    "country_zh": "古巴",
    "country_iso_code": "CU",
    "timezone": "America/Havana",
    "latitude": 20.92199,
    "longitude": -77.30062
  },
  {
    "city": "Victoria",
    "city_zh": "Victoria",
    "country": "Cuba",
    "country_zh": "古巴",
    "country_iso_code": "CU",
    "timezone": "America/Havana",
    "latitude": 20.81667,
    "longitude": -75.86667
  },
  {
    "city": "Victoria",
    "city_zh": "Victoria",
    "country": "Cuba",
    "country_zh": "古巴",
    "country_iso_code": "CU",
    "timezone": "America/Havana",
    "latitude": 20.15,
    "longitude": -76.15
  },
  {
    "city": "Simon Bolivar",
    "city_zh": "Simon Bolivar",
    "country": "Cuba",
    "country_zh": "古巴",
    "country_iso_code": "CU",
    "timezone": "America/Havana",
    "latitude": 22.3417,
    "longitude": -79.2183
  },
  {
    "city": "La Victoria",
    "city_zh": "La Victoria",
    "country": "Cuba",
    "country_zh": "古巴",
    "country_iso_code": "CU",
    "timezone": "America/Havana",
    "latitude": 22.93058,
    "longitude": -81.40832
  },
  {
    "city": "Unidad Victoria",
    "city_zh": "Unidad Victoria",
    "country": "Cuba",
    "country_zh": "古巴",
    "country_iso_code": "CU",
    "timezone": "America/Havana",
    "latitude": 22.68413,
    "longitude": -80.0047
  },
  {
    "city": "Victoria",
    "city_zh": "Victoria",
    "country": "Cuba",
    "country_zh": "古巴",
    "country_iso_code": "CU",
    "timezone": "America/Havana",
    "latitude": 22.59848,
    "longitude": -80.03908
  },
  {
    "city": "Victoria",
    "city_zh": "Victoria",
    "country": "Cuba",
    "country_zh": "古巴",
    "country_iso_code": "CU",
    "timezone": "America/Havana",
    "latitude": 22.31583,
    "longitude": -79.74634
  },
  {
    "city": "Viciedo",
    "city_zh": "Viciedo",
    "country": "Cuba",
    "country_zh": "古巴",
    "country_iso_code": "CU",
    "timezone": "America/Havana",
    "latitude": 23.0,
    "longitude": -81.88333
  },
  {
    "city": "Viciedo",
    "city_zh": "Viciedo",
    "country": "Cuba",
    "country_zh": "古巴",
    "country_iso_code": "CU",
    "timezone": "America/Havana",
    "latitude": 22.89,
    "longitude": -81.52028
  },
  {
    "city": "Vicentica",
    "city_zh": "Vicentica",
    "country": "Cuba",
    "country_zh": "古巴",
    "country_iso_code": "CU",
    "timezone": "America/Havana",
    "latitude": 22.41814,
    "longitude": -80.00962
  },
  {
    "city": "Vicentica",
    "city_zh": "Vicentica",
    "country": "Cuba",
    "country_zh": "古巴",
    "country_iso_code": "CU",
    "timezone": "America/Havana",
    "latitude": 22.06628,
    "longitude": -79.73837
  },
  {
    "city": "Vicente",
    "city_zh": "Vicente",
    "country": "Cuba",
    "country_zh": "古巴",
    "country_iso_code": "CU",
    "timezone": "America/Havana",
    "latitude": 21.80316,
    "longitude": -78.68617
  },
  {
    "city": "Vicana Arriba",
    "city_zh": "Vicana Arriba",
    "country": "Cuba",
    "country_zh": "古巴",
    "country_iso_code": "CU",
    "timezone": "America/Havana",
    "latitude": 19.98333,
    "longitude": -77.38333
  },
  {
    "city": "Vicana Arriba",
    "city_zh": "Vicana Arriba",
    "country": "Cuba",
    "country_zh": "古巴",
    "country_iso_code": "CU",
    "timezone": "America/Havana",
    "latitude": 19.9946,
    "longitude": -77.37899
  },
  {
    "city": "Vicana Abajo",
    "city_zh": "Vicana Abajo",
    "country": "Cuba",
    "country_zh": "古巴",
    "country_iso_code": "CU",
    "timezone": "America/Havana",
    "latitude": 20.11864,
    "longitude": -77.42233
  },
  {
    "city": "Víbora Park",
    "city_zh": "Víbora Park",
    "country": "Cuba",
    "country_zh": "古巴",
    "country_iso_code": "CU",
    "timezone": "America/Havana",
    "latitude": 23.08105,
    "longitude": -82.35448
  },
  {
    "city": "Viaró",
    "city_zh": "Viaró",
    "country": "Cuba",
    "country_zh": "古巴",
    "country_iso_code": "CU",
    "timezone": "America/Havana",
    "latitude": 21.78333,
    "longitude": -77.6
  },
  {
    "city": "Viana",
    "city_zh": "Viana",
    "country": "Cuba",
    "country_zh": "古巴",
    "country_iso_code": "CU",
    "timezone": "America/Havana",
    "latitude": 22.73161,
    "longitude": -79.9947
  },
  {
    "city": "Viamones",
    "city_zh": "Viamones",
    "country": "Cuba",
    "country_zh": "古巴",
    "country_iso_code": "CU",
    "timezone": "America/Havana",
    "latitude": 22.65823,
    "longitude": -80.2964
  },
  {
    "city": "Vianones",
    "city_zh": "Vianones",
    "country": "Cuba",
    "country_zh": "古巴",
    "country_iso_code": "CU",
    "timezone": "America/Havana",
    "latitude": 21.34972,
    "longitude": -78.39889
  },
  {
    "city": "Vialla",
    "city_zh": "Vialla",
    "country": "Cuba",
    "country_zh": "古巴",
    "country_iso_code": "CU",
    "timezone": "America/Havana",
    "latitude": 20.98389,
    "longitude": -77.58167
  },
  {
    "city": "Biajacas",
    "city_zh": "Biajacas",
    "country": "Cuba",
    "country_zh": "古巴",
    "country_iso_code": "CU",
    "timezone": "America/Havana",
    "latitude": 22.49387,
    "longitude": -81.00401
  },
  {
    "city": "Vertientes",
    "city_zh": "Vertientes",
    "country": "Cuba",
    "country_zh": "古巴",
    "country_iso_code": "CU",
    "timezone": "America/Havana",
    "latitude": 21.25817,
    "longitude": -78.14979
  },
  {
    "city": "Vertientes",
    "city_zh": "Vertientes",
    "country": "Cuba",
    "country_zh": "古巴",
    "country_iso_code": "CU",
    "timezone": "America/Havana",
    "latitude": 20.20088,
    "longitude": -74.28218
  },
  {
    "city": "Versalles",
    "city_zh": "Versalles",
    "country": "Cuba",
    "country_zh": "古巴",
    "country_iso_code": "CU",
    "timezone": "America/Havana",
    "latitude": 23.06861,
    "longitude": -82.44833
  },
  {
    "city": "Versalles",
    "city_zh": "Versalles",
    "country": "Cuba",
    "country_zh": "古巴",
    "country_iso_code": "CU",
    "timezone": "America/Havana",
    "latitude": 21.99281,
    "longitude": -77.63557
  },
  {
    "city": "Verracos",
    "city_zh": "Verracos",
    "country": "Cuba",
    "country_zh": "古巴",
    "country_iso_code": "CU",
    "timezone": "America/Havana",
    "latitude": 22.78335,
    "longitude": -83.6373
  },
  {
    "city": "Verraco Gordo",
    "city_zh": "Verraco Gordo",
    "country": "Cuba",
    "country_zh": "古巴",
    "country_iso_code": "CU",
    "timezone": "America/Havana",
    "latitude": 21.01499,
    "longitude": -77.61073
  },
  {
    "city": "Verraco",
    "city_zh": "Verraco",
    "country": "Cuba",
    "country_zh": "古巴",
    "country_iso_code": "CU",
    "timezone": "America/Havana",
    "latitude": 20.01806,
    "longitude": -75.37222
  },
  {
    "city": "La Valeriana",
    "city_zh": "La Valeriana",
    "country": "Cuba",
    "country_zh": "古巴",
    "country_iso_code": "CU",
    "timezone": "America/Havana",
    "latitude": 20.02187,
    "longitude": -75.53837
  },
  {
    "city": "Vergel",
    "city_zh": "Vergel",
    "country": "Cuba",
    "country_zh": "古巴",
    "country_iso_code": "CU",
    "timezone": "America/Havana",
    "latitude": 22.43811,
    "longitude": -79.4471
  },
  {
    "city": "Vergara",
    "city_zh": "Vergara",
    "country": "Cuba",
    "country_zh": "古巴",
    "country_iso_code": "CU",
    "timezone": "America/Havana",
    "latitude": 22.01667,
    "longitude": -79.43333
  },
  {
    "city": "Vereda Nueva",
    "city_zh": "Vereda Nueva",
    "country": "Cuba",
    "country_zh": "古巴",
    "country_iso_code": "CU",
    "timezone": "America/Havana",
    "latitude": 22.89768,
    "longitude": -82.59466
  },
  {
    "city": "Vereda",
    "city_zh": "Vereda",
    "country": "Cuba",
    "country_zh": "古巴",
    "country_iso_code": "CU",
    "timezone": "America/Havana",
    "latitude": 19.91501,
    "longitude": -77.08356
  },
  {
    "city": "Venturilla",
    "city_zh": "Venturilla",
    "country": "Cuba",
    "country_zh": "古巴",
    "country_iso_code": "CU",
    "timezone": "America/Havana",
    "latitude": 22.8962,
    "longitude": -81.73256
  },
  {
    "city": "Venezuela",
    "city_zh": "Venezuela",
    "country": "Cuba",
    "country_zh": "古巴",
    "country_iso_code": "CU",
    "timezone": "America/Havana",
    "latitude": 21.73748,
    "longitude": -78.79336
  },
  {
    "city": "Venero Viejo",
    "city_zh": "Venero Viejo",
    "country": "Cuba",
    "country_zh": "古巴",
    "country_iso_code": "CU",
    "timezone": "America/Havana",
    "latitude": 22.43333,
    "longitude": -80.71667
  },
  {
    "city": "Venero Feo",
    "city_zh": "Venero Feo",
    "country": "Cuba",
    "country_zh": "古巴",
    "country_iso_code": "CU",
    "timezone": "America/Havana",
    "latitude": 22.06667,
    "longitude": -80.68333
  },
  {
    "city": "Venero de San José",
    "city_zh": "Venero de San José",
    "country": "Cuba",
    "country_zh": "古巴",
    "country_iso_code": "CU",
    "timezone": "America/Havana",
    "latitude": 22.41667,
    "longitude": -80.71667
  },
  {
    "city": "Esles de Venero",
    "city_zh": "Esles de Venero",
    "country": "Cuba",
    "country_zh": "古巴",
    "country_iso_code": "CU",
    "timezone": "America/Havana",
    "latitude": 22.41034,
    "longitude": -80.73034
  },
  {
    "city": "Venegas",
    "city_zh": "Venegas",
    "country": "Cuba",
    "country_zh": "古巴",
    "country_iso_code": "CU",
    "timezone": "America/Havana",
    "latitude": 21.78333,
    "longitude": -79.98333
  },
  {
    "city": "Venegas",
    "city_zh": "Venegas",
    "country": "Cuba",
    "country_zh": "古巴",
    "country_iso_code": "CU",
    "timezone": "America/Havana",
    "latitude": 22.16615,
    "longitude": -79.14411
  },
  {
    "city": "Venecia",
    "city_zh": "Venecia",
    "country": "Cuba",
    "country_zh": "古巴",
    "country_iso_code": "CU",
    "timezone": "America/Havana",
    "latitude": 20.2,
    "longitude": -77.2
  },
  {
    "city": "Vencedora",
    "city_zh": "Vencedora",
    "country": "Cuba",
    "country_zh": "古巴",
    "country_iso_code": "CU",
    "timezone": "America/Havana",
    "latitude": 21.66667,
    "longitude": -78.51667
  },
  {
    "city": "Vellocino",
    "city_zh": "Vellocino",
    "country": "Cuba",
    "country_zh": "古巴",
    "country_iso_code": "CU",
    "timezone": "America/Havana",
    "latitude": 22.89496,
    "longitude": -81.59186
  },
  {
    "city": "Pedro Ballester",
    "city_zh": "Pedro Ballester",
    "country": "Cuba",
    "country_zh": "古巴",
    "country_iso_code": "CU",
    "timezone": "America/Havana",
    "latitude": 21.91434,
    "longitude": -78.32349
  },
  {
    "city": "Velasco",
    "city_zh": "Velasco",
    "country": "Cuba",
    "country_zh": "古巴",
    "country_iso_code": "CU",
    "timezone": "America/Havana",
    "latitude": 21.08575,
    "longitude": -76.34885
  },
  {
    "city": "Veguita",
    "city_zh": "Veguita",
    "country": "Cuba",
    "country_zh": "古巴",
    "country_iso_code": "CU",
    "timezone": "America/Havana",
    "latitude": 20.93507,
    "longitude": -75.75909
  },
  {
    "city": "Veguitas",
    "city_zh": "Veguitas",
    "country": "Cuba",
    "country_zh": "古巴",
    "country_iso_code": "CU",
    "timezone": "America/Havana",
    "latitude": 22.03378,
    "longitude": -79.99467
  },
  {
    "city": "Veguitas",
    "city_zh": "Veguitas",
    "country": "Cuba",
    "country_zh": "古巴",
    "country_iso_code": "CU",
    "timezone": "America/Havana",
    "latitude": 20.31256,
    "longitude": -76.9058
  },
  {
    "city": "Veguita del Sur",
    "city_zh": "Veguita del Sur",
    "country": "Cuba",
    "country_zh": "古巴",
    "country_iso_code": "CU",
    "timezone": "America/Havana",
    "latitude": 20.1151,
    "longitude": -74.48457
  },
  {
    "city": "Veguita",
    "city_zh": "Veguita",
    "country": "Cuba",
    "country_zh": "古巴",
    "country_iso_code": "CU",
    "timezone": "America/Havana",
    "latitude": 22.36583,
    "longitude": -80.05056
  },
  {
    "city": "Veguita Amarilla",
    "city_zh": "Veguita Amarilla",
    "country": "Cuba",
    "country_zh": "古巴",
    "country_iso_code": "CU",
    "timezone": "America/Havana",
    "latitude": 20.23576,
    "longitude": -74.3623
  },
  {
    "city": "Veguita",
    "city_zh": "Veguita",
    "country": "Cuba",
    "country_zh": "古巴",
    "country_iso_code": "CU",
    "timezone": "America/Havana",
    "latitude": 20.13667,
    "longitude": -74.98028
  },
  {
    "city": "Veguita",
    "city_zh": "Veguita",
    "country": "Cuba",
    "country_zh": "古巴",
    "country_iso_code": "CU",
    "timezone": "America/Havana",
    "latitude": 20.13361,
    "longitude": -74.48167
  },
  {
    "city": "Vega Yumurí",
    "city_zh": "Vega Yumurí",
    "country": "Cuba",
    "country_zh": "古巴",
    "country_iso_code": "CU",
    "timezone": "America/Havana",
    "latitude": 20.21639,
    "longitude": -74.28361
  },
  {
    "city": "Vega Vieja",
    "city_zh": "Vega Vieja",
    "country": "Cuba",
    "country_zh": "古巴",
    "country_iso_code": "CU",
    "timezone": "America/Havana",
    "latitude": 22.07207,
    "longitude": -80.32401
  },
  {
    "city": "Vegas Viejas",
    "city_zh": "Vegas Viejas",
    "country": "Cuba",
    "country_zh": "古巴",
    "country_iso_code": "CU",
    "timezone": "America/Havana",
    "latitude": 22.31827,
    "longitude": -78.88959
  },
  {
    "city": "Vegas de Mano",
    "city_zh": "Vegas de Mano",
    "country": "Cuba",
    "country_zh": "古巴",
    "country_iso_code": "CU",
    "timezone": "America/Havana",
    "latitude": 21.13751,
    "longitude": -76.39001
  },
  {
    "city": "Vegas del Río",
    "city_zh": "Vegas del Río",
    "country": "Cuba",
    "country_zh": "古巴",
    "country_iso_code": "CU",
    "timezone": "America/Havana",
    "latitude": 21.73111,
    "longitude": -79.38333
  },
  {
    "city": "Vegas de Jibacoa",
    "city_zh": "Vegas de Jibacoa",
    "country": "Cuba",
    "country_zh": "古巴",
    "country_iso_code": "CU",
    "timezone": "America/Havana",
    "latitude": 20.03333,
    "longitude": -76.98333
  },
  {
    "city": "Vegas",
    "city_zh": "Vegas",
    "country": "Cuba",
    "country_zh": "古巴",
    "country_iso_code": "CU",
    "timezone": "America/Havana",
    "latitude": 22.16667,
    "longitude": -79.93333
  },
  {
    "city": "Vegas",
    "city_zh": "Vegas",
    "country": "Cuba",
    "country_zh": "古巴",
    "country_iso_code": "CU",
    "timezone": "America/Havana",
    "latitude": 22.79112,
    "longitude": -81.81738
  },
  {
    "city": "Vega Redonda",
    "city_zh": "Vega Redonda",
    "country": "Cuba",
    "country_zh": "古巴",
    "country_iso_code": "CU",
    "timezone": "America/Havana",
    "latitude": 22.6167,
    "longitude": -79.75
  },
  {
    "city": "Vega Nueva",
    "city_zh": "Vega Nueva",
    "country": "Cuba",
    "country_zh": "古巴",
    "country_iso_code": "CU",
    "timezone": "America/Havana",
    "latitude": 22.26667,
    "longitude": -83.83333
  },
  {
    "city": "Vega Nueva",
    "city_zh": "Vega Nueva",
    "country": "Cuba",
    "country_zh": "古巴",
    "country_iso_code": "CU",
    "timezone": "America/Havana",
    "latitude": 22.25306,
    "longitude": -83.73667
  },
  {
    "city": "Vega Nicolasa",
    "city_zh": "Vega Nicolasa",
    "country": "Cuba",
    "country_zh": "古巴",
    "country_iso_code": "CU",
    "timezone": "America/Havana",
    "latitude": 21.9,
    "longitude": -79.8
  },
  {
    "city": "Vega Morón",
    "city_zh": "Vega Morón",
    "country": "Cuba",
    "country_zh": "古巴",
    "country_iso_code": "CU",
    "timezone": "America/Havana",
    "latitude": 22.13333,
    "longitude": -84.08333
  },
  {
    "city": "Vega Mariana",
    "city_zh": "Vega Mariana",
    "country": "Cuba",
    "country_zh": "古巴",
    "country_iso_code": "CU",
    "timezone": "America/Havana",
    "latitude": 21.9,
    "longitude": -79.81667
  },
  {
    "city": "Vega Larga",
    "city_zh": "Vega Larga",
    "country": "Cuba",
    "country_zh": "古巴",
    "country_iso_code": "CU",
    "timezone": "America/Havana",
    "latitude": 22.6,
    "longitude": -83.71667
  },
  {
    "city": "Vega Larga",
    "city_zh": "Vega Larga",
    "country": "Cuba",
    "country_zh": "古巴",
    "country_iso_code": "CU",
    "timezone": "America/Havana",
    "latitude": 20.5,
    "longitude": -75.18333
  },
  {
    "city": "Vega Larga",
    "city_zh": "Vega Larga",
    "country": "Cuba",
    "country_zh": "古巴",
    "country_iso_code": "CU",
    "timezone": "America/Havana",
    "latitude": 20.28333,
    "longitude": -76.15
  },
  {
    "city": "Vega Larga",
    "city_zh": "Vega Larga",
    "country": "Cuba",
    "country_zh": "古巴",
    "country_iso_code": "CU",
    "timezone": "America/Havana",
    "latitude": 20.06667,
    "longitude": -76.36667
  },
  {
    "city": "Vega Honda",
    "city_zh": "Vega Honda",
    "country": "Cuba",
    "country_zh": "古巴",
    "country_iso_code": "CU",
    "timezone": "America/Havana",
    "latitude": 20.24376,
    "longitude": -75.99265
  },
  {
    "city": "Vega Grande",
    "city_zh": "Vega Grande",
    "country": "Cuba",
    "country_zh": "古巴",
    "country_iso_code": "CU",
    "timezone": "America/Havana",
    "latitude": 22.2,
    "longitude": -78.9
  },
  {
    "city": "Vega Grande",
    "city_zh": "Vega Grande",
    "country": "Cuba",
    "country_zh": "古巴",
    "country_iso_code": "CU",
    "timezone": "America/Havana",
    "latitude": 20.41667,
    "longitude": -75.1
  },
  {
    "city": "Vega Grande",
    "city_zh": "Vega Grande",
    "country": "Cuba",
    "country_zh": "古巴",
    "country_iso_code": "CU",
    "timezone": "America/Havana",
    "latitude": 20.13889,
    "longitude": -74.70111
  },
  {
    "city": "Vega Grande",
    "city_zh": "Vega Grande",
    "country": "Cuba",
    "country_zh": "古巴",
    "country_iso_code": "CU",
    "timezone": "America/Havana",
    "latitude": 20.19944,
    "longitude": -75.99639
  },
  {
    "city": "Vega Grande",
    "city_zh": "Vega Grande",
    "country": "Cuba",
    "country_zh": "古巴",
    "country_iso_code": "CU",
    "timezone": "America/Havana",
    "latitude": 20.17526,
    "longitude": -74.97264
  },
  {
    "city": "Vega de Palma",
    "city_zh": "Vega de Palma",
    "country": "Cuba",
    "country_zh": "古巴",
    "country_iso_code": "CU",
    "timezone": "America/Havana",
    "latitude": 22.49116,
    "longitude": -79.6932
  },
  {
    "city": "Vega del Toro",
    "city_zh": "Vega del Toro",
    "country": "Cuba",
    "country_zh": "古巴",
    "country_iso_code": "CU",
    "timezone": "America/Havana",
    "latitude": 20.27628,
    "longitude": -74.95788
  },
  {
    "city": "Vega del Jobo",
    "city_zh": "Vega del Jobo",
    "country": "Cuba",
    "country_zh": "古巴",
    "country_iso_code": "CU",
    "timezone": "America/Havana",
    "latitude": 20.16378,
    "longitude": -74.52004
  },
  {
    "city": "Vega del Hoyo",
    "city_zh": "Vega del Hoyo",
    "country": "Cuba",
    "country_zh": "古巴",
    "country_iso_code": "CU",
    "timezone": "America/Havana",
    "latitude": 22.58333,
    "longitude": -79.8
  },
  {
    "city": "Vega del Cedro",
    "city_zh": "Vega del Cedro",
    "country": "Cuba",
    "country_zh": "古巴",
    "country_iso_code": "CU",
    "timezone": "America/Havana",
    "latitude": 20.27278,
    "longitude": -74.95389
  },
  {
    "city": "Vega de Cedro",
    "city_zh": "Vega de Cedro",
    "country": "Cuba",
    "country_zh": "古巴",
    "country_iso_code": "CU",
    "timezone": "America/Havana",
    "latitude": 20.34355,
    "longitude": -74.89917
  },
  {
    "city": "Vega Botada",
    "city_zh": "Vega Botada",
    "country": "Cuba",
    "country_zh": "古巴",
    "country_iso_code": "CU",
    "timezone": "America/Havana",
    "latitude": 20.16472,
    "longitude": -75.82139
  },
  {
    "city": "El Batea",
    "city_zh": "El Batea",
    "country": "Cuba",
    "country_zh": "古巴",
    "country_iso_code": "CU",
    "timezone": "America/Havana",
    "latitude": 20.14875,
    "longitude": -74.49536
  },
  {
    "city": "Vega Alta",
    "city_zh": "Vega Alta",
    "country": "Cuba",
    "country_zh": "古巴",
    "country_iso_code": "CU",
    "timezone": "America/Havana",
    "latitude": 22.55,
    "longitude": -79.81917
  },
  {
    "city": "Vega",
    "city_zh": "Vega",
    "country": "Cuba",
    "country_zh": "古巴",
    "country_iso_code": "CU",
    "timezone": "America/Havana",
    "latitude": 22.8,
    "longitude": -82.51667
  },
  {
    "city": "Vega",
    "city_zh": "Vega",
    "country": "Cuba",
    "country_zh": "古巴",
    "country_iso_code": "CU",
    "timezone": "America/Havana",
    "latitude": 22.65,
    "longitude": -83.55
  },
  {
    "city": "Vega",
    "city_zh": "Vega",
    "country": "Cuba",
    "country_zh": "古巴",
    "country_iso_code": "CU",
    "timezone": "America/Havana",
    "latitude": 22.61194,
    "longitude": -83.70972
  },
  {
    "city": "Vega",
    "city_zh": "Vega",
    "country": "Cuba",
    "country_zh": "古巴",
    "country_iso_code": "CU",
    "timezone": "America/Havana",
    "latitude": 22.11667,
    "longitude": -78.7
  },
  {
    "city": "Vedado del Cotorro",
    "city_zh": "Vedado del Cotorro",
    "country": "Cuba",
    "country_zh": "古巴",
    "country_iso_code": "CU",
    "timezone": "America/Havana",
    "latitude": 23.05,
    "longitude": -82.25
  },
  {
    "city": "Vedado",
    "city_zh": "Vedado",
    "country": "Cuba",
    "country_zh": "古巴",
    "country_iso_code": "CU",
    "timezone": "America/Havana",
    "latitude": 23.13767,
    "longitude": -82.39339
  },
  {
    "city": "Vedado",
    "city_zh": "Vedado",
    "country": "Cuba",
    "country_zh": "古巴",
    "country_iso_code": "CU",
    "timezone": "America/Havana",
    "latitude": 22.85,
    "longitude": -82.03333
  },
  {
    "city": "Vedado",
    "city_zh": "Vedado",
    "country": "Cuba",
    "country_zh": "古巴",
    "country_iso_code": "CU",
    "timezone": "America/Havana",
    "latitude": 21.05,
    "longitude": -76.5
  },
  {
    "city": "Vedado",
    "city_zh": "Vedado",
    "country": "Cuba",
    "country_zh": "古巴",
    "country_iso_code": "CU",
    "timezone": "America/Havana",
    "latitude": 21.0,
    "longitude": -75.95
  },
  {
    "city": "Vedado Seis",
    "city_zh": "Vedado Seis",
    "country": "Cuba",
    "country_zh": "古巴",
    "country_iso_code": "CU",
    "timezone": "America/Havana",
    "latitude": 21.05506,
    "longitude": -76.50826
  },
  {
    "city": "Vázquez",
    "city_zh": "Vázquez",
    "country": "Cuba",
    "country_zh": "古巴",
    "country_iso_code": "CU",
    "timezone": "America/Havana",
    "latitude": 21.14029,
    "longitude": -76.72969
  },
  {
    "city": "Vaticano",
    "city_zh": "Vaticano",
    "country": "Cuba",
    "country_zh": "古巴",
    "country_iso_code": "CU",
    "timezone": "America/Havana",
    "latitude": 21.28828,
    "longitude": -78.27763
  },
  {
    "city": "Vásquez",
    "city_zh": "Vásquez",
    "country": "Cuba",
    "country_zh": "古巴",
    "country_iso_code": "CU",
    "timezone": "America/Havana",
    "latitude": 22.9,
    "longitude": -80.6
  },
  {
    "city": "Varona",
    "city_zh": "Varona",
    "country": "Cuba",
    "country_zh": "古巴",
    "country_iso_code": "CU",
    "timezone": "America/Havana",
    "latitude": 20.93333,
    "longitude": -78.03333
  },
  {
    "city": "Varona",
    "city_zh": "Varona",
    "country": "Cuba",
    "country_zh": "古巴",
    "country_iso_code": "CU",
    "timezone": "America/Havana",
    "latitude": 20.5,
    "longitude": -75.95
  },
  {
    "city": "Vargas",
    "city_zh": "Vargas",
    "country": "Cuba",
    "country_zh": "古巴",
    "country_iso_code": "CU",
    "timezone": "America/Havana",
    "latitude": 22.85,
    "longitude": -82.58333
  },
  {
    "city": "Varadero",
    "city_zh": "巴拉德罗",
    "country": "Cuba",
    "country_zh": "古巴",
    "country_iso_code": "CU",
    "timezone": "America/Havana",
    "latitude": 23.15678,
    "longitude": -81.24441
  },
  {
    "city": "Vaquería",
    "city_zh": "Vaquería",
    "country": "Cuba",
    "country_zh": "古巴",
    "country_iso_code": "CU",
    "timezone": "America/Havana",
    "latitude": 22.2,
    "longitude": -80.31667
  },
  {
    "city": "Van Horne Dos",
    "city_zh": "Van Horne Dos",
    "country": "Cuba",
    "country_zh": "古巴",
    "country_iso_code": "CU",
    "timezone": "America/Havana",
    "latitude": 20.57471,
    "longitude": -76.08595
  },
  {
    "city": "El Vallecito",
    "city_zh": "El Vallecito",
    "country": "Cuba",
    "country_zh": "古巴",
    "country_iso_code": "CU",
    "timezone": "America/Havana",
    "latitude": 21.82936,
    "longitude": -79.89555
  },
  {
    "city": "Vallejo",
    "city_zh": "Vallejo",
    "country": "Cuba",
    "country_zh": "古巴",
    "country_iso_code": "CU",
    "timezone": "America/Havana",
    "latitude": 21.6939,
    "longitude": -79.48853
  },
  {
    "city": "Valle",
    "city_zh": "Valle",
    "country": "Cuba",
    "country_zh": "古巴",
    "country_iso_code": "CU",
    "timezone": "America/Havana",
    "latitude": 22.29213,
    "longitude": -83.81232
  },
  {
    "city": "Valle",
    "city_zh": "Valle",
    "country": "Cuba",
    "country_zh": "古巴",
    "country_iso_code": "CU",
    "timezone": "America/Havana",
    "latitude": 21.89944,
    "longitude": -79.04139
  },
  {
    "city": "Valiente",
    "city_zh": "Valiente",
    "country": "Cuba",
    "country_zh": "古巴",
    "country_iso_code": "CU",
    "timezone": "America/Havana",
    "latitude": 22.78917,
    "longitude": -81.57028
  },
  {
    "city": "Valido",
    "city_zh": "Valido",
    "country": "Cuba",
    "country_zh": "古巴",
    "country_iso_code": "CU",
    "timezone": "America/Havana",
    "latitude": 22.53333,
    "longitude": -83.56667
  },
  {
    "city": "Valdivieso",
    "city_zh": "Valdivieso",
    "country": "Cuba",
    "country_zh": "古巴",
    "country_iso_code": "CU",
    "timezone": "America/Havana",
    "latitude": 23.04437,
    "longitude": -80.77553
  },
  {
    "city": "Valdes",
    "city_zh": "Valdes",
    "country": "Cuba",
    "country_zh": "古巴",
    "country_iso_code": "CU",
    "timezone": "America/Havana",
    "latitude": 22.93864,
    "longitude": -80.92147
  },
  {
    "city": "Valdesuso",
    "city_zh": "Valdesuso",
    "country": "Cuba",
    "country_zh": "古巴",
    "country_iso_code": "CU",
    "timezone": "America/Havana",
    "latitude": 22.27245,
    "longitude": -79.37788
  },
  {
    "city": "Valdecilla",
    "city_zh": "Valdecilla",
    "country": "Cuba",
    "country_zh": "古巴",
    "country_iso_code": "CU",
    "timezone": "America/Havana",
    "latitude": 22.31667,
    "longitude": -80.76667
  },
  {
    "city": "Valanzuela",
    "city_zh": "Valanzuela",
    "country": "Cuba",
    "country_zh": "古巴",
    "country_iso_code": "CU",
    "timezone": "America/Havana",
    "latitude": 20.66667,
    "longitude": -75.65
  },
  {
    "city": "Uvero",
    "city_zh": "Uvero",
    "country": "Cuba",
    "country_zh": "古巴",
    "country_iso_code": "CU",
    "timezone": "America/Havana",
    "latitude": 19.95342,
    "longitude": -76.59376
  },
  {
    "city": "Urumea",
    "city_zh": "Urumea",
    "country": "Cuba",
    "country_zh": "古巴",
    "country_iso_code": "CU",
    "timezone": "America/Havana",
    "latitude": 22.7275,
    "longitude": -80.85806
  },
  {
    "city": "Urumea",
    "city_zh": "Urumea",
    "country": "Cuba",
    "country_zh": "古巴",
    "country_iso_code": "CU",
    "timezone": "America/Havana",
    "latitude": 22.65,
    "longitude": -80.86667
  },
  {
    "city": "Urrutia",
    "city_zh": "Urrutia",
    "country": "Cuba",
    "country_zh": "古巴",
    "country_iso_code": "CU",
    "timezone": "America/Havana",
    "latitude": 22.3176,
    "longitude": -79.53181
  },
  {
    "city": "San Germán",
    "city_zh": "San Germán",
    "country": "Cuba",
    "country_zh": "古巴",
    "country_iso_code": "CU",
    "timezone": "America/Havana",
    "latitude": 20.60009,
    "longitude": -76.13364
  },
  {
    "city": "Urabo",
    "city_zh": "Urabo",
    "country": "Cuba",
    "country_zh": "古巴",
    "country_iso_code": "CU",
    "timezone": "America/Havana",
    "latitude": 21.59208,
    "longitude": -78.10115
  },
  {
    "city": "Uñitas",
    "city_zh": "Uñitas",
    "country": "Cuba",
    "country_zh": "古巴",
    "country_iso_code": "CU",
    "timezone": "America/Havana",
    "latitude": 21.04139,
    "longitude": -76.31
  },
  {
    "city": "Unión de Reyes",
    "city_zh": "Unión de Reyes",
    "country": "Cuba",
    "country_zh": "古巴",
    "country_iso_code": "CU",
    "timezone": "America/Havana",
    "latitude": 22.79505,
    "longitude": -81.53617
  },
  {
    "city": "Unión",
    "city_zh": "Unión",
    "country": "Cuba",
    "country_zh": "古巴",
    "country_iso_code": "CU",
    "timezone": "America/Havana",
    "latitude": 22.93333,
    "longitude": -82.16667
  },
  {
    "city": "Unión",
    "city_zh": "Unión",
    "country": "Cuba",
    "country_zh": "古巴",
    "country_iso_code": "CU",
    "timezone": "America/Havana",
    "latitude": 20.21667,
    "longitude": -76.36667
  },
  {
    "city": "La Unión",
    "city_zh": "La Unión",
    "country": "Cuba",
    "country_zh": "古巴",
    "country_iso_code": "CU",
    "timezone": "America/Havana",
    "latitude": 23.02131,
    "longitude": -82.03214
  },
  {
    "city": "Unidad Residencial Habana del Este",
    "city_zh": "Unidad Residencial Habana del Este",
    "country": "Cuba",
    "country_zh": "古巴",
    "country_iso_code": "CU",
    "timezone": "America/Havana",
    "latitude": 23.16667,
    "longitude": -82.31667
  },
  {
    "city": "Unidad Proletaria",
    "city_zh": "Unidad Proletaria",
    "country": "Cuba",
    "country_zh": "古巴",
    "country_iso_code": "CU",
    "timezone": "America/Havana",
    "latitude": 22.68816,
    "longitude": -80.0134
  },
  {
    "city": "Uñas",
    "city_zh": "Uñas",
    "country": "Cuba",
    "country_zh": "古巴",
    "country_iso_code": "CU",
    "timezone": "America/Havana",
    "latitude": 21.015,
    "longitude": -76.34111
  },
  {
    "city": "Uñas",
    "city_zh": "Uñas",
    "country": "Cuba",
    "country_zh": "古巴",
    "country_iso_code": "CU",
    "timezone": "America/Havana",
    "latitude": 21.01055,
    "longitude": -76.3172
  },
  {
    "city": "Ullao Viejo",
    "city_zh": "Ullao Viejo",
    "country": "Cuba",
    "country_zh": "古巴",
    "country_iso_code": "CU",
    "timezone": "America/Havana",
    "latitude": 19.98917,
    "longitude": -75.32046
  },
  {
    "city": "Ulises",
    "city_zh": "Ulises",
    "country": "Cuba",
    "country_zh": "古巴",
    "country_iso_code": "CU",
    "timezone": "America/Havana",
    "latitude": 21.2,
    "longitude": -77.61667
  },
  {
    "city": "Ugarte",
    "city_zh": "Ugarte",
    "country": "Cuba",
    "country_zh": "古巴",
    "country_iso_code": "CU",
    "timezone": "America/Havana",
    "latitude": 22.45,
    "longitude": -79.98333
  },
  {
    "city": "Ubero",
    "city_zh": "Ubero",
    "country": "Cuba",
    "country_zh": "古巴",
    "country_iso_code": "CU",
    "timezone": "America/Havana",
    "latitude": 20.35,
    "longitude": -77.05
  },
  {
    "city": "Turrón",
    "city_zh": "Turrón",
    "country": "Cuba",
    "country_zh": "古巴",
    "country_iso_code": "CU",
    "timezone": "America/Havana",
    "latitude": 23.1,
    "longitude": -81.36667
  },
  {
    "city": "Turquino",
    "city_zh": "Turquino",
    "country": "Cuba",
    "country_zh": "古巴",
    "country_iso_code": "CU",
    "timezone": "America/Havana",
    "latitude": 22.42685,
    "longitude": -80.50837
  },
  {
    "city": "Turey",
    "city_zh": "Turey",
    "country": "Cuba",
    "country_zh": "古巴",
    "country_iso_code": "CU",
    "timezone": "America/Havana",
    "latitude": 23.13333,
    "longitude": -82.21667
  },
  {
    "city": "La Turbina",
    "city_zh": "La Turbina",
    "country": "Cuba",
    "country_zh": "古巴",
    "country_iso_code": "CU",
    "timezone": "America/Havana",
    "latitude": 22.23063,
    "longitude": -80.57755
  },
  {
    "city": "Tunas de Zaza",
    "city_zh": "Tunas de Zaza",
    "country": "Cuba",
    "country_zh": "古巴",
    "country_iso_code": "CU",
    "timezone": "America/Havana",
    "latitude": 21.63521,
    "longitude": -79.55148
  },
  {
    "city": "Tumba la Burra",
    "city_zh": "Tumba la Burra",
    "country": "Cuba",
    "country_zh": "古巴",
    "country_iso_code": "CU",
    "timezone": "America/Havana",
    "latitude": 22.43772,
    "longitude": -80.07319
  },
  {
    "city": "Tumbadero",
    "city_zh": "Tumbadero",
    "country": "Cuba",
    "country_zh": "古巴",
    "country_iso_code": "CU",
    "timezone": "America/Havana",
    "latitude": 22.27194,
    "longitude": -84.05139
  },
  {
    "city": "Tumbadero",
    "city_zh": "Tumbadero",
    "country": "Cuba",
    "country_zh": "古巴",
    "country_iso_code": "CU",
    "timezone": "America/Havana",
    "latitude": 21.0706,
    "longitude": -75.97093
  },
  {
    "city": "Tumba Cuatro",
    "city_zh": "Tumba Cuatro",
    "country": "Cuba",
    "country_zh": "古巴",
    "country_iso_code": "CU",
    "timezone": "America/Havana",
    "latitude": 23.11667,
    "longitude": -82.06667
  },
  {
    "city": "Tumba Cuatro",
    "city_zh": "Tumba Cuatro",
    "country": "Cuba",
    "country_zh": "古巴",
    "country_iso_code": "CU",
    "timezone": "America/Havana",
    "latitude": 23.11506,
    "longitude": -82.07453
  },
  {
    "city": "Tumba Cazuela",
    "city_zh": "Tumba Cazuela",
    "country": "Cuba",
    "country_zh": "古巴",
    "country_iso_code": "CU",
    "timezone": "America/Havana",
    "latitude": 22.31968,
    "longitude": -80.45692
  },
  {
    "city": "Tulita",
    "city_zh": "Tulita",
    "country": "Cuba",
    "country_zh": "古巴",
    "country_iso_code": "CU",
    "timezone": "America/Havana",
    "latitude": 20.8,
    "longitude": -77.68333
  },
  {
    "city": "Tulipán",
    "city_zh": "Tulipán",
    "country": "Cuba",
    "country_zh": "古巴",
    "country_iso_code": "CU",
    "timezone": "America/Havana",
    "latitude": 22.46555,
    "longitude": -79.54894
  },
  {
    "city": "Tuinucú",
    "city_zh": "Tuinucú",
    "country": "Cuba",
    "country_zh": "古巴",
    "country_iso_code": "CU",
    "timezone": "America/Havana",
    "latitude": 21.99965,
    "longitude": -79.41552
  },
  {
    "city": "Trujillo",
    "city_zh": "Trujillo",
    "country": "Cuba",
    "country_zh": "古巴",
    "country_iso_code": "CU",
    "timezone": "America/Havana",
    "latitude": 22.97596,
    "longitude": -82.00841
  },
  {
    "city": "Truffin",
    "city_zh": "Truffin",
    "country": "Cuba",
    "country_zh": "古巴",
    "country_iso_code": "CU",
    "timezone": "America/Havana",
    "latitude": 21.63073,
    "longitude": -77.64799
  },
  {
    "city": "Troya",
    "city_zh": "Troya",
    "country": "Cuba",
    "country_zh": "古巴",
    "country_iso_code": "CU",
    "timezone": "America/Havana",
    "latitude": 20.26914,
    "longitude": -77.209
  },
  {
    "city": "Tropezón",
    "city_zh": "Tropezón",
    "country": "Cuba",
    "country_zh": "古巴",
    "country_iso_code": "CU",
    "timezone": "America/Havana",
    "latitude": 22.9,
    "longitude": -80.6
  },
  {
    "city": "El Trompo",
    "city_zh": "El Trompo",
    "country": "Cuba",
    "country_zh": "古巴",
    "country_iso_code": "CU",
    "timezone": "America/Havana",
    "latitude": 21.17955,
    "longitude": -76.36752
  },
  {
    "city": "Trocones",
    "city_zh": "Trocones",
    "country": "Cuba",
    "country_zh": "古巴",
    "country_iso_code": "CU",
    "timezone": "America/Havana",
    "latitude": 20.3,
    "longitude": -75.93333
  },
  {
    "city": "Triunvirato",
    "city_zh": "Triunvirato",
    "country": "Cuba",
    "country_zh": "古巴",
    "country_iso_code": "CU",
    "timezone": "America/Havana",
    "latitude": 22.92972,
    "longitude": -81.53083
  },
  {
    "city": "Triunvirato",
    "city_zh": "Triunvirato",
    "country": "Cuba",
    "country_zh": "古巴",
    "country_iso_code": "CU",
    "timezone": "America/Havana",
    "latitude": 22.63407,
    "longitude": -79.86642
  },
  {
    "city": "Triunfo",
    "city_zh": "Triunfo",
    "country": "Cuba",
    "country_zh": "古巴",
    "country_iso_code": "CU",
    "timezone": "America/Havana",
    "latitude": 22.97889,
    "longitude": -81.36417
  },
  {
    "city": "Triunfo",
    "city_zh": "Triunfo",
    "country": "Cuba",
    "country_zh": "古巴",
    "country_iso_code": "CU",
    "timezone": "America/Havana",
    "latitude": 21.93453,
    "longitude": -78.20614
  },
  {
    "city": "Triunfo",
    "city_zh": "Triunfo",
    "country": "Cuba",
    "country_zh": "古巴",
    "country_iso_code": "CU",
    "timezone": "America/Havana",
    "latitude": 20.25,
    "longitude": -75.78333
  },
  {
    "city": "Trinidad",
    "city_zh": "Trinidad",
    "country": "Cuba",
    "country_zh": "古巴",
    "country_iso_code": "CU",
    "timezone": "America/Havana",
    "latitude": 22.61667,
    "longitude": -83.36667
  },
  {
    "city": "Trinidad",
    "city_zh": "Trinidad",
    "country": "Cuba",
    "country_zh": "古巴",
    "country_iso_code": "CU",
    "timezone": "America/Havana",
    "latitude": 21.28333,
    "longitude": -76.96667
  },
  {
    "city": "La Trinidad",
    "city_zh": "La Trinidad",
    "country": "Cuba",
    "country_zh": "古巴",
    "country_iso_code": "CU",
    "timezone": "America/Havana",
    "latitude": 20.2335,
    "longitude": -75.69778
  },
  {
    "city": "Trinidad",
    "city_zh": "Trinidad",
    "country": "Cuba",
    "country_zh": "古巴",
    "country_iso_code": "CU",
    "timezone": "America/Havana",
    "latitude": 20.16389,
    "longitude": -75.78694
  },
  {
    "city": "Trinidad",
    "city_zh": "Trinidad",
    "country": "Cuba",
    "country_zh": "古巴",
    "country_iso_code": "CU",
    "timezone": "America/Havana",
    "latitude": 22.9,
    "longitude": -82.01667
  },
  {
    "city": "Trinidad",
    "city_zh": "特立尼达",
    "country": "Cuba",
    "country_zh": "古巴",
    "country_iso_code": "CU",
    "timezone": "America/Havana",
    "latitude": 21.80224,
    "longitude": -79.98467
  },
  {
    "city": "Trinidad",
    "city_zh": "Trinidad",
    "country": "Cuba",
    "country_zh": "古巴",
    "country_iso_code": "CU",
    "timezone": "America/Havana",
    "latitude": 20.86667,
    "longitude": -77.85
  },
  {
    "city": "Santísima Trinidad",
    "city_zh": "Santísima Trinidad",
    "country": "Cuba",
    "country_zh": "古巴",
    "country_iso_code": "CU",
    "timezone": "America/Havana",
    "latitude": 22.70514,
    "longitude": -83.17301
  },
  {
    "city": "Trilladeras",
    "city_zh": "Trilladeras",
    "country": "Cuba",
    "country_zh": "古巴",
    "country_iso_code": "CU",
    "timezone": "America/Havana",
    "latitude": 21.9148,
    "longitude": -79.13541
  },
  {
    "city": "Trilladera",
    "city_zh": "Trilladera",
    "country": "Cuba",
    "country_zh": "古巴",
    "country_iso_code": "CU",
    "timezone": "America/Havana",
    "latitude": 21.94686,
    "longitude": -79.05798
  },
  {
    "city": "Tridente",
    "city_zh": "Tridente",
    "country": "Cuba",
    "country_zh": "古巴",
    "country_iso_code": "CU",
    "timezone": "America/Havana",
    "latitude": 22.79778,
    "longitude": -81.81056
  },
  {
    "city": "Tribilín",
    "city_zh": "Tribilín",
    "country": "Cuba",
    "country_zh": "古巴",
    "country_iso_code": "CU",
    "timezone": "America/Havana",
    "latitude": 20.3042,
    "longitude": -74.85433
  },
  {
    "city": "Triángulo",
    "city_zh": "Triángulo",
    "country": "Cuba",
    "country_zh": "古巴",
    "country_iso_code": "CU",
    "timezone": "America/Havana",
    "latitude": 22.97694,
    "longitude": -81.42889
  },
  {
    "city": "Triana",
    "city_zh": "Triana",
    "country": "Cuba",
    "country_zh": "古巴",
    "country_iso_code": "CU",
    "timezone": "America/Havana",
    "latitude": 22.76667,
    "longitude": -80.25
  },
  {
    "city": "Trebol",
    "city_zh": "Trebol",
    "country": "Cuba",
    "country_zh": "古巴",
    "country_iso_code": "CU",
    "timezone": "America/Havana",
    "latitude": 23.02872,
    "longitude": -82.37977
  },
  {
    "city": "Trevejo",
    "city_zh": "Trevejo",
    "country": "Cuba",
    "country_zh": "古巴",
    "country_iso_code": "CU",
    "timezone": "America/Havana",
    "latitude": 22.75,
    "longitude": -82.76667
  },
  {
    "city": "Tres por Ciento",
    "city_zh": "Tres por Ciento",
    "country": "Cuba",
    "country_zh": "古巴",
    "country_iso_code": "CU",
    "timezone": "America/Havana",
    "latitude": 22.75,
    "longitude": -83.73333
  },
  {
    "city": "Tres Picos",
    "city_zh": "Tres Picos",
    "country": "Cuba",
    "country_zh": "古巴",
    "country_iso_code": "CU",
    "timezone": "America/Havana",
    "latitude": 22.15,
    "longitude": -80.65
  },
  {
    "city": "Tres Picos",
    "city_zh": "Tres Picos",
    "country": "Cuba",
    "country_zh": "古巴",
    "country_iso_code": "CU",
    "timezone": "America/Havana",
    "latitude": 22.38297,
    "longitude": -80.45036
  },
  {
    "city": "Tres Palmas",
    "city_zh": "Tres Palmas",
    "country": "Cuba",
    "country_zh": "古巴",
    "country_iso_code": "CU",
    "timezone": "America/Havana",
    "latitude": 22.07682,
    "longitude": -79.40372
  },
  {
    "city": "Tres Palmas",
    "city_zh": "Tres Palmas",
    "country": "Cuba",
    "country_zh": "古巴",
    "country_iso_code": "CU",
    "timezone": "America/Havana",
    "latitude": 20.51001,
    "longitude": -75.27478
  },
  {
    "city": "Tres Palacios",
    "city_zh": "Tres Palacios",
    "country": "Cuba",
    "country_zh": "古巴",
    "country_iso_code": "CU",
    "timezone": "America/Havana",
    "latitude": 22.7,
    "longitude": -80.5
  },
  {
    "city": "Tres Marías",
    "city_zh": "Tres Marías",
    "country": "Cuba",
    "country_zh": "古巴",
    "country_iso_code": "CU",
    "timezone": "America/Havana",
    "latitude": 22.5,
    "longitude": -80.96667
  },
  {
    "city": "Tres Marías",
    "city_zh": "Tres Marías",
    "country": "Cuba",
    "country_zh": "古巴",
    "country_iso_code": "CU",
    "timezone": "America/Havana",
    "latitude": 21.79757,
    "longitude": -78.48506
  },
  {
    "city": "Tres Hermanos",
    "city_zh": "Tres Hermanos",
    "country": "Cuba",
    "country_zh": "古巴",
    "country_iso_code": "CU",
    "timezone": "America/Havana",
    "latitude": 22.46667,
    "longitude": -80.81667
  },
  {
    "city": "Tres Hermanos",
    "city_zh": "Tres Hermanos",
    "country": "Cuba",
    "country_zh": "古巴",
    "country_iso_code": "CU",
    "timezone": "America/Havana",
    "latitude": 20.12,
    "longitude": -75.54611
  },
  {
    "city": "Tres Hermanas",
    "city_zh": "Tres Hermanas",
    "country": "Cuba",
    "country_zh": "古巴",
    "country_iso_code": "CU",
    "timezone": "America/Havana",
    "latitude": 22.33333,
    "longitude": -80.4
  },
  {
    "city": "Tres Hermanas",
    "city_zh": "Tres Hermanas",
    "country": "Cuba",
    "country_zh": "古巴",
    "country_iso_code": "CU",
    "timezone": "America/Havana",
    "latitude": 21.71667,
    "longitude": -79.03194
  },
  {
    "city": "Tres Hermanas",
    "city_zh": "Tres Hermanas",
    "country": "Cuba",
    "country_zh": "古巴",
    "country_iso_code": "CU",
    "timezone": "America/Havana",
    "latitude": 22.06224,
    "longitude": -78.52197
  },
  {
    "city": "Tres Golpes",
    "city_zh": "Tres Golpes",
    "country": "Cuba",
    "country_zh": "古巴",
    "country_iso_code": "CU",
    "timezone": "America/Havana",
    "latitude": 21.89634,
    "longitude": -78.66646
  },
  {
    "city": "Tres Golpes",
    "city_zh": "Tres Golpes",
    "country": "Cuba",
    "country_zh": "古巴",
    "country_iso_code": "CU",
    "timezone": "America/Havana",
    "latitude": 21.67806,
    "longitude": -78.91639
  },
  {
    "city": "Tres Cruces",
    "city_zh": "Tres Cruces",
    "country": "Cuba",
    "country_zh": "古巴",
    "country_iso_code": "CU",
    "timezone": "America/Havana",
    "latitude": 20.23333,
    "longitude": -76.18333
  },
  {
    "city": "Tres Ceibas",
    "city_zh": "Tres Ceibas",
    "country": "Cuba",
    "country_zh": "古巴",
    "country_iso_code": "CU",
    "timezone": "America/Havana",
    "latitude": 21.76194,
    "longitude": -79.03667
  },
  {
    "city": "Tres Carolinas",
    "city_zh": "Tres Carolinas",
    "country": "Cuba",
    "country_zh": "古巴",
    "country_iso_code": "CU",
    "timezone": "America/Havana",
    "latitude": 22.58561,
    "longitude": -80.22681
  },
  {
    "city": "Tres Caminos",
    "city_zh": "Tres Caminos",
    "country": "Cuba",
    "country_zh": "古巴",
    "country_iso_code": "CU",
    "timezone": "America/Havana",
    "latitude": 22.25,
    "longitude": -83.66667
  },
  {
    "city": "Tres Brazos",
    "city_zh": "Tres Brazos",
    "country": "Cuba",
    "country_zh": "古巴",
    "country_iso_code": "CU",
    "timezone": "America/Havana",
    "latitude": 20.06417,
    "longitude": -75.46139
  },
  {
    "city": "Travieso",
    "city_zh": "Travieso",
    "country": "Cuba",
    "country_zh": "古巴",
    "country_iso_code": "CU",
    "timezone": "America/Havana",
    "latitude": 22.78333,
    "longitude": -82.1
  },
  {
    "city": "Tránsito",
    "city_zh": "Tránsito",
    "country": "Cuba",
    "country_zh": "古巴",
    "country_iso_code": "CU",
    "timezone": "America/Havana",
    "latitude": 22.93889,
    "longitude": -81.38083
  },
  {
    "city": "Tranquilidad",
    "city_zh": "Tranquilidad",
    "country": "Cuba",
    "country_zh": "古巴",
    "country_iso_code": "CU",
    "timezone": "America/Havana",
    "latitude": 22.36667,
    "longitude": -80.36667
  },
  {
    "city": "Tranquilidad",
    "city_zh": "Tranquilidad",
    "country": "Cuba",
    "country_zh": "古巴",
    "country_iso_code": "CU",
    "timezone": "America/Havana",
    "latitude": 22.35,
    "longitude": -80.36667
  },
  {
    "city": "Tranquera de Piedra",
    "city_zh": "Tranquera de Piedra",
    "country": "Cuba",
    "country_zh": "古巴",
    "country_iso_code": "CU",
    "timezone": "America/Havana",
    "latitude": 20.98863,
    "longitude": -77.93735
  },
  {
    "city": "Tranquera",
    "city_zh": "Tranquera",
    "country": "Cuba",
    "country_zh": "古巴",
    "country_iso_code": "CU",
    "timezone": "America/Havana",
    "latitude": 22.06667,
    "longitude": -80.6
  },
  {
    "city": "Trabuco",
    "city_zh": "Trabuco",
    "country": "Cuba",
    "country_zh": "古巴",
    "country_iso_code": "CU",
    "timezone": "America/Havana",
    "latitude": 21.50072,
    "longitude": -78.41056
  },
  {
    "city": "Horqueta-Tocino",
    "city_zh": "Horqueta-Tocino",
    "country": "Cuba",
    "country_zh": "古巴",
    "country_iso_code": "CU",
    "timezone": "America/Havana",
    "latitude": 22.42925,
    "longitude": -80.18173
  },
  {
    "city": "Toscano",
    "city_zh": "Toscano",
    "country": "Cuba",
    "country_zh": "古巴",
    "country_iso_code": "CU",
    "timezone": "America/Havana",
    "latitude": 22.77083,
    "longitude": -82.75472
  },
  {
    "city": "Tortuguilla",
    "city_zh": "Tortuguilla",
    "country": "Cuba",
    "country_zh": "古巴",
    "country_iso_code": "CU",
    "timezone": "America/Havana",
    "latitude": 19.97497,
    "longitude": -74.93409
  },
  {
    "city": "Tortugas",
    "city_zh": "Tortugas",
    "country": "Cuba",
    "country_zh": "古巴",
    "country_iso_code": "CU",
    "timezone": "America/Havana",
    "latitude": 22.83333,
    "longitude": -83.48333
  },
  {
    "city": "Torrijo",
    "city_zh": "Torrijo",
    "country": "Cuba",
    "country_zh": "古巴",
    "country_iso_code": "CU",
    "timezone": "America/Havana",
    "latitude": 21.69329,
    "longitude": -79.1839
  },
  {
    "city": "Torriente",
    "city_zh": "Torriente",
    "country": "Cuba",
    "country_zh": "古巴",
    "country_iso_code": "CU",
    "timezone": "America/Havana",
    "latitude": 22.71028,
    "longitude": -81.19417
  },
  {
    "city": "Torriente",
    "city_zh": "Torriente",
    "country": "Cuba",
    "country_zh": "古巴",
    "country_iso_code": "CU",
    "timezone": "America/Havana",
    "latitude": 22.59025,
    "longitude": -81.24258
  },
  {
    "city": "Torres",
    "city_zh": "Torres",
    "country": "Cuba",
    "country_zh": "古巴",
    "country_iso_code": "CU",
    "timezone": "America/Havana",
    "latitude": 22.85,
    "longitude": -82.51667
  },
  {
    "city": "Torre Quemada",
    "city_zh": "Torre Quemada",
    "country": "Cuba",
    "country_zh": "古巴",
    "country_iso_code": "CU",
    "timezone": "America/Havana",
    "latitude": 22.19392,
    "longitude": -80.66606
  },
  {
    "city": "Torre",
    "city_zh": "Torre",
    "country": "Cuba",
    "country_zh": "古巴",
    "country_iso_code": "CU",
    "timezone": "America/Havana",
    "latitude": 22.5,
    "longitude": -80.85
  },
  {
    "city": "Torre",
    "city_zh": "Torre",
    "country": "Cuba",
    "country_zh": "古巴",
    "country_iso_code": "CU",
    "timezone": "America/Havana",
    "latitude": 20.36528,
    "longitude": -74.95333
  },
  {
    "city": "Torralba",
    "city_zh": "Torralba",
    "country": "Cuba",
    "country_zh": "古巴",
    "country_iso_code": "CU",
    "timezone": "America/Havana",
    "latitude": 22.18333,
    "longitude": -83.91667
  },
  {
    "city": "Toronto",
    "city_zh": "Toronto",
    "country": "Cuba",
    "country_zh": "古巴",
    "country_iso_code": "CU",
    "timezone": "America/Havana",
    "latitude": 22.78333,
    "longitude": -82.5
  },
  {
    "city": "Toredos",
    "city_zh": "Toredos",
    "country": "Cuba",
    "country_zh": "古巴",
    "country_iso_code": "CU",
    "timezone": "America/Havana",
    "latitude": 21.11667,
    "longitude": -78.15
  },
  {
    "city": "Topes de Collantes",
    "city_zh": "Topes de Collantes",
    "country": "Cuba",
    "country_zh": "古巴",
    "country_iso_code": "CU",
    "timezone": "America/Havana",
    "latitude": 21.91524,
    "longitude": -80.01929
  },
  {
    "city": "Tonquín",
    "city_zh": "Tonquín",
    "country": "Cuba",
    "country_zh": "古巴",
    "country_iso_code": "CU",
    "timezone": "America/Havana",
    "latitude": 21.07272,
    "longitude": -75.91397
  },
  {
    "city": "Tongonina",
    "city_zh": "Tongonina",
    "country": "Cuba",
    "country_zh": "古巴",
    "country_iso_code": "CU",
    "timezone": "America/Havana",
    "latitude": 22.16444,
    "longitude": -84.26528
  },
  {
    "city": "Tomás Reyes",
    "city_zh": "Tomás Reyes",
    "country": "Cuba",
    "country_zh": "古巴",
    "country_iso_code": "CU",
    "timezone": "America/Havana",
    "latitude": 22.78333,
    "longitude": -81.28333
  },
  {
    "city": "Toledo",
    "city_zh": "Toledo",
    "country": "Cuba",
    "country_zh": "古巴",
    "country_iso_code": "CU",
    "timezone": "America/Havana",
    "latitude": 22.92694,
    "longitude": -80.46778
  },
  {
    "city": "Toa",
    "city_zh": "Toa",
    "country": "Cuba",
    "country_zh": "古巴",
    "country_iso_code": "CU",
    "timezone": "America/Havana",
    "latitude": 20.38778,
    "longitude": -74.54694
  },
  {
    "city": "El Titi",
    "city_zh": "El Titi",
    "country": "Cuba",
    "country_zh": "古巴",
    "country_iso_code": "CU",
    "timezone": "America/Havana",
    "latitude": 20.34117,
    "longitude": -76.17002
  },
  {
    "city": "Títere",
    "city_zh": "Títere",
    "country": "Cuba",
    "country_zh": "古巴",
    "country_iso_code": "CU",
    "timezone": "America/Havana",
    "latitude": 22.73333,
    "longitude": -82.6
  },
  {
    "city": "Tirapalo",
    "city_zh": "Tirapalo",
    "country": "Cuba",
    "country_zh": "古巴",
    "country_iso_code": "CU",
    "timezone": "America/Havana",
    "latitude": 20.38333,
    "longitude": -76.73333
  },
  {
    "city": "Tirabeque",
    "city_zh": "Tirabeque",
    "country": "Cuba",
    "country_zh": "古巴",
    "country_iso_code": "CU",
    "timezone": "America/Havana",
    "latitude": 22.95,
    "longitude": -82.36667
  },
  {
    "city": "Tío Pedro",
    "city_zh": "Tío Pedro",
    "country": "Cuba",
    "country_zh": "古巴",
    "country_iso_code": "CU",
    "timezone": "America/Havana",
    "latitude": 21.71966,
    "longitude": -78.77606
  },
  {
    "city": "Tiojeno",
    "city_zh": "Tiojeno",
    "country": "Cuba",
    "country_zh": "古巴",
    "country_iso_code": "CU",
    "timezone": "America/Havana",
    "latitude": 21.06667,
    "longitude": -76.08333
  },
  {
    "city": "Tío Felipe",
    "city_zh": "Tío Felipe",
    "country": "Cuba",
    "country_zh": "古巴",
    "country_iso_code": "CU",
    "timezone": "America/Havana",
    "latitude": 20.37969,
    "longitude": -75.43161
  },
  {
    "city": "Tínima",
    "city_zh": "Tínima",
    "country": "Cuba",
    "country_zh": "古巴",
    "country_iso_code": "CU",
    "timezone": "America/Havana",
    "latitude": 22.53333,
    "longitude": -80.8
  },
  {
    "city": "Tínima",
    "city_zh": "Tínima",
    "country": "Cuba",
    "country_zh": "古巴",
    "country_iso_code": "CU",
    "timezone": "America/Havana",
    "latitude": 22.52238,
    "longitude": -80.81617
  },
  {
    "city": "Tínima",
    "city_zh": "Tínima",
    "country": "Cuba",
    "country_zh": "古巴",
    "country_iso_code": "CU",
    "timezone": "America/Havana",
    "latitude": 20.26667,
    "longitude": -76.8
  },
  {
    "city": "Tinguillo",
    "city_zh": "Tinguillo",
    "country": "Cuba",
    "country_zh": "古巴",
    "country_iso_code": "CU",
    "timezone": "America/Havana",
    "latitude": 22.23333,
    "longitude": -83.83333
  },
  {
    "city": "Tinguaro",
    "city_zh": "Tinguaro",
    "country": "Cuba",
    "country_zh": "古巴",
    "country_iso_code": "CU",
    "timezone": "America/Havana",
    "latitude": 22.76667,
    "longitude": -80.96667
  },