[
  {
    "city": "Gitara",
    "city_zh": "Gitara",
    "country": "Burundi",
    "country_zh": "蒲隆地",
    "country_iso_code": "BI",
    "timezone": "Africa/Bujumbura",
    "latitude": -4.2955,
    "longitude": 29.5933
  },
  {
    "city": "Kirungu",
    "city_zh": "Kirungu",
    "country": "Burundi",
    "country_zh": "蒲隆地",
    "country_iso_code": "BI",
    "timezone": "Africa/Bujumbura",
    "latitude": -4.3152,
    "longitude": 29.6324
  },
  {
    "city": "Bukeye",
    "city_zh": "Bukeye",
    "country": "Burundi",
    "country_zh": "蒲隆地",
    "country_iso_code": "BI",
    "timezone": "Africa/Bujumbura",
    "latitude": -4.3345,
    "longitude": 29.61972
  },
  {
    "city": "Nyabigina",
    "city_zh": "Nyabigina",
    "country": "Burundi",
    "country_zh": "蒲隆地",
    "country_iso_code": "BI",
    "timezone": "Africa/Bujumbura",
    "latitude": -4.3685,
    "longitude": 29.6847
  },
  {
    "city": "Kabonga",
    "city_zh": "Kabonga",
    "country": "Burundi",
    "country_zh": "蒲隆地",
    "country_iso_code": "BI",
    "timezone": "Africa/Bujumbura",
    "latitude": -4.41659,
    "longitude": 29.68447
  },
  {
    "city": "Kabonga",
    "city_zh": "Kabonga",
    "country": "Burundi",
    "country_zh": "蒲隆地",
    "country_iso_code": "BI",
    "timezone": "Africa/Bujumbura",
    "latitude": -4.4068,
    "longitude": 29.673
  },
  {
    "city": "Gisenga",
    "city_zh": "Gisenga",
    "country": "Burundi",
    "country_zh": "蒲隆地",
    "country_iso_code": "BI",
    "timezone": "Africa/Bujumbura",
    "latitude": -4.4216,
    "longitude": 29.6694
  },
  {
    "city": "Banda",
    "city_zh": "Banda",
    "country": "Burundi",
    "country_zh": "蒲隆地",
    "country_iso_code": "BI",
    "timezone": "Africa/Bujumbura",
    "latitude": -4.4435,
    "longitude": 29.667
  },
  {
    "city": "Materwa",
    "city_zh": "Materwa",
    "country": "Burundi",
    "country_zh": "蒲隆地",
    "country_iso_code": "BI",
    "timezone": "Africa/Bujumbura",
    "latitude": -4.4459,
    "longitude": 29.7444
  },
  {
    "city": "Koka",
    "city_zh": "Koka",
    "country": "Burundi",
    "country_zh": "蒲隆地",
    "country_iso_code": "BI",
    "timezone": "Africa/Bujumbura",
    "latitude": -4.2527,
    "longitude": 29.935
  },
  {
    "city": "Mutsindo",
    "city_zh": "Mutsindo",
    "country": "Burundi",
    "country_zh": "蒲隆地",
    "country_iso_code": "BI",
    "timezone": "Africa/Bujumbura",
    "latitude": -4.2563,
    "longitude": 29.8379
  },
  {
    "city": "Ncanyi",
    "city_zh": "Ncanyi",
    "country": "Burundi",
    "country_zh": "蒲隆地",
    "country_iso_code": "BI",
    "timezone": "Africa/Bujumbura",
    "latitude": -4.2562,
    "longitude": 29.79823
  },
  {
    "city": "Mbizi",
    "city_zh": "Mbizi",
    "country": "Burundi",
    "country_zh": "蒲隆地",
    "country_iso_code": "BI",
    "timezone": "Africa/Bujumbura",
    "latitude": -4.2608,
    "longitude": 29.8091
  },
  {
    "city": "Nyabigina",
    "city_zh": "Nyabigina",
    "country": "Burundi",
    "country_zh": "蒲隆地",
    "country_iso_code": "BI",
    "timezone": "Africa/Bujumbura",
    "latitude": -4.2586,
    "longitude": 29.8743
  },
  {
    "city": "Kibimba",
    "city_zh": "Kibimba",
    "country": "Burundi",
    "country_zh": "蒲隆地",
    "country_iso_code": "BI",
    "timezone": "Africa/Bujumbura",
    "latitude": -4.2603,
    "longitude": 29.7903
  },
  {
    "city": "Nyarubanga",
    "city_zh": "Nyarubanga",
    "country": "Burundi",
    "country_zh": "蒲隆地",
    "country_iso_code": "BI",
    "timezone": "Africa/Bujumbura",
    "latitude": -4.2654,
    "longitude": 29.9695
  },
  {
    "city": "Kinyami",
    "city_zh": "Kinyami",
    "country": "Burundi",
    "country_zh": "蒲隆地",
    "country_iso_code": "BI",
    "timezone": "Africa/Bujumbura",
    "latitude": -4.2644,
    "longitude": 29.7625
  },
  {
    "city": "Nyamagegera",
    "city_zh": "Nyamagegera",
    "country": "Burundi",
    "country_zh": "蒲隆地",
    "country_iso_code": "BI",
    "timezone": "Africa/Bujumbura",
    "latitude": -4.2647,
    "longitude": 29.8078
  },
  {
    "city": "Mwendo",
    "city_zh": "Mwendo",
    "country": "Burundi",
    "country_zh": "蒲隆地",
    "country_iso_code": "BI",
    "timezone": "Africa/Bujumbura",
    "latitude": -4.2704,
    "longitude": 29.7517
  },
  {
    "city": "Mabanda",
    "city_zh": "Mabanda",
    "country": "Burundi",
    "country_zh": "蒲隆地",
    "country_iso_code": "BI",
    "timezone": "Africa/Bujumbura",
    "latitude": -4.2743,
    "longitude": 29.7749
  },
  {
    "city": "Kanyinya",
    "city_zh": "Kanyinya",
    "country": "Burundi",
    "country_zh": "蒲隆地",
    "country_iso_code": "BI",
    "timezone": "Africa/Bujumbura",
    "latitude": -4.2711,
    "longitude": 29.9147
  },
  {
    "city": "Kiremba",
    "city_zh": "Kiremba",
    "country": "Burundi",
    "country_zh": "蒲隆地",
    "country_iso_code": "BI",
    "timezone": "Africa/Bujumbura",
    "latitude": -4.2779,
    "longitude": 29.8581
  },
  {
    "city": "Musaswe",
    "city_zh": "Musaswe",
    "country": "Burundi",
    "country_zh": "蒲隆地",
    "country_iso_code": "BI",
    "timezone": "Africa/Bujumbura",
    "latitude": -4.2823,
    "longitude": 29.8731
  },
  {
    "city": "Kabarazaga",
    "city_zh": "Kabarazaga",
    "country": "Burundi",
    "country_zh": "蒲隆地",
    "country_iso_code": "BI",
    "timezone": "Africa/Bujumbura",
    "latitude": -4.2817,
    "longitude": 29.8411
  },
  {
    "city": "Kaburi",
    "city_zh": "Kaburi",
    "country": "Burundi",
    "country_zh": "蒲隆地",
    "country_iso_code": "BI",
    "timezone": "Africa/Bujumbura",
    "latitude": -4.2871,
    "longitude": 29.7737
  },
  {
    "city": "Jimbi",
    "city_zh": "Jimbi",
    "country": "Burundi",
    "country_zh": "蒲隆地",
    "country_iso_code": "BI",
    "timezone": "Africa/Bujumbura",
    "latitude": -4.2863,
    "longitude": 29.8817
  },
  {
    "city": "Ruremba",
    "city_zh": "Ruremba",
    "country": "Burundi",
    "country_zh": "蒲隆地",
    "country_iso_code": "BI",
    "timezone": "Africa/Bujumbura",
    "latitude": -4.2897,
    "longitude": 29.9975
  },
  {
    "city": "Gituguta",
    "city_zh": "Gituguta",
    "country": "Burundi",
    "country_zh": "蒲隆地",
    "country_iso_code": "BI",
    "timezone": "Africa/Bujumbura",
    "latitude": -4.2895,
    "longitude": 29.9388
  },
  {
    "city": "Muyange",
    "city_zh": "Muyange",
    "country": "Burundi",
    "country_zh": "蒲隆地",
    "country_iso_code": "BI",
    "timezone": "Africa/Bujumbura",
    "latitude": -4.3,
    "longitude": 29.69722
  },
  {
    "city": "Nkondo",
    "city_zh": "Nkondo",
    "country": "Burundi",
    "country_zh": "蒲隆地",
    "country_iso_code": "BI",
    "timezone": "Africa/Bujumbura",
    "latitude": -4.294,
    "longitude": 29.8049
  },
  {
    "city": "Kibago",
    "city_zh": "Kibago",
    "country": "Burundi",
    "country_zh": "蒲隆地",
    "country_iso_code": "BI",
    "timezone": "Africa/Bujumbura",
    "latitude": -4.2913,
    "longitude": 29.8366
  },
  {
    "city": "Ramvya",
    "city_zh": "Ramvya",
    "country": "Burundi",
    "country_zh": "蒲隆地",
    "country_iso_code": "BI",
    "timezone": "Africa/Bujumbura",
    "latitude": -4.3,
    "longitude": 29.9195
  },
  {
    "city": "Nyagatoke",
    "city_zh": "Nyagatoke",
    "country": "Burundi",
    "country_zh": "蒲隆地",
    "country_iso_code": "BI",
    "timezone": "Africa/Bujumbura",
    "latitude": -4.303,
    "longitude": 29.8176
  },
  {
    "city": "Sarange",
    "city_zh": "Sarange",
    "country": "Burundi",
    "country_zh": "蒲隆地",
    "country_iso_code": "BI",
    "timezone": "Africa/Bujumbura",
    "latitude": -4.3075,
    "longitude": 29.7961
  },
  {
    "city": "Gasanda",
    "city_zh": "Gasanda",
    "country": "Burundi",
    "country_zh": "蒲隆地",
    "country_iso_code": "BI",
    "timezone": "Africa/Bujumbura",
    "latitude": -4.3084,
    "longitude": 29.8166
  },
  {
    "city": "Kiremba",
    "city_zh": "Kiremba",
    "country": "Burundi",
    "country_zh": "蒲隆地",
    "country_iso_code": "BI",
    "timezone": "Africa/Bujumbura",
    "latitude": -4.3123,
    "longitude": 29.7698
  },
  {
    "city": "Nyamirande",
    "city_zh": "Nyamirande",
    "country": "Burundi",
    "country_zh": "蒲隆地",
    "country_iso_code": "BI",
    "timezone": "Africa/Bujumbura",
    "latitude": -4.3192,
    "longitude": 29.8345
  },
  {
    "city": "Rubimba",
    "city_zh": "Rubimba",
    "country": "Burundi",
    "country_zh": "蒲隆地",
    "country_iso_code": "BI",
    "timezone": "Africa/Bujumbura",
    "latitude": -4.3188,
    "longitude": 29.8457
  },
  {
    "city": "Mwoga",
    "city_zh": "Mwoga",
    "country": "Burundi",
    "country_zh": "蒲隆地",
    "country_iso_code": "BI",
    "timezone": "Africa/Bujumbura",
    "latitude": -4.319,
    "longitude": 29.7849
  },
  {
    "city": "Muyange",
    "city_zh": "Muyange",
    "country": "Burundi",
    "country_zh": "蒲隆地",
    "country_iso_code": "BI",
    "timezone": "Africa/Bujumbura",
    "latitude": -4.3275,
    "longitude": 29.905
  },
  {
    "city": "Makaka",
    "city_zh": "Makaka",
    "country": "Burundi",
    "country_zh": "蒲隆地",
    "country_iso_code": "BI",
    "timezone": "Africa/Bujumbura",
    "latitude": -4.3281,
    "longitude": 29.8404
  },
  {
    "city": "Kavumu",
    "city_zh": "Kavumu",
    "country": "Burundi",
    "country_zh": "蒲隆地",
    "country_iso_code": "BI",
    "timezone": "Africa/Bujumbura",
    "latitude": -4.3331,
    "longitude": 29.8284
  },
  {
    "city": "Mushara",
    "city_zh": "Mushara",
    "country": "Burundi",
    "country_zh": "蒲隆地",
    "country_iso_code": "BI",
    "timezone": "Africa/Bujumbura",
    "latitude": -4.3357,
    "longitude": 29.7694
  },
  {
    "city": "Muterama",
    "city_zh": "Muterama",
    "country": "Burundi",
    "country_zh": "蒲隆地",
    "country_iso_code": "BI",
    "timezone": "Africa/Bujumbura",
    "latitude": -4.337,
    "longitude": 29.8185
  },
  {
    "city": "Karangara",
    "city_zh": "Karangara",
    "country": "Burundi",
    "country_zh": "蒲隆地",
    "country_iso_code": "BI",
    "timezone": "Africa/Bujumbura",
    "latitude": -4.34502,
    "longitude": 29.78855
  },
  {
    "city": "Bikobe",
    "city_zh": "Bikobe",
    "country": "Burundi",
    "country_zh": "蒲隆地",
    "country_iso_code": "BI",
    "timezone": "Africa/Bujumbura",
    "latitude": -4.3468,
    "longitude": 29.799
  },
  {
    "city": "Muremure",
    "city_zh": "Muremure",
    "country": "Burundi",
    "country_zh": "蒲隆地",
    "country_iso_code": "BI",
    "timezone": "Africa/Bujumbura",
    "latitude": -4.3452,
    "longitude": 29.8295
  },
  {
    "city": "Nyabutere",
    "city_zh": "Nyabutere",
    "country": "Burundi",
    "country_zh": "蒲隆地",
    "country_iso_code": "BI",
    "timezone": "Africa/Bujumbura",
    "latitude": -4.3525,
    "longitude": 29.7879
  },
  {
    "city": "Mbizi",
    "city_zh": "Mbizi",
    "country": "Burundi",
    "country_zh": "蒲隆地",
    "country_iso_code": "BI",
    "timezone": "Africa/Bujumbura",
    "latitude": -4.353,
    "longitude": 29.8431
  },
  {
    "city": "Kije",
    "city_zh": "Kije",
    "country": "Burundi",
    "country_zh": "蒲隆地",
    "country_iso_code": "BI",
    "timezone": "Africa/Bujumbura",
    "latitude": -4.3575,
    "longitude": 29.7699
  },
  {
    "city": "Jenda",
    "city_zh": "Jenda",
    "country": "Burundi",
    "country_zh": "蒲隆地",
    "country_iso_code": "BI",
    "timezone": "Africa/Bujumbura",
    "latitude": -4.3611,
    "longitude": 29.7822
  },
  {
    "city": "Kitara",
    "city_zh": "Kitara",
    "country": "Burundi",
    "country_zh": "蒲隆地",
    "country_iso_code": "BI",
    "timezone": "Africa/Bujumbura",
    "latitude": -4.3669,
    "longitude": 29.7713
  },
  {
    "city": "Gasaba",
    "city_zh": "Gasaba",
    "country": "Burundi",
    "country_zh": "蒲隆地",
    "country_iso_code": "BI",
    "timezone": "Africa/Bujumbura",
    "latitude": -4.3737,
    "longitude": 29.8531
  },
  {
    "city": "Gikurazo",
    "city_zh": "Gikurazo",
    "country": "Burundi",
    "country_zh": "蒲隆地",
    "country_iso_code": "BI",
    "timezone": "Africa/Bujumbura",
    "latitude": -4.3787,
    "longitude": 29.7824
  },
  {
    "city": "Budatekwa",
    "city_zh": "Budatekwa",
    "country": "Burundi",
    "country_zh": "蒲隆地",
    "country_iso_code": "BI",
    "timezone": "Africa/Bujumbura",
    "latitude": -4.3957,
    "longitude": 29.7849
  },
  {
    "city": "Gatanga",
    "city_zh": "Gatanga",
    "country": "Burundi",
    "country_zh": "蒲隆地",
    "country_iso_code": "BI",
    "timezone": "Africa/Bujumbura",
    "latitude": -4.4019,
    "longitude": 29.7766
  },
  {
    "city": "Mugina",
    "city_zh": "Mugina",
    "country": "Burundi",
    "country_zh": "蒲隆地",
    "country_iso_code": "BI",
    "timezone": "Africa/Bujumbura",
    "latitude": -4.4221,
    "longitude": 29.7587
  },
  {
    "city": "Gakombe",
    "city_zh": "Gakombe",
    "country": "Burundi",
    "country_zh": "蒲隆地",
    "country_iso_code": "BI",
    "timezone": "Africa/Bujumbura",
    "latitude": -4.0056,
    "longitude": 29.6631
  },
  {
    "city": "Ruyaga",
    "city_zh": "Ruyaga",
    "country": "Burundi",
    "country_zh": "蒲隆地",
    "country_iso_code": "BI",
    "timezone": "Africa/Bujumbura",
    "latitude": -4.0053,
    "longitude": 29.6944
  },
  {
    "city": "Musagara",
    "city_zh": "Musagara",
    "country": "Burundi",
    "country_zh": "蒲隆地",
    "country_iso_code": "BI",
    "timezone": "Africa/Bujumbura",
    "latitude": -4.0087,
    "longitude": 29.5847
  },
  {
    "city": "Munini",
    "city_zh": "Munini",
    "country": "Burundi",
    "country_zh": "蒲隆地",
    "country_iso_code": "BI",
    "timezone": "Africa/Bujumbura",
    "latitude": -4.0094,
    "longitude": 29.7408
  },
  {
    "city": "Ndagano",
    "city_zh": "Ndagano",
    "country": "Burundi",
    "country_zh": "蒲隆地",
    "country_iso_code": "BI",
    "timezone": "Africa/Bujumbura",
    "latitude": -4.007,
    "longitude": 29.6784
  },
  {
    "city": "Nyamirambo",
    "city_zh": "Nyamirambo",
    "country": "Burundi",
    "country_zh": "蒲隆地",
    "country_iso_code": "BI",
    "timezone": "Africa/Bujumbura",
    "latitude": -4.0087,
    "longitude": 29.4879
  },
  {
    "city": "Gatanga",
    "city_zh": "Gatanga",
    "country": "Burundi",
    "country_zh": "蒲隆地",
    "country_iso_code": "BI",
    "timezone": "Africa/Bujumbura",
    "latitude": -4.0096,
    "longitude": 29.7204
  },
  {
    "city": "Murago",
    "city_zh": "Murago",
    "country": "Burundi",
    "country_zh": "蒲隆地",
    "country_iso_code": "BI",
    "timezone": "Africa/Bujumbura",
    "latitude": -4.0129,
    "longitude": 29.524
  },
  {
    "city": "Gitega",
    "city_zh": "Gitega",
    "country": "Burundi",
    "country_zh": "蒲隆地",
    "country_iso_code": "BI",
    "timezone": "Africa/Bujumbura",
    "latitude": -4.0117,
    "longitude": 29.5672
  },
  {
    "city": "Mutambara",
    "city_zh": "Mutambara",
    "country": "Burundi",
    "country_zh": "蒲隆地",
    "country_iso_code": "BI",
    "timezone": "Africa/Bujumbura",
    "latitude": -4.0145,
    "longitude": 29.4637
  },
  {
    "city": "Mushishi",
    "city_zh": "Mushishi",
    "country": "Burundi",
    "country_zh": "蒲隆地",
    "country_iso_code": "BI",
    "timezone": "Africa/Bujumbura",
    "latitude": -4.0115,
    "longitude": 29.5976
  },
  {
    "city": "Gitwe I",
    "city_zh": "Gitwe I",
    "country": "Burundi",
    "country_zh": "蒲隆地",
    "country_iso_code": "BI",
    "timezone": "Africa/Bujumbura",
    "latitude": -4.0117,
    "longitude": 29.5123
  },
  {
    "city": "Gahama",
    "city_zh": "Gahama",
    "country": "Burundi",
    "country_zh": "蒲隆地",
    "country_iso_code": "BI",
    "timezone": "Africa/Bujumbura",
    "latitude": -4.0174,
    "longitude": 29.6618
  },
  {
    "city": "Kirungu",
    "city_zh": "Kirungu",
    "country": "Burundi",
    "country_zh": "蒲隆地",
    "country_iso_code": "BI",
    "timezone": "Africa/Bujumbura",
    "latitude": -4.0241,
    "longitude": 29.5361
  },
  {
    "city": "Nyamitare",
    "city_zh": "Nyamitare",
    "country": "Burundi",
    "country_zh": "蒲隆地",
    "country_iso_code": "BI",
    "timezone": "Africa/Bujumbura",
    "latitude": -4.0259,
    "longitude": 29.678
  },
  {
    "city": "Murehe",
    "city_zh": "Murehe",
    "country": "Burundi",
    "country_zh": "蒲隆地",
    "country_iso_code": "BI",
    "timezone": "Africa/Bujumbura",
    "latitude": -4.0284,
    "longitude": 29.7124
  },
  {
    "city": "Mugano",
    "city_zh": "Mugano",
    "country": "Burundi",
    "country_zh": "蒲隆地",
    "country_iso_code": "BI",
    "timezone": "Africa/Bujumbura",
    "latitude": -4.0321,
    "longitude": 29.5472
  },
  {
    "city": "Burenza",
    "city_zh": "Burenza",
    "country": "Burundi",
    "country_zh": "蒲隆地",
    "country_iso_code": "BI",
    "timezone": "Africa/Bujumbura",
    "latitude": -4.0325,
    "longitude": 29.7232
  },
  {
    "city": "Gihinga",
    "city_zh": "Gihinga",
    "country": "Burundi",
    "country_zh": "蒲隆地",
    "country_iso_code": "BI",
    "timezone": "Africa/Bujumbura",
    "latitude": -4.0279,
    "longitude": 29.6314
  },
  {
    "city": "Nyabigonzi",
    "city_zh": "Nyabigonzi",
    "country": "Burundi",
    "country_zh": "蒲隆地",
    "country_iso_code": "BI",
    "timezone": "Africa/Bujumbura",
    "latitude": -4.0324,
    "longitude": 29.4994
  },
  {
    "city": "Nyarugera",
    "city_zh": "Nyarugera",
    "country": "Burundi",
    "country_zh": "蒲隆地",
    "country_iso_code": "BI",
    "timezone": "Africa/Bujumbura",
    "latitude": -4.0333,
    "longitude": 29.7056
  },
  {
    "city": "Karagara",
    "city_zh": "Karagara",
    "country": "Burundi",
    "country_zh": "蒲隆地",
    "country_iso_code": "BI",
    "timezone": "Africa/Bujumbura",
    "latitude": -4.0337,
    "longitude": 29.5148
  },
  {
    "city": "Kabwayi",
    "city_zh": "Kabwayi",
    "country": "Burundi",
    "country_zh": "蒲隆地",
    "country_iso_code": "BI",
    "timezone": "Africa/Bujumbura",
    "latitude": -4.0354,
    "longitude": 29.5561
  },
  {
    "city": "Ntunda",
    "city_zh": "Ntunda",
    "country": "Burundi",
    "country_zh": "蒲隆地",
    "country_iso_code": "BI",
    "timezone": "Africa/Bujumbura",
    "latitude": -4.0364,
    "longitude": 29.6617
  },
  {
    "city": "Gatete",
    "city_zh": "Gatete",
    "country": "Burundi",
    "country_zh": "蒲隆地",
    "country_iso_code": "BI",
    "timezone": "Africa/Bujumbura",
    "latitude": -4.04194,
    "longitude": 29.47306
  },
  {
    "city": "Kangange",
    "city_zh": "Kangange",
    "country": "Burundi",
    "country_zh": "蒲隆地",
    "country_iso_code": "BI",
    "timezone": "Africa/Bujumbura",
    "latitude": -4.0434,
    "longitude": 29.7131
  },
  {
    "city": "Gatete",
    "city_zh": "Gatete",
    "country": "Burundi",
    "country_zh": "蒲隆地",
    "country_iso_code": "BI",
    "timezone": "Africa/Bujumbura",
    "latitude": -4.0446,
    "longitude": 29.4803
  },
  {
    "city": "Mugara",
    "city_zh": "Mugara",
    "country": "Burundi",
    "country_zh": "蒲隆地",
    "country_iso_code": "BI",
    "timezone": "Africa/Bujumbura",
    "latitude": -4.0472,
    "longitude": 29.5251
  },
  {
    "city": "Musivya",
    "city_zh": "Musivya",
    "country": "Burundi",
    "country_zh": "蒲隆地",
    "country_iso_code": "BI",
    "timezone": "Africa/Bujumbura",
    "latitude": -4.0461,
    "longitude": 29.6448
  },
  {
    "city": "Buhinga",
    "city_zh": "Buhinga",
    "country": "Burundi",
    "country_zh": "蒲隆地",
    "country_iso_code": "BI",
    "timezone": "Africa/Bujumbura",
    "latitude": -4.045,
    "longitude": 29.7321
  },
  {
    "city": "Bukanda",
    "city_zh": "Bukanda",
    "country": "Burundi",
    "country_zh": "蒲隆地",
    "country_iso_code": "BI",
    "timezone": "Africa/Bujumbura",
    "latitude": -4.052,
    "longitude": 29.6079
  },
  {
    "city": "Gasenyi",
    "city_zh": "Gasenyi",
    "country": "Burundi",
    "country_zh": "蒲隆地",
    "country_iso_code": "BI",
    "timezone": "Africa/Bujumbura",
    "latitude": -4.0504,
    "longitude": 29.6908
  },
  {
    "city": "Binyuro",
    "city_zh": "Binyuro",
    "country": "Burundi",
    "country_zh": "蒲隆地",
    "country_iso_code": "BI",
    "timezone": "Africa/Bujumbura",
    "latitude": -4.0547,
    "longitude": 29.623
  },
  {
    "city": "Kabagara",
    "city_zh": "Kabagara",
    "country": "Burundi",
    "country_zh": "蒲隆地",
    "country_iso_code": "BI",
    "timezone": "Africa/Bujumbura",
    "latitude": -4.0576,
    "longitude": 29.646
  },
  {
    "city": "Mugara",
    "city_zh": "Mugara",
    "country": "Burundi",
    "country_zh": "蒲隆地",
    "country_iso_code": "BI",
    "timezone": "Africa/Bujumbura",
    "latitude": -4.05838,
    "longitude": 29.50528
  },
  {
    "city": "Kigutu",
    "city_zh": "Kigutu",
    "country": "Burundi",
    "country_zh": "蒲隆地",
    "country_iso_code": "BI",
    "timezone": "Africa/Bujumbura",
    "latitude": -4.0557,
    "longitude": 29.5568
  },
  {
    "city": "Cambogwe",
    "city_zh": "Cambogwe",
    "country": "Burundi",
    "country_zh": "蒲隆地",
    "country_iso_code": "BI",
    "timezone": "Africa/Bujumbura",
    "latitude": -4.0633,
    "longitude": 29.5251
  },
  {
    "city": "Gahago",
    "city_zh": "Gahago",
    "country": "Burundi",
    "country_zh": "蒲隆地",
    "country_iso_code": "BI",
    "timezone": "Africa/Bujumbura",
    "latitude": -4.0622,
    "longitude": 29.6817
  },
  {
    "city": "Kayabazi",
    "city_zh": "Kayabazi",
    "country": "Burundi",
    "country_zh": "蒲隆地",
    "country_iso_code": "BI",
    "timezone": "Africa/Bujumbura",
    "latitude": -4.0671,
    "longitude": 29.4924
  },
  {
    "city": "Gitwaro",
    "city_zh": "Gitwaro",
    "country": "Burundi",
    "country_zh": "蒲隆地",
    "country_iso_code": "BI",
    "timezone": "Africa/Bujumbura",
    "latitude": -4.0663,
    "longitude": 29.6206
  },
  {
    "city": "Bugeni",
    "city_zh": "Bugeni",
    "country": "Burundi",
    "country_zh": "蒲隆地",
    "country_iso_code": "BI",
    "timezone": "Africa/Bujumbura",
    "latitude": -4.0635,
    "longitude": 29.6457
  },
  {
    "city": "Migera",
    "city_zh": "Migera",
    "country": "Burundi",
    "country_zh": "蒲隆地",
    "country_iso_code": "BI",
    "timezone": "Africa/Bujumbura",
    "latitude": -4.0659,
    "longitude": 29.5863
  },
  {
    "city": "Karirimvya",
    "city_zh": "Karirimvya",
    "country": "Burundi",
    "country_zh": "蒲隆地",
    "country_iso_code": "BI",
    "timezone": "Africa/Bujumbura",
    "latitude": -4.0663,
    "longitude": 29.5258
  },
  {
    "city": "Masango",
    "city_zh": "Masango",
    "country": "Burundi",
    "country_zh": "蒲隆地",
    "country_iso_code": "BI",
    "timezone": "Africa/Bujumbura",
    "latitude": -4.0695,
    "longitude": 29.6568
  },
  {
    "city": "Musasa",
    "city_zh": "Musasa",
    "country": "Burundi",
    "country_zh": "蒲隆地",
    "country_iso_code": "BI",
    "timezone": "Africa/Bujumbura",
    "latitude": -4.0712,
    "longitude": 29.617
  },
  {
    "city": "Buhana",
    "city_zh": "Buhana",
    "country": "Burundi",
    "country_zh": "蒲隆地",
    "country_iso_code": "BI",
    "timezone": "Africa/Bujumbura",
    "latitude": -4.0762,
    "longitude": 29.6194
  },
  {
    "city": "Nyarubano",
    "city_zh": "Nyarubano",
    "country": "Burundi",
    "country_zh": "蒲隆地",
    "country_iso_code": "BI",
    "timezone": "Africa/Bujumbura",
    "latitude": -4.0828,
    "longitude": 29.6802
  },
  {
    "city": "Rurambira",
    "city_zh": "Rurambira",
    "country": "Burundi",
    "country_zh": "蒲隆地",
    "country_iso_code": "BI",
    "timezone": "Africa/Bujumbura",
    "latitude": -4.0839,
    "longitude": 29.7116
  },
  {
    "city": "Rusengo",
    "city_zh": "Rusengo",
    "country": "Burundi",
    "country_zh": "蒲隆地",
    "country_iso_code": "BI",
    "timezone": "Africa/Bujumbura",
    "latitude": -4.0843,
    "longitude": 29.5298
  },
  {
    "city": "Gashasha",
    "city_zh": "Gashasha",
    "country": "Burundi",
    "country_zh": "蒲隆地",
    "country_iso_code": "BI",
    "timezone": "Africa/Bujumbura",
    "latitude": -4.0878,
    "longitude": 29.5164
  },
  {
    "city": "Bwatemba",
    "city_zh": "Bwatemba",
    "country": "Burundi",
    "country_zh": "蒲隆地",
    "country_iso_code": "BI",
    "timezone": "Africa/Bujumbura",
    "latitude": -4.0822,
    "longitude": 29.6344
  },
  {
    "city": "Kaganza",
    "city_zh": "Kaganza",
    "country": "Burundi",
    "country_zh": "蒲隆地",
    "country_iso_code": "BI",
    "timezone": "Africa/Bujumbura",
    "latitude": -4.0851,
    "longitude": 29.5946
  },
  {
    "city": "Muramba",
    "city_zh": "Muramba",
    "country": "Burundi",
    "country_zh": "蒲隆地",
    "country_iso_code": "BI",
    "timezone": "Africa/Bujumbura",
    "latitude": -4.0866,
    "longitude": 29.6685
  },
  {
    "city": "Kiyazi",
    "city_zh": "Kiyazi",
    "country": "Burundi",
    "country_zh": "蒲隆地",
    "country_iso_code": "BI",
    "timezone": "Africa/Bujumbura",
    "latitude": -4.0899,
    "longitude": 29.7313
  },
  {
    "city": "Karonda",
    "city_zh": "Karonda",
    "country": "Burundi",
    "country_zh": "蒲隆地",
    "country_iso_code": "BI",
    "timezone": "Africa/Bujumbura",
    "latitude": -4.0918,
    "longitude": 29.4893
  },
  {
    "city": "Mazinga",
    "city_zh": "Mazinga",
    "country": "Burundi",
    "country_zh": "蒲隆地",
    "country_iso_code": "BI",
    "timezone": "Africa/Bujumbura",
    "latitude": -4.0962,
    "longitude": 29.5663
  },
  {
    "city": "Nyambeho",
    "city_zh": "Nyambeho",
    "country": "Burundi",
    "country_zh": "蒲隆地",
    "country_iso_code": "BI",
    "timezone": "Africa/Bujumbura",
    "latitude": -4.0936,
    "longitude": 29.7119
  },
  {
    "city": "Mutobo",
    "city_zh": "Mutobo",
    "country": "Burundi",
    "country_zh": "蒲隆地",
    "country_iso_code": "BI",
    "timezone": "Africa/Bujumbura",
    "latitude": -4.0952,
    "longitude": 29.6809
  },
  {
    "city": "Runda",
    "city_zh": "Runda",
    "country": "Burundi",
    "country_zh": "蒲隆地",
    "country_iso_code": "BI",
    "timezone": "Africa/Bujumbura",
    "latitude": -4.096,
    "longitude": 29.7003
  },
  {
    "city": "Rukoma",
    "city_zh": "Rukoma",
    "country": "Burundi",
    "country_zh": "蒲隆地",
    "country_iso_code": "BI",
    "timezone": "Africa/Bujumbura",
    "latitude": -4.0995,
    "longitude": 29.7325
  },
  {
    "city": "Kagoma",
    "city_zh": "Kagoma",
    "country": "Burundi",
    "country_zh": "蒲隆地",
    "country_iso_code": "BI",
    "timezone": "Africa/Bujumbura",
    "latitude": -4.1062,
    "longitude": 29.6218
  },
  {
    "city": "Vyanda",
    "city_zh": "Vyanda",
    "country": "Burundi",
    "country_zh": "蒲隆地",
    "country_iso_code": "BI",
    "timezone": "Africa/Bujumbura",
    "latitude": -4.1024,
    "longitude": 29.606
  },
  {
    "city": "Gishiha",
    "city_zh": "Gishiha",
    "country": "Burundi",
    "country_zh": "蒲隆地",
    "country_iso_code": "BI",
    "timezone": "Africa/Bujumbura",
    "latitude": -4.1067,
    "longitude": 29.7092
  },
  {
    "city": "Njugu",
    "city_zh": "Njugu",
    "country": "Burundi",
    "country_zh": "蒲隆地",
    "country_iso_code": "BI",
    "timezone": "Africa/Bujumbura",
    "latitude": -4.1105,
    "longitude": 29.582
  },
  {
    "city": "Mwandaro",
    "city_zh": "Mwandaro",
    "country": "Burundi",
    "country_zh": "蒲隆地",
    "country_iso_code": "BI",
    "timezone": "Africa/Bujumbura",
    "latitude": -4.1108,
    "longitude": 29.6293
  },
  {
    "city": "Kibingwe",
    "city_zh": "Kibingwe",
    "country": "Burundi",
    "country_zh": "蒲隆地",
    "country_iso_code": "BI",
    "timezone": "Africa/Bujumbura",
    "latitude": -4.114,
    "longitude": 29.6745
  },
  {
    "city": "Jongwe",
    "city_zh": "Jongwe",
    "country": "Burundi",
    "country_zh": "蒲隆地",
    "country_iso_code": "BI",
    "timezone": "Africa/Bujumbura",
    "latitude": -4.1144,
    "longitude": 29.6957
  },
  {
    "city": "Bandage",
    "city_zh": "Bandage",
    "country": "Burundi",
    "country_zh": "蒲隆地",
    "country_iso_code": "BI",
    "timezone": "Africa/Bujumbura",
    "latitude": -4.115,
    "longitude": 29.5927
  },
  {
    "city": "Kaberenge",
    "city_zh": "Kaberenge",
    "country": "Burundi",
    "country_zh": "蒲隆地",
    "country_iso_code": "BI",
    "timezone": "Africa/Bujumbura",
    "latitude": -4.1168,
    "longitude": 29.5657
  },
  {
    "city": "Kinyinya",
    "city_zh": "Kinyinya",
    "country": "Burundi",
    "country_zh": "蒲隆地",
    "country_iso_code": "BI",
    "timezone": "Africa/Bujumbura",
    "latitude": -4.1155,
    "longitude": 29.5725
  },
  {
    "city": "Rweza",
    "city_zh": "Rweza",
    "country": "Burundi",
    "country_zh": "蒲隆地",
    "country_iso_code": "BI",
    "timezone": "Africa/Bujumbura",
    "latitude": -4.1144,
    "longitude": 29.6074
  },
  {
    "city": "Rutegama",
    "city_zh": "Rutegama",
    "country": "Burundi",
    "country_zh": "蒲隆地",
    "country_iso_code": "BI",
    "timezone": "Africa/Bujumbura",
    "latitude": -4.1172,
    "longitude": 29.7354
  },
  {
    "city": "Ruzingwe",
    "city_zh": "Ruzingwe",
    "country": "Burundi",
    "country_zh": "蒲隆地",
    "country_iso_code": "BI",
    "timezone": "Africa/Bujumbura",
    "latitude": -4.1193,
    "longitude": 29.694
  },
  {
    "city": "Nyakabenga",
    "city_zh": "Nyakabenga",
    "country": "Burundi",
    "country_zh": "蒲隆地",
    "country_iso_code": "BI",
    "timezone": "Africa/Bujumbura",
    "latitude": -4.1227,
    "longitude": 29.6005
  },
  {
    "city": "Karehe",
    "city_zh": "Karehe",
    "country": "Burundi",
    "country_zh": "蒲隆地",
    "country_iso_code": "BI",
    "timezone": "Africa/Bujumbura",
    "latitude": -4.1238,
    "longitude": 29.5724
  },
  {
    "city": "Karagabazi",
    "city_zh": "Karagabazi",
    "country": "Burundi",
    "country_zh": "蒲隆地",
    "country_iso_code": "BI",
    "timezone": "Africa/Bujumbura",
    "latitude": -4.1239,
    "longitude": 29.6669
  },
  {
    "city": "Rugi",
    "city_zh": "Rugi",
    "country": "Burundi",
    "country_zh": "蒲隆地",
    "country_iso_code": "BI",
    "timezone": "Africa/Bujumbura",
    "latitude": -4.1282,
    "longitude": 29.6857
  },
  {
    "city": "Gitaba",
    "city_zh": "Gitaba",
    "country": "Burundi",
    "country_zh": "蒲隆地",
    "country_iso_code": "BI",
    "timezone": "Africa/Bujumbura",
    "latitude": -4.1283,
    "longitude": 29.6411
  },
  {
    "city": "Nyagatovu",
    "city_zh": "Nyagatovu",
    "country": "Burundi",
    "country_zh": "蒲隆地",
    "country_iso_code": "BI",
    "timezone": "Africa/Bujumbura",
    "latitude": -4.1288,
    "longitude": 29.7334
  },
  {
    "city": "Nyamagana",
    "city_zh": "Nyamagana",
    "country": "Burundi",
    "country_zh": "蒲隆地",
    "country_iso_code": "BI",
    "timezone": "Africa/Bujumbura",
    "latitude": -4.1286,
    "longitude": 29.6264
  },
  {
    "city": "Martyazo",
    "city_zh": "Martyazo",
    "country": "Burundi",
    "country_zh": "蒲隆地",
    "country_iso_code": "BI",
    "timezone": "Africa/Bujumbura",
    "latitude": -4.1358,
    "longitude": 29.7012
  },
  {
    "city": "Gahandu",
    "city_zh": "Gahandu",
    "country": "Burundi",
    "country_zh": "蒲隆地",
    "country_iso_code": "BI",
    "timezone": "Africa/Bujumbura",
    "latitude": -4.1342,
    "longitude": 29.6799
  },
  {
    "city": "Kabuye",
    "city_zh": "Kabuye",
    "country": "Burundi",
    "country_zh": "蒲隆地",
    "country_iso_code": "BI",
    "timezone": "Africa/Bujumbura",
    "latitude": -4.1389,
    "longitude": 29.685
  },
  {
    "city": "Kigwena",
    "city_zh": "Kigwena",
    "country": "Burundi",
    "country_zh": "蒲隆地",
    "country_iso_code": "BI",
    "timezone": "Africa/Bujumbura",
    "latitude": -4.1443,
    "longitude": 29.5317
  },
  {
    "city": "Rabiro",
    "city_zh": "Rabiro",
    "country": "Burundi",
    "country_zh": "蒲隆地",
    "country_iso_code": "BI",
    "timezone": "Africa/Bujumbura",
    "latitude": -4.1452,
    "longitude": 29.746
  },
  {
    "city": "Mahembe",
    "city_zh": "Mahembe",
    "country": "Burundi",
    "country_zh": "蒲隆地",
    "country_iso_code": "BI",
    "timezone": "Africa/Bujumbura",
    "latitude": -4.1437,
    "longitude": 29.6321
  },
  {
    "city": "Mazuru",
    "city_zh": "Mazuru",
    "country": "Burundi",
    "country_zh": "蒲隆地",
    "country_iso_code": "BI",
    "timezone": "Africa/Bujumbura",
    "latitude": -4.1475,
    "longitude": 29.6533
  },
  {
    "city": "Gikuzi",
    "city_zh": "Gikuzi",
    "country": "Burundi",
    "country_zh": "蒲隆地",
    "country_iso_code": "BI",
    "timezone": "Africa/Bujumbura",
    "latitude": -4.1544,
    "longitude": 29.7216
  },
  {
    "city": "Ndoba",
    "city_zh": "Ndoba",
    "country": "Burundi",
    "country_zh": "蒲隆地",
    "country_iso_code": "BI",
    "timezone": "Africa/Bujumbura",
    "latitude": -4.1505,
    "longitude": 29.6808
  },
  {
    "city": "Rusenyi",
    "city_zh": "Rusenyi",
    "country": "Burundi",
    "country_zh": "蒲隆地",
    "country_iso_code": "BI",
    "timezone": "Africa/Bujumbura",
    "latitude": -4.1552,
    "longitude": 29.689
  },
  {
    "city": "Gitunguru",
    "city_zh": "Gitunguru",
    "country": "Burundi",
    "country_zh": "蒲隆地",
    "country_iso_code": "BI",
    "timezone": "Africa/Bujumbura",
    "latitude": -4.1564,
    "longitude": 29.6268
  },
  {
    "city": "Nyabisiga",
    "city_zh": "Nyabisiga",
    "country": "Burundi",
    "country_zh": "蒲隆地",
    "country_iso_code": "BI",
    "timezone": "Africa/Bujumbura",
    "latitude": -4.1556,
    "longitude": 29.7272
  },
  {
    "city": "Higiro",
    "city_zh": "Higiro",
    "country": "Burundi",
    "country_zh": "蒲隆地",
    "country_iso_code": "BI",
    "timezone": "Africa/Bujumbura",
    "latitude": -4.1584,
    "longitude": 29.714
  },
  {
    "city": "Gahama",
    "city_zh": "Gahama",
    "country": "Burundi",
    "country_zh": "蒲隆地",
    "country_iso_code": "BI",
    "timezone": "Africa/Bujumbura",
    "latitude": -4.1615,
    "longitude": 29.7001
  },
  {
    "city": "Mugu",
    "city_zh": "Mugu",
    "country": "Burundi",
    "country_zh": "蒲隆地",
    "country_iso_code": "BI",
    "timezone": "Africa/Bujumbura",
    "latitude": -4.1662,
    "longitude": 29.6887
  },
  {
    "city": "Murinda",
    "city_zh": "Murinda",
    "country": "Burundi",
    "country_zh": "蒲隆地",
    "country_iso_code": "BI",
    "timezone": "Africa/Bujumbura",
    "latitude": -4.1661,
    "longitude": 29.6674
  },
  {
    "city": "Vugizo",
    "city_zh": "Vugizo",
    "country": "Burundi",
    "country_zh": "蒲隆地",
    "country_iso_code": "BI",
    "timezone": "Africa/Bujumbura",
    "latitude": -4.1726,
    "longitude": 29.7069
  },
  {
    "city": "Musivya",
    "city_zh": "Musivya",
    "country": "Burundi",
    "country_zh": "蒲隆地",
    "country_iso_code": "BI",
    "timezone": "Africa/Bujumbura",
    "latitude": -4.1748,
    "longitude": 29.7196
  },
  {
    "city": "Rabiro",
    "city_zh": "Rabiro",
    "country": "Burundi",
    "country_zh": "蒲隆地",
    "country_iso_code": "BI",
    "timezone": "Africa/Bujumbura",
    "latitude": -4.1819,
    "longitude": 29.702
  },
  {
    "city": "Burima",
    "city_zh": "Burima",
    "country": "Burundi",
    "country_zh": "蒲隆地",
    "country_iso_code": "BI",
    "timezone": "Africa/Bujumbura",
    "latitude": -4.1821,
    "longitude": 29.7446
  },
  {
    "city": "Bugeni",
    "city_zh": "Bugeni",
    "country": "Burundi",
    "country_zh": "蒲隆地",
    "country_iso_code": "BI",
    "timezone": "Africa/Bujumbura",
    "latitude": -4.1836,
    "longitude": 29.6074
  },
  {
    "city": "Kagege",
    "city_zh": "Kagege",
    "country": "Burundi",
    "country_zh": "蒲隆地",
    "country_iso_code": "BI",
    "timezone": "Africa/Bujumbura",
    "latitude": -4.1926,
    "longitude": 29.6046
  },
  {
    "city": "Nyamirinzi",
    "city_zh": "Nyamirinzi",
    "country": "Burundi",
    "country_zh": "蒲隆地",
    "country_iso_code": "BI",
    "timezone": "Africa/Bujumbura",
    "latitude": -4.1933,
    "longitude": 29.6835
  },
  {
    "city": "Kibira",
    "city_zh": "Kibira",
    "country": "Burundi",
    "country_zh": "蒲隆地",
    "country_iso_code": "BI",
    "timezone": "Africa/Bujumbura",
    "latitude": -4.196,
    "longitude": 29.7149
  },
  {
    "city": "Nyabitabo",
    "city_zh": "Nyabitabo",
    "country": "Burundi",
    "country_zh": "蒲隆地",
    "country_iso_code": "BI",
    "timezone": "Africa/Bujumbura",
    "latitude": -4.1978,
    "longitude": 29.7363
  },
  {
    "city": "Cowe",
    "city_zh": "Cowe",
    "country": "Burundi",
    "country_zh": "蒲隆地",
    "country_iso_code": "BI",
    "timezone": "Africa/Bujumbura",
    "latitude": -4.19733,
    "longitude": 29.74854
  },
  {
    "city": "Mbizi",
    "city_zh": "Mbizi",
    "country": "Burundi",
    "country_zh": "蒲隆地",
    "country_iso_code": "BI",
    "timezone": "Africa/Bujumbura",
    "latitude": -4.2053,
    "longitude": 29.7106
  },
  {
    "city": "Miheno",
    "city_zh": "Miheno",
    "country": "Burundi",
    "country_zh": "蒲隆地",
    "country_iso_code": "BI",
    "timezone": "Africa/Bujumbura",
    "latitude": -4.2092,
    "longitude": 29.6823
  },
  {
    "city": "Gakara",
    "city_zh": "Gakara",
    "country": "Burundi",
    "country_zh": "蒲隆地",
    "country_iso_code": "BI",
    "timezone": "Africa/Bujumbura",
    "latitude": -4.216,
    "longitude": 29.7136
  },
  {
    "city": "Mukungu",
    "city_zh": "Mukungu",
    "country": "Burundi",
    "country_zh": "蒲隆地",
    "country_iso_code": "BI",
    "timezone": "Africa/Bujumbura",
    "latitude": -4.2184,
    "longitude": 29.5586
  },
  {
    "city": "Nyanzogera",
    "city_zh": "Nyanzogera",
    "country": "Burundi",
    "country_zh": "蒲隆地",
    "country_iso_code": "BI",
    "timezone": "Africa/Bujumbura",
    "latitude": -4.2179,
    "longitude": 29.5939
  },
  {
    "city": "Kigamba",
    "city_zh": "Kigamba",
    "country": "Burundi",
    "country_zh": "蒲隆地",
    "country_iso_code": "BI",
    "timezone": "Africa/Bujumbura",
    "latitude": -4.2235,
    "longitude": 29.7361
  },
  {
    "city": "Kigombe",
    "city_zh": "Kigombe",
    "country": "Burundi",
    "country_zh": "蒲隆地",
    "country_iso_code": "BI",
    "timezone": "Africa/Bujumbura",
    "latitude": -4.2257,
    "longitude": 29.7092
  },
  {
    "city": "Gahinga",
    "city_zh": "Gahinga",
    "country": "Burundi",
    "country_zh": "蒲隆地",
    "country_iso_code": "BI",
    "timezone": "Africa/Bujumbura",
    "latitude": -4.2302,
    "longitude": 29.729
  },
  {
    "city": "Mubondo",
    "city_zh": "Mubondo",
    "country": "Burundi",
    "country_zh": "蒲隆地",
    "country_iso_code": "BI",
    "timezone": "Africa/Bujumbura",
    "latitude": -4.2338,
    "longitude": 29.7399
  },
  {
    "city": "Munyinya",
    "city_zh": "Munyinya",
    "country": "Burundi",
    "country_zh": "蒲隆地",
    "country_iso_code": "BI",
    "timezone": "Africa/Bujumbura",
    "latitude": -4.0041,
    "longitude": 29.8042
  },
  {
    "city": "Gitambutso",
    "city_zh": "Gitambutso",
    "country": "Burundi",
    "country_zh": "蒲隆地",
    "country_iso_code": "BI",
    "timezone": "Africa/Bujumbura",
    "latitude": -4.0088,
    "longitude": 29.8932
  },
  {
    "city": "Musongati",
    "city_zh": "Musongati",
    "country": "Burundi",
    "country_zh": "蒲隆地",
    "country_iso_code": "BI",
    "timezone": "Africa/Bujumbura",
    "latitude": -4.0098,
    "longitude": 29.8371
  },
  {
    "city": "Gahembe",
    "city_zh": "Gahembe",
    "country": "Burundi",
    "country_zh": "蒲隆地",
    "country_iso_code": "BI",
    "timezone": "Africa/Bujumbura",
    "latitude": -4.0147,
    "longitude": 29.876
  },
  {
    "city": "Maramvya",
    "city_zh": "Maramvya",
    "country": "Burundi",
    "country_zh": "蒲隆地",
    "country_iso_code": "BI",
    "timezone": "Africa/Bujumbura",
    "latitude": -4.0175,
    "longitude": 29.9206
  },
  {
    "city": "Kivoga",
    "city_zh": "Kivoga",
    "country": "Burundi",
    "country_zh": "蒲隆地",
    "country_iso_code": "BI",
    "timezone": "Africa/Bujumbura",
    "latitude": -4.0219,
    "longitude": 29.9288
  },
  {
    "city": "Mutukura",
    "city_zh": "Mutukura",
    "country": "Burundi",
    "country_zh": "蒲隆地",
    "country_iso_code": "BI",
    "timezone": "Africa/Bujumbura",
    "latitude": -4.0237,
    "longitude": 29.9705
  },
  {
    "city": "Muyombwe",
    "city_zh": "Muyombwe",
    "country": "Burundi",
    "country_zh": "蒲隆地",
    "country_iso_code": "BI",
    "timezone": "Africa/Bujumbura",
    "latitude": -4.0244,
    "longitude": 29.9542
  },
  {
    "city": "Nyakuguma",
    "city_zh": "Nyakuguma",
    "country": "Burundi",
    "country_zh": "蒲隆地",
    "country_iso_code": "BI",
    "timezone": "Africa/Bujumbura",
    "latitude": -4.0237,
    "longitude": 29.8804
  },
  {
    "city": "Samahuge",
    "city_zh": "Samahuge",
    "country": "Burundi",
    "country_zh": "蒲隆地",
    "country_iso_code": "BI",
    "timezone": "Africa/Bujumbura",
    "latitude": -4.0247,
    "longitude": 29.8268
  },
  {
    "city": "Cunda",
    "city_zh": "Cunda",
    "country": "Burundi",
    "country_zh": "蒲隆地",
    "country_iso_code": "BI",
    "timezone": "Africa/Bujumbura",
    "latitude": -4.0275,
    "longitude": 29.9122
  },
  {
    "city": "Timbura",
    "city_zh": "Timbura",
    "country": "Burundi",
    "country_zh": "蒲隆地",
    "country_iso_code": "BI",
    "timezone": "Africa/Bujumbura",
    "latitude": -4.032,
    "longitude": 29.9501
  },
  {
    "city": "Murambi",
    "city_zh": "Murambi",
    "country": "Burundi",
    "country_zh": "蒲隆地",
    "country_iso_code": "BI",
    "timezone": "Africa/Bujumbura",
    "latitude": -4.0369,
    "longitude": 29.803
  },
  {
    "city": "Busaga",
    "city_zh": "Busaga",
    "country": "Burundi",
    "country_zh": "蒲隆地",
    "country_iso_code": "BI",
    "timezone": "Africa/Bujumbura",
    "latitude": -4.0403,
    "longitude": 29.9258
  },
  {
    "city": "Butare",
    "city_zh": "Butare",
    "country": "Burundi",
    "country_zh": "蒲隆地",
    "country_iso_code": "BI",
    "timezone": "Africa/Bujumbura",
    "latitude": -4.044,
    "longitude": 29.9816
  },
  {
    "city": "Gitaba",
    "city_zh": "Gitaba",
    "country": "Burundi",
    "country_zh": "蒲隆地",
    "country_iso_code": "BI",
    "timezone": "Africa/Bujumbura",
    "latitude": -4.0428,
    "longitude": 29.7604
  },
  {
    "city": "Jenda",
    "city_zh": "Jenda",
    "country": "Burundi",
    "country_zh": "蒲隆地",
    "country_iso_code": "BI",
    "timezone": "Africa/Bujumbura",
    "latitude": -4.0437,
    "longitude": 29.8086
  },
  {
    "city": "Nyabisuri",
    "city_zh": "Nyabisuri",
    "country": "Burundi",
    "country_zh": "蒲隆地",
    "country_iso_code": "BI",
    "timezone": "Africa/Bujumbura",
    "latitude": -4.0467,
    "longitude": 29.7816
  },
  {
    "city": "Nyamusoma",
    "city_zh": "Nyamusoma",
    "country": "Burundi",
    "country_zh": "蒲隆地",
    "country_iso_code": "BI",
    "timezone": "Africa/Bujumbura",
    "latitude": -4.0445,
    "longitude": 29.9461
  },
  {
    "city": "Mpinga",
    "city_zh": "Mpinga",
    "country": "Burundi",
    "country_zh": "蒲隆地",
    "country_iso_code": "BI",
    "timezone": "Africa/Bujumbura",
    "latitude": -4.0487,
    "longitude": 29.7513
  },
  {
    "city": "Kabago",
    "city_zh": "Kabago",
    "country": "Burundi",
    "country_zh": "蒲隆地",
    "country_iso_code": "BI",
    "timezone": "Africa/Bujumbura",
    "latitude": -4.0498,
    "longitude": 29.8919
  },
  {
    "city": "Muvumu",
    "city_zh": "Muvumu",
    "country": "Burundi",
    "country_zh": "蒲隆地",
    "country_iso_code": "BI",
    "timezone": "Africa/Bujumbura",
    "latitude": -4.051,
    "longitude": 29.786
  },
  {
    "city": "Nganzu",
    "city_zh": "Nganzu",
    "country": "Burundi",
    "country_zh": "蒲隆地",
    "country_iso_code": "BI",
    "timezone": "Africa/Bujumbura",
    "latitude": -4.0536,
    "longitude": 29.8007
  },
  {
    "city": "Shembe",
    "city_zh": "Shembe",
    "country": "Burundi",
    "country_zh": "蒲隆地",
    "country_iso_code": "BI",
    "timezone": "Africa/Bujumbura",
    "latitude": -4.0554,
    "longitude": 29.9562
  },
  {
    "city": "Rubuga",
    "city_zh": "Rubuga",
    "country": "Burundi",
    "country_zh": "蒲隆地",
    "country_iso_code": "BI",
    "timezone": "Africa/Bujumbura",
    "latitude": -4.0584,
    "longitude": 29.7881
  },
  {
    "city": "Kivoma",
    "city_zh": "Kivoma",
    "country": "Burundi",
    "country_zh": "蒲隆地",
    "country_iso_code": "BI",
    "timezone": "Africa/Bujumbura",
    "latitude": -4.0616,
    "longitude": 29.8545
  },
  {
    "city": "Gitabi",
    "city_zh": "Gitabi",
    "country": "Burundi",
    "country_zh": "蒲隆地",
    "country_iso_code": "BI",
    "timezone": "Africa/Bujumbura",
    "latitude": -4.0625,
    "longitude": 29.9456
  },
  {
    "city": "Nyamabuye",
    "city_zh": "Nyamabuye",
    "country": "Burundi",
    "country_zh": "蒲隆地",
    "country_iso_code": "BI",
    "timezone": "Africa/Bujumbura",
    "latitude": -4.0645,
    "longitude": 29.9861
  },
  {
    "city": "Kirama",
    "city_zh": "Kirama",
    "country": "Burundi",
    "country_zh": "蒲隆地",
    "country_iso_code": "BI",
    "timezone": "Africa/Bujumbura",
    "latitude": -4.0659,
    "longitude": 29.7852
  },
  {
    "city": "Kinzanza",
    "city_zh": "Kinzanza",
    "country": "Burundi",
    "country_zh": "蒲隆地",
    "country_iso_code": "BI",
    "timezone": "Africa/Bujumbura",
    "latitude": -4.0669,
    "longitude": 29.9376
  },
  {
    "city": "Kiremba",
    "city_zh": "Kiremba",
    "country": "Burundi",
    "country_zh": "蒲隆地",
    "country_iso_code": "BI",
    "timezone": "Africa/Bujumbura",
    "latitude": -4.0748,
    "longitude": 29.7947
  },
  {
    "city": "Ruhesu",
    "city_zh": "Ruhesu",
    "country": "Burundi",
    "country_zh": "蒲隆地",
    "country_iso_code": "BI",
    "timezone": "Africa/Bujumbura",
    "latitude": -4.0752,
    "longitude": 29.8081
  },
  {
    "city": "Kigarika",
    "city_zh": "Kigarika",
    "country": "Burundi",
    "country_zh": "蒲隆地",
    "country_iso_code": "BI",
    "timezone": "Africa/Bujumbura",
    "latitude": -4.0785,
    "longitude": 29.9377
  },
  {
    "city": "Cunamwe",
    "city_zh": "Cunamwe",
    "country": "Burundi",
    "country_zh": "蒲隆地",
    "country_iso_code": "BI",
    "timezone": "Africa/Bujumbura",
    "latitude": -4.0796,
    "longitude": 29.8008
  },
  {
    "city": "Busango",
    "city_zh": "Busango",
    "country": "Burundi",
    "country_zh": "蒲隆地",
    "country_iso_code": "BI",
    "timezone": "Africa/Bujumbura",
    "latitude": -4.0786,
    "longitude": 29.9618
  },
  {
    "city": "Gisuma",
    "city_zh": "Gisuma",
    "country": "Burundi",
    "country_zh": "蒲隆地",
    "country_iso_code": "BI",
    "timezone": "Africa/Bujumbura",
    "latitude": -4.0805,
    "longitude": 29.7748
  },
  {
    "city": "Rutoke",
    "city_zh": "Rutoke",
    "country": "Burundi",
    "country_zh": "蒲隆地",
    "country_iso_code": "BI",
    "timezone": "Africa/Bujumbura",
    "latitude": -4.0814,
    "longitude": 29.9026
  },
  {
    "city": "Gitaba",
    "city_zh": "Gitaba",
    "country": "Burundi",
    "country_zh": "蒲隆地",
    "country_iso_code": "BI",
    "timezone": "Africa/Bujumbura",
    "latitude": -4.0836,
    "longitude": 29.7952
  },
  {
    "city": "Nyabitsindu",
    "city_zh": "Nyabitsindu",
    "country": "Burundi",
    "country_zh": "蒲隆地",
    "country_iso_code": "BI",
    "timezone": "Africa/Bujumbura",
    "latitude": -4.0843,
    "longitude": 29.8101
  },
  {
    "city": "Karongwe",
    "city_zh": "Karongwe",
    "country": "Burundi",
    "country_zh": "蒲隆地",
    "country_iso_code": "BI",
    "timezone": "Africa/Bujumbura",
    "latitude": -4.0888,
    "longitude": 29.7748
  },
  {
    "city": "Misasa",
    "city_zh": "Misasa",
    "country": "Burundi",
    "country_zh": "蒲隆地",
    "country_iso_code": "BI",
    "timezone": "Africa/Bujumbura",
    "latitude": -4.0913,
    "longitude": 29.8598
  },
  {
    "city": "Gakombe",
    "city_zh": "Gakombe",
    "country": "Burundi",
    "country_zh": "蒲隆地",
    "country_iso_code": "BI",
    "timezone": "Africa/Bujumbura",
    "latitude": -4.0912,
    "longitude": 29.8364
  },
  {
    "city": "Kayogoro",
    "city_zh": "Kayogoro",
    "country": "Burundi",
    "country_zh": "蒲隆地",
    "country_iso_code": "BI",
    "timezone": "Africa/Bujumbura",
    "latitude": -4.0925,
    "longitude": 29.9397
  },
  {
    "city": "Rusenyi",
    "city_zh": "Rusenyi",
    "country": "Burundi",
    "country_zh": "蒲隆地",
    "country_iso_code": "BI",
    "timezone": "Africa/Bujumbura",
    "latitude": -4.0958,
    "longitude": 29.8085
  },
  {
    "city": "Mugutu",
    "city_zh": "Mugutu",
    "country": "Burundi",
    "country_zh": "蒲隆地",
    "country_iso_code": "BI",
    "timezone": "Africa/Bujumbura",
    "latitude": -4.0966,
    "longitude": 29.7812
  },
  {
    "city": "Rushanga",
    "city_zh": "Rushanga",
    "country": "Burundi",
    "country_zh": "蒲隆地",
    "country_iso_code": "BI",
    "timezone": "Africa/Bujumbura",
    "latitude": -4.0957,
    "longitude": 29.8226
  },
  {
    "city": "Kabizi",
    "city_zh": "Kabizi",
    "country": "Burundi",
    "country_zh": "蒲隆地",
    "country_iso_code": "BI",
    "timezone": "Africa/Bujumbura",
    "latitude": -4.1015,
    "longitude": 29.9867
  },
  {
    "city": "Kinoso",
    "city_zh": "Kinoso",
    "country": "Burundi",
    "country_zh": "蒲隆地",
    "country_iso_code": "BI",
    "timezone": "Africa/Bujumbura",
    "latitude": -4.1022,
    "longitude": 29.8688
  },
  {
    "city": "Murango",
    "city_zh": "Murango",
    "country": "Burundi",
    "country_zh": "蒲隆地",
    "country_iso_code": "BI",
    "timezone": "Africa/Bujumbura",
    "latitude": -4.1025,
    "longitude": 29.7814
  },
  {
    "city": "Kabuye",
    "city_zh": "Kabuye",
    "country": "Burundi",
    "country_zh": "蒲隆地",
    "country_iso_code": "BI",
    "timezone": "Africa/Bujumbura",
    "latitude": -4.1025,
    "longitude": 29.8487
  },
  {
    "city": "Songa",
    "city_zh": "Songa",
    "country": "Burundi",
    "country_zh": "蒲隆地",
    "country_iso_code": "BI",
    "timezone": "Africa/Bujumbura",
    "latitude": -4.1017,
    "longitude": 29.7948
  },
  {
    "city": "Mahinda",
    "city_zh": "Mahinda",
    "country": "Burundi",
    "country_zh": "蒲隆地",
    "country_iso_code": "BI",
    "timezone": "Africa/Bujumbura",
    "latitude": -4.104,
    "longitude": 29.894
  },
  {
    "city": "Kizingoma",
    "city_zh": "Kizingoma",
    "country": "Burundi",
    "country_zh": "蒲隆地",
    "country_iso_code": "BI",
    "timezone": "Africa/Bujumbura",
    "latitude": -4.1102,
    "longitude": 29.8271
  },
  {
    "city": "Muresi",
    "city_zh": "Muresi",
    "country": "Burundi",
    "country_zh": "蒲隆地",
    "country_iso_code": "BI",
    "timezone": "Africa/Bujumbura",
    "latitude": -4.1089,
    "longitude": 29.7738
  },
  {
    "city": "Gahosha",
    "city_zh": "Gahosha",
    "country": "Burundi",
    "country_zh": "蒲隆地",
    "country_iso_code": "BI",
    "timezone": "Africa/Bujumbura",
    "latitude": -4.1104,
    "longitude": 29.8128
  },
  {
    "city": "Kidagarazi",
    "city_zh": "Kidagarazi",
    "country": "Burundi",
    "country_zh": "蒲隆地",
    "country_iso_code": "BI",
    "timezone": "Africa/Bujumbura",
    "latitude": -4.11083,
    "longitude": 29.98444
  },
  {
    "city": "Kange",
    "city_zh": "Kange",
    "country": "Burundi",
    "country_zh": "蒲隆地",
    "country_iso_code": "BI",
    "timezone": "Africa/Bujumbura",
    "latitude": -4.1119,
    "longitude": 29.9107
  },
  {
    "city": "Gasange",
    "city_zh": "Gasange",
    "country": "Burundi",
    "country_zh": "蒲隆地",
    "country_iso_code": "BI",
    "timezone": "Africa/Bujumbura",
    "latitude": -4.112,
    "longitude": 29.8001
  },
  {
    "city": "Kariba",
    "city_zh": "Kariba",
    "country": "Burundi",
    "country_zh": "蒲隆地",
    "country_iso_code": "BI",
    "timezone": "Africa/Bujumbura",
    "latitude": -4.1133,
    "longitude": 29.7806
  },
  {
    "city": "Kayogoro",
    "city_zh": "Kayogoro",
    "country": "Burundi",
    "country_zh": "蒲隆地",
    "country_iso_code": "BI",
    "timezone": "Africa/Bujumbura",
    "latitude": -4.1154,
    "longitude": 29.9837
  },
  {
    "city": "Burambira",
    "city_zh": "Burambira",
    "country": "Burundi",
    "country_zh": "蒲隆地",
    "country_iso_code": "BI",
    "timezone": "Africa/Bujumbura",
    "latitude": -4.1159,
    "longitude": 29.8934
  },
  {
    "city": "Marindye",
    "city_zh": "Marindye",
    "country": "Burundi",
    "country_zh": "蒲隆地",
    "country_iso_code": "BI",
    "timezone": "Africa/Bujumbura",
    "latitude": -4.1177,
    "longitude": 29.8505
  },
  {
    "city": "Bisoro",
    "city_zh": "Bisoro",
    "country": "Burundi",
    "country_zh": "蒲隆地",
    "country_iso_code": "BI",
    "timezone": "Africa/Bujumbura",
    "latitude": -4.11805,
    "longitude": 29.96158
  },
  {
    "city": "Nyabutare",
    "city_zh": "Nyabutare",
    "country": "Burundi",
    "country_zh": "蒲隆地",
    "country_iso_code": "BI",
    "timezone": "Africa/Bujumbura",
    "latitude": -4.1228,
    "longitude": 29.9423
  },
  {
    "city": "Kiguruka",
    "city_zh": "Kiguruka",
    "country": "Burundi",
    "country_zh": "蒲隆地",
    "country_iso_code": "BI",
    "timezone": "Africa/Bujumbura",
    "latitude": -4.1203,
    "longitude": 29.7605
  },
  {
    "city": "Nyamitakare",
    "city_zh": "Nyamitakare",
    "country": "Burundi",
    "country_zh": "蒲隆地",
    "country_iso_code": "BI",
    "timezone": "Africa/Bujumbura",
    "latitude": -4.1206,
    "longitude": 29.7934
  },
  {
    "city": "Gihero",
    "city_zh": "Gihero",
    "country": "Burundi",
    "country_zh": "蒲隆地",
    "country_iso_code": "BI",
    "timezone": "Africa/Bujumbura",
    "latitude": -4.1233,
    "longitude": 29.8804
  },
  {
    "city": "Kayoba",
    "city_zh": "Kayoba",
    "country": "Burundi",
    "country_zh": "蒲隆地",
    "country_iso_code": "BI",
    "timezone": "Africa/Bujumbura",
    "latitude": -4.125,
    "longitude": 29.7698
  },
  {
    "city": "Butega",
    "city_zh": "Butega",
    "country": "Burundi",
    "country_zh": "蒲隆地",
    "country_iso_code": "BI",
    "timezone": "Africa/Bujumbura",
    "latitude": -4.1252,
    "longitude": 29.7989
  },
  {
    "city": "Gasasa",
    "city_zh": "Gasasa",
    "country": "Burundi",
    "country_zh": "蒲隆地",
    "country_iso_code": "BI",
    "timezone": "Africa/Bujumbura",
    "latitude": -4.1297,
    "longitude": 29.8745
  },
  {
    "city": "Mihongo",
    "city_zh": "Mihongo",
    "country": "Burundi",
    "country_zh": "蒲隆地",
    "country_iso_code": "BI",
    "timezone": "Africa/Bujumbura",
    "latitude": -4.1276,
    "longitude": 29.9022
  },
  {
    "city": "Nyabigina",
    "city_zh": "Nyabigina",
    "country": "Burundi",
    "country_zh": "蒲隆地",
    "country_iso_code": "BI",
    "timezone": "Africa/Bujumbura",
    "latitude": -4.1294,
    "longitude": 29.8479
  },
  {
    "city": "Nyarunazi",
    "city_zh": "Nyarunazi",
    "country": "Burundi",
    "country_zh": "蒲隆地",
    "country_iso_code": "BI",
    "timezone": "Africa/Bujumbura",
    "latitude": -4.1308,
    "longitude": 29.827
  },
  {
    "city": "Mudahera",
    "city_zh": "Mudahera",
    "country": "Burundi",
    "country_zh": "蒲隆地",
    "country_iso_code": "BI",
    "timezone": "Africa/Bujumbura",
    "latitude": -4.1326,
    "longitude": 29.8927
  },
  {
    "city": "Makamba",
    "city_zh": "Makamba",
    "country": "Burundi",
    "country_zh": "蒲隆地",
    "country_iso_code": "BI",
    "timezone": "Africa/Bujumbura",
    "latitude": -4.1348,
    "longitude": 29.804
  },
  {
    "city": "Gahinga",
    "city_zh": "Gahinga",
    "country": "Burundi",
    "country_zh": "蒲隆地",
    "country_iso_code": "BI",
    "timezone": "Africa/Bujumbura",
    "latitude": -4.1348,
    "longitude": 29.7769
  },
  {
    "city": "Gitanga",
    "city_zh": "Gitanga",
    "country": "Burundi",
    "country_zh": "蒲隆地",
    "country_iso_code": "BI",
    "timezone": "Africa/Bujumbura",
    "latitude": -4.1354,
    "longitude": 29.7907
  },
  {
    "city": "Kibuye",
    "city_zh": "Kibuye",
    "country": "Burundi",
    "country_zh": "蒲隆地",
    "country_iso_code": "BI",
    "timezone": "Africa/Bujumbura",
    "latitude": -4.1377,
    "longitude": 29.7572
  },
  {
    "city": "Kanzege",
    "city_zh": "Kanzege",
    "country": "Burundi",
    "country_zh": "蒲隆地",
    "country_iso_code": "BI",
    "timezone": "Africa/Bujumbura",
    "latitude": -4.1391,
    "longitude": 29.7805
  },
  {
    "city": "Baziro",
    "city_zh": "Baziro",
    "country": "Burundi",
    "country_zh": "蒲隆地",
    "country_iso_code": "BI",
    "timezone": "Africa/Bujumbura",
    "latitude": -4.1395,
    "longitude": 29.8825
  },
  {
    "city": "Siza",
    "city_zh": "Siza",
    "country": "Burundi",
    "country_zh": "蒲隆地",
    "country_iso_code": "BI",
    "timezone": "Africa/Bujumbura",
    "latitude": -4.1429,
    "longitude": 29.7584
  },
  {
    "city": "Gihongoro",
    "city_zh": "Gihongoro",
    "country": "Burundi",
    "country_zh": "蒲隆地",
    "country_iso_code": "BI",
    "timezone": "Africa/Bujumbura",
    "latitude": -4.1419,
    "longitude": 29.8272
  },
  {
    "city": "Mugoboka",
    "city_zh": "Mugoboka",
    "country": "Burundi",
    "country_zh": "蒲隆地",
    "country_iso_code": "BI",
    "timezone": "Africa/Bujumbura",
    "latitude": -4.1438,
    "longitude": 29.8596
  },
  {
    "city": "Nyange",
    "city_zh": "Nyange",
    "country": "Burundi",
    "country_zh": "蒲隆地",
    "country_iso_code": "BI",
    "timezone": "Africa/Bujumbura",
    "latitude": -4.1441,
    "longitude": 29.8907
  },
  {
    "city": "Kiramvya",
    "city_zh": "Kiramvya",
    "country": "Burundi",
    "country_zh": "蒲隆地",
    "country_iso_code": "BI",
    "timezone": "Africa/Bujumbura",
    "latitude": -4.1432,
    "longitude": 29.7901
  },
  {
    "city": "Nyange",
    "city_zh": "Nyange",
    "country": "Burundi",
    "country_zh": "蒲隆地",
    "country_iso_code": "BI",
    "timezone": "Africa/Bujumbura",
    "latitude": -4.1469,
    "longitude": 29.8693
  },
  {
    "city": "Takwe",
    "city_zh": "Takwe",
    "country": "Burundi",
    "country_zh": "蒲隆地",
    "country_iso_code": "BI",
    "timezone": "Africa/Bujumbura",
    "latitude": -4.1481,
    "longitude": 29.761
  },
  {
    "city": "Nyemanga",
    "city_zh": "Nyemanga",
    "country": "Burundi",
    "country_zh": "蒲隆地",
    "country_iso_code": "BI",
    "timezone": "Africa/Bujumbura",
    "latitude": -4.1474,
    "longitude": 29.7747
  },
  {
    "city": "Nyetongwe",
    "city_zh": "Nyetongwe",
    "country": "Burundi",
    "country_zh": "蒲隆地",
    "country_iso_code": "BI",
    "timezone": "Africa/Bujumbura",
    "latitude": -4.1482,
    "longitude": 29.7827
  },
  {
    "city": "Dunga",
    "city_zh": "Dunga",
    "country": "Burundi",
    "country_zh": "蒲隆地",
    "country_iso_code": "BI",
    "timezone": "Africa/Bujumbura",
    "latitude": -4.1514,
    "longitude": 29.9327
  },
  {
    "city": "Kibogoye",
    "city_zh": "Kibogoye",
    "country": "Burundi",
    "country_zh": "蒲隆地",
    "country_iso_code": "BI",
    "timezone": "Africa/Bujumbura",
    "latitude": -4.1513,
    "longitude": 29.903
  },
  {
    "city": "Mutare",
    "city_zh": "Mutare",
    "country": "Burundi",
    "country_zh": "蒲隆地",
    "country_iso_code": "BI",
    "timezone": "Africa/Bujumbura",
    "latitude": -4.1531,
    "longitude": 29.8815
  },
  {
    "city": "Ruremba",
    "city_zh": "Ruremba",
    "country": "Burundi",
    "country_zh": "蒲隆地",
    "country_iso_code": "BI",
    "timezone": "Africa/Bujumbura",
    "latitude": -4.1544,
    "longitude": 29.894
  },
  {
    "city": "Ndago",
    "city_zh": "Ndago",
    "country": "Burundi",
    "country_zh": "蒲隆地",
    "country_iso_code": "BI",
    "timezone": "Africa/Bujumbura",
    "latitude": -4.1571,
    "longitude": 29.8669
  },
  {
    "city": "Nyamahongwe",
    "city_zh": "Nyamahongwe",
    "country": "Burundi",
    "country_zh": "蒲隆地",
    "country_iso_code": "BI",
    "timezone": "Africa/Bujumbura",
    "latitude": -4.1602,
    "longitude": 29.7599
  },
  {
    "city": "Kumuyange",
    "city_zh": "Kumuyange",
    "country": "Burundi",
    "country_zh": "蒲隆地",
    "country_iso_code": "BI",
    "timezone": "Africa/Bujumbura",
    "latitude": -4.1599,
    "longitude": 29.9374
  },
  {
    "city": "Numbi",
    "city_zh": "Numbi",
    "country": "Burundi",
    "country_zh": "蒲隆地",
    "country_iso_code": "BI",
    "timezone": "Africa/Bujumbura",
    "latitude": -4.1607,
    "longitude": 29.7862
  },
  {
    "city": "Rweza",
    "city_zh": "Rweza",
    "country": "Burundi",
    "country_zh": "蒲隆地",
    "country_iso_code": "BI",
    "timezone": "Africa/Bujumbura",
    "latitude": -4.1592,
    "longitude": 29.9575
  },
  {
    "city": "Binzagara",
    "city_zh": "Binzagara",
    "country": "Burundi",
    "country_zh": "蒲隆地",
    "country_iso_code": "BI",
    "timezone": "Africa/Bujumbura",
    "latitude": -4.165,
    "longitude": 29.7536
  },
  {
    "city": "Gitibiza",
    "city_zh": "Gitibiza",
    "country": "Burundi",
    "country_zh": "蒲隆地",
    "country_iso_code": "BI",
    "timezone": "Africa/Bujumbura",
    "latitude": -4.1654,
    "longitude": 29.7925
  },
  {
    "city": "Kigaza",
    "city_zh": "Kigaza",
    "country": "Burundi",
    "country_zh": "蒲隆地",
    "country_iso_code": "BI",
    "timezone": "Africa/Bujumbura",
    "latitude": -4.1651,
    "longitude": 29.9363
  },
  {
    "city": "Munonotsi",
    "city_zh": "Munonotsi",
    "country": "Burundi",
    "country_zh": "蒲隆地",
    "country_iso_code": "BI",
    "timezone": "Africa/Bujumbura",
    "latitude": -4.1661,
    "longitude": 29.7815
  },
  {
    "city": "Rwaniro",
    "city_zh": "Rwaniro",
    "country": "Burundi",
    "country_zh": "蒲隆地",
    "country_iso_code": "BI",
    "timezone": "Africa/Bujumbura",
    "latitude": -4.1727,
    "longitude": 29.7724
  },
  {
    "city": "Gikombe",
    "city_zh": "Gikombe",
    "country": "Burundi",
    "country_zh": "蒲隆地",
    "country_iso_code": "BI",
    "timezone": "Africa/Bujumbura",
    "latitude": -4.1711,
    "longitude": 29.8407
  },
  {
    "city": "Musanga",
    "city_zh": "Musanga",
    "country": "Burundi",
    "country_zh": "蒲隆地",
    "country_iso_code": "BI",
    "timezone": "Africa/Bujumbura",
    "latitude": -4.1747,
    "longitude": 29.7545
  },
  {
    "city": "Buranga",
    "city_zh": "Buranga",
    "country": "Burundi",
    "country_zh": "蒲隆地",
    "country_iso_code": "BI",
    "timezone": "Africa/Bujumbura",
    "latitude": -4.1758,
    "longitude": 29.9159
  },
  {
    "city": "Nkuba",
    "city_zh": "Nkuba",
    "country": "Burundi",
    "country_zh": "蒲隆地",
    "country_iso_code": "BI",
    "timezone": "Africa/Bujumbura",
    "latitude": -4.1771,
    "longitude": 29.7816
  },
  {
    "city": "Gisenyi",
    "city_zh": "Gisenyi",
    "country": "Burundi",
    "country_zh": "蒲隆地",
    "country_iso_code": "BI",
    "timezone": "Africa/Bujumbura",
    "latitude": -4.1802,
    "longitude": 29.7857
  },
  {
    "city": "Kirare",
    "city_zh": "Kirare",
    "country": "Burundi",
    "country_zh": "蒲隆地",
    "country_iso_code": "BI",
    "timezone": "Africa/Bujumbura",
    "latitude": -4.1828,
    "longitude": 29.8681
  },
  {
    "city": "Nyagaharo",
    "city_zh": "Nyagaharo",
    "country": "Burundi",
    "country_zh": "蒲隆地",
    "country_iso_code": "BI",
    "timezone": "Africa/Bujumbura",
    "latitude": -4.1852,
    "longitude": 29.8814
  },
  {
    "city": "Buyagira",
    "city_zh": "Buyagira",
    "country": "Burundi",
    "country_zh": "蒲隆地",
    "country_iso_code": "BI",
    "timezone": "Africa/Bujumbura",
    "latitude": -4.1857,
    "longitude": 29.7913
  },
  {
    "city": "Nyankara",
    "city_zh": "Nyankara",
    "country": "Burundi",
    "country_zh": "蒲隆地",
    "country_iso_code": "BI",
    "timezone": "Africa/Bujumbura",
    "latitude": -4.1867,
    "longitude": 29.826
  },
  {
    "city": "Ryirengeye",
    "city_zh": "Ryirengeye",
    "country": "Burundi",
    "country_zh": "蒲隆地",
    "country_iso_code": "BI",
    "timezone": "Africa/Bujumbura",
    "latitude": -4.187,
    "longitude": 29.7955
  },
  {
    "city": "Shaka",
    "city_zh": "Shaka",
    "country": "Burundi",
    "country_zh": "蒲隆地",
    "country_iso_code": "BI",
    "timezone": "Africa/Bujumbura",
    "latitude": -4.1872,
    "longitude": 29.9
  },
  {
    "city": "Bubera",
    "city_zh": "Bubera",
    "country": "Burundi",
    "country_zh": "蒲隆地",
    "country_iso_code": "BI",
    "timezone": "Africa/Bujumbura",
    "latitude": -4.1892,
    "longitude": 29.7712
  },
  {
    "city": "Bikingi",
    "city_zh": "Bikingi",
    "country": "Burundi",
    "country_zh": "蒲隆地",
    "country_iso_code": "BI",
    "timezone": "Africa/Bujumbura",
    "latitude": -4.1915,
    "longitude": 29.991
  },
  {
    "city": "Gisegwa",
    "city_zh": "Gisegwa",
    "country": "Burundi",
    "country_zh": "蒲隆地",
    "country_iso_code": "BI",
    "timezone": "Africa/Bujumbura",
    "latitude": -4.1884,
    "longitude": 29.8683
  },
  {
    "city": "Sampeke",
    "city_zh": "Sampeke",
    "country": "Burundi",
    "country_zh": "蒲隆地",
    "country_iso_code": "BI",
    "timezone": "Africa/Bujumbura",
    "latitude": -4.1899,
    "longitude": 29.9545
  },
  {
    "city": "Gasanda",
    "city_zh": "Gasanda",
    "country": "Burundi",
    "country_zh": "蒲隆地",
    "country_iso_code": "BI",
    "timezone": "Africa/Bujumbura",
    "latitude": -4.1934,
    "longitude": 29.9077
  },
  {
    "city": "Muhama",
    "city_zh": "Muhama",
    "country": "Burundi",
    "country_zh": "蒲隆地",
    "country_iso_code": "BI",
    "timezone": "Africa/Bujumbura",
    "latitude": -4.1911,
    "longitude": 29.9627
  },
  {
    "city": "Kanyinya",
    "city_zh": "Kanyinya",
    "country": "Burundi",
    "country_zh": "蒲隆地",
    "country_iso_code": "BI",
    "timezone": "Africa/Bujumbura",
    "latitude": -4.1952,
    "longitude": 29.76
  },
  {
    "city": "Rongero",
    "city_zh": "Rongero",
    "country": "Burundi",
    "country_zh": "蒲隆地",
    "country_iso_code": "BI",
    "timezone": "Africa/Bujumbura",
    "latitude": -4.2005,
    "longitude": 29.8652
  },
  {
    "city": "Gwahona",
    "city_zh": "Gwahona",
    "country": "Burundi",
    "country_zh": "蒲隆地",
    "country_iso_code": "BI",
    "timezone": "Africa/Bujumbura",
    "latitude": -4.2018,
    "longitude": 29.8544
  },
  {
    "city": "Gasaka",
    "city_zh": "Gasaka",
    "country": "Burundi",
    "country_zh": "蒲隆地",
    "country_iso_code": "BI",
    "timezone": "Africa/Bujumbura",
    "latitude": -4.2018,
    "longitude": 29.7722
  },
  {
    "city": "Makoronkwe",
    "city_zh": "Makoronkwe",
    "country": "Burundi",
    "country_zh": "蒲隆地",
    "country_iso_code": "BI",
    "timezone": "Africa/Bujumbura",
    "latitude": -4.2025,
    "longitude": 29.8795
  },
  {
    "city": "Gisenyi",
    "city_zh": "Gisenyi",
    "country": "Burundi",
    "country_zh": "蒲隆地",
    "country_iso_code": "BI",
    "timezone": "Africa/Bujumbura",
    "latitude": -4.2058,
    "longitude": 29.7607
  },
  {
    "city": "Kibara",
    "city_zh": "Kibara",
    "country": "Burundi",
    "country_zh": "蒲隆地",
    "country_iso_code": "BI",
    "timezone": "Africa/Bujumbura",
    "latitude": -4.2063,
    "longitude": 29.9581
  },
  {
    "city": "Rutoke",
    "city_zh": "Rutoke",
    "country": "Burundi",
    "country_zh": "蒲隆地",
    "country_iso_code": "BI",
    "timezone": "Africa/Bujumbura",
    "latitude": -4.2081,
    "longitude": 29.7844
  },
  {
    "city": "Gikurazo",
    "city_zh": "Gikurazo",
    "country": "Burundi",
    "country_zh": "蒲隆地",
    "country_iso_code": "BI",
    "timezone": "Africa/Bujumbura",
    "latitude": -4.2142,
    "longitude": 29.8267
  },
  {
    "city": "Migongo",
    "city_zh": "Migongo",
    "country": "Burundi",
    "country_zh": "蒲隆地",
    "country_iso_code": "BI",
    "timezone": "Africa/Bujumbura",
    "latitude": -4.218,
    "longitude": 29.875
  },
  {
    "city": "Rusunwe",
    "city_zh": "Rusunwe",
    "country": "Burundi",
    "country_zh": "蒲隆地",
    "country_iso_code": "BI",
    "timezone": "Africa/Bujumbura",
    "latitude": -4.219,
    "longitude": 29.8896
  },
  {
    "city": "Gahororo",
    "city_zh": "Gahororo",
    "country": "Burundi",
    "country_zh": "蒲隆地",
    "country_iso_code": "BI",
    "timezone": "Africa/Bujumbura",
    "latitude": -4.2223,
    "longitude": 29.8066
  },
  {
    "city": "Kivumu",
    "city_zh": "Kivumu",
    "country": "Burundi",
    "country_zh": "蒲隆地",
    "country_iso_code": "BI",
    "timezone": "Africa/Bujumbura",
    "latitude": -4.2259,
    "longitude": 29.7816
  },
  {
    "city": "Mibanga",
    "city_zh": "Mibanga",
    "country": "Burundi",
    "country_zh": "蒲隆地",
    "country_iso_code": "BI",
    "timezone": "Africa/Bujumbura",
    "latitude": -4.2251,
    "longitude": 29.9754
  },
  {
    "city": "Kiyange",
    "city_zh": "Kiyange",
    "country": "Burundi",
    "country_zh": "蒲隆地",
    "country_iso_code": "BI",
    "timezone": "Africa/Bujumbura",
    "latitude": -4.2281,
    "longitude": 29.9161
  },
  {
    "city": "Kabanga",
    "city_zh": "Kabanga",
    "country": "Burundi",
    "country_zh": "蒲隆地",
    "country_iso_code": "BI",
    "timezone": "Africa/Bujumbura",
    "latitude": -4.226,
    "longitude": 29.8511
  },
  {
    "city": "Mumivo",
    "city_zh": "Mumivo",
    "country": "Burundi",
    "country_zh": "蒲隆地",
    "country_iso_code": "BI",
    "timezone": "Africa/Bujumbura",
    "latitude": -4.229,
    "longitude": 29.7925
  },
  {
    "city": "Kwihigiro",
    "city_zh": "Kwihigiro",
    "country": "Burundi",
    "country_zh": "蒲隆地",
    "country_iso_code": "BI",
    "timezone": "Africa/Bujumbura",
    "latitude": -4.2279,
    "longitude": 29.9365
  },
  {
    "city": "Kayogoro",
    "city_zh": "Kayogoro",
    "country": "Burundi",
    "country_zh": "蒲隆地",
    "country_iso_code": "BI",
    "timezone": "Africa/Bujumbura",
    "latitude": -4.2298,
    "longitude": 29.7662
  },
  {
    "city": "Karinzi",
    "city_zh": "Karinzi",
    "country": "Burundi",
    "country_zh": "蒲隆地",
    "country_iso_code": "BI",
    "timezone": "Africa/Bujumbura",
    "latitude": -4.2307,
    "longitude": 29.781
  },
  {
    "city": "Kibirizi",
    "city_zh": "Kibirizi",
    "country": "Burundi",
    "country_zh": "蒲隆地",
    "country_iso_code": "BI",
    "timezone": "Africa/Bujumbura",
    "latitude": -4.2371,
    "longitude": 29.9943
  },
  {
    "city": "Masaswe",
    "city_zh": "Masaswe",
    "country": "Burundi",
    "country_zh": "蒲隆地",
    "country_iso_code": "BI",
    "timezone": "Africa/Bujumbura",
    "latitude": -4.2368,
    "longitude": 29.896
  },
  {
    "city": "Kibara",
    "city_zh": "Kibara",
    "country": "Burundi",
    "country_zh": "蒲隆地",
    "country_iso_code": "BI",
    "timezone": "Africa/Bujumbura",
    "latitude": -4.2365,
    "longitude": 29.9556
  },
  {
    "city": "Rutundu",
    "city_zh": "Rutundu",
    "country": "Burundi",
    "country_zh": "蒲隆地",
    "country_iso_code": "BI",
    "timezone": "Africa/Bujumbura",
    "latitude": -4.2413,
    "longitude": 29.7849
  },
  {
    "city": "Gasenga",
    "city_zh": "Gasenga",
    "country": "Burundi",
    "country_zh": "蒲隆地",
    "country_iso_code": "BI",
    "timezone": "Africa/Bujumbura",
    "latitude": -4.2413,
    "longitude": 29.9689
  },
  {
    "city": "Kiremba",
    "city_zh": "Kiremba",
    "country": "Burundi",
    "country_zh": "蒲隆地",
    "country_iso_code": "BI",
    "timezone": "Africa/Bujumbura",
    "latitude": -4.2429,
    "longitude": 29.8642
  },
  {
    "city": "Mara",
    "city_zh": "Mara",
    "country": "Burundi",
    "country_zh": "蒲隆地",
    "country_iso_code": "BI",
    "timezone": "Africa/Bujumbura",
    "latitude": -4.2465,
    "longitude": 29.8396
  },
  {
    "city": "Mahanga",
    "city_zh": "Mahanga",
    "country": "Burundi",
    "country_zh": "蒲隆地",
    "country_iso_code": "BI",
    "timezone": "Africa/Bujumbura",
    "latitude": -4.2492,
    "longitude": 29.9547
  },
  {
    "city": "Kimanga",
    "city_zh": "Kimanga",
    "country": "Burundi",
    "country_zh": "蒲隆地",
    "country_iso_code": "BI",
    "timezone": "Africa/Bujumbura",
    "latitude": -4.0151,
    "longitude": 30.009
  },
  {
    "city": "Bukemba",
    "city_zh": "Bukemba",
    "country": "Burundi",
    "country_zh": "蒲隆地",
    "country_iso_code": "BI",
    "timezone": "Africa/Bujumbura",
    "latitude": -4.0069,
    "longitude": 30.0666
  },
  {
    "city": "Ntaho",
    "city_zh": "Ntaho",
    "country": "Burundi",
    "country_zh": "蒲隆地",
    "country_iso_code": "BI",
    "timezone": "Africa/Bujumbura",
    "latitude": -4.0155,
    "longitude": 30.1542
  },
  {
    "city": "Buhwamyi",
    "city_zh": "Buhwamyi",
    "country": "Burundi",
    "country_zh": "蒲隆地",
    "country_iso_code": "BI",
    "timezone": "Africa/Bujumbura",
    "latitude": -4.0162,
    "longitude": 30.1217
  },
  {
    "city": "Rusunu",
    "city_zh": "Rusunu",
    "country": "Burundi",
    "country_zh": "蒲隆地",
    "country_iso_code": "BI",
    "timezone": "Africa/Bujumbura",
    "latitude": -4.0208,
    "longitude": 30.1419
  },
  {
    "city": "Gihofi",
    "city_zh": "Gihofi",
    "country": "Burundi",
    "country_zh": "蒲隆地",
    "country_iso_code": "BI",
    "timezone": "Africa/Bujumbura",
    "latitude": -4.0226,
    "longitude": 30.1154
  },
  {
    "city": "Kivoga",
    "city_zh": "Kivoga",
    "country": "Burundi",
    "country_zh": "蒲隆地",
    "country_iso_code": "BI",
    "timezone": "Africa/Bujumbura",
    "latitude": -4.027,
    "longitude": 30.0716
  },
  {
    "city": "Kabanga",
    "city_zh": "Kabanga",
    "country": "Burundi",
    "country_zh": "蒲隆地",
    "country_iso_code": "BI",
    "timezone": "Africa/Bujumbura",
    "latitude": -4.02972,
    "longitude": 30.08944
  },
  {
    "city": "Kabanga",
    "city_zh": "Kabanga",
    "country": "Burundi",
    "country_zh": "蒲隆地",
    "country_iso_code": "BI",
    "timezone": "Africa/Bujumbura",
    "latitude": -4.03519,
    "longitude": 30.08168
  },
  {
    "city": "Ruranga",
    "city_zh": "Ruranga",
    "country": "Burundi",
    "country_zh": "蒲隆地",
    "country_iso_code": "BI",
    "timezone": "Africa/Bujumbura",
    "latitude": -4.0384,
    "longitude": 30.0368
  },
  {
    "city": "Nyabusaro",
    "city_zh": "Nyabusaro",
    "country": "Burundi",
    "country_zh": "蒲隆地",
    "country_iso_code": "BI",
    "timezone": "Africa/Bujumbura",
    "latitude": -4.0415,
    "longitude": 30.0912
  },
  {
    "city": "Buranga",
    "city_zh": "Buranga",
    "country": "Burundi",
    "country_zh": "蒲隆地",
    "country_iso_code": "BI",
    "timezone": "Africa/Bujumbura",
    "latitude": -4.0484,
    "longitude": 30.0023
  },
  {
    "city": "Gasana",
    "city_zh": "Gasana",
    "country": "Burundi",
    "country_zh": "蒲隆地",
    "country_iso_code": "BI",
    "timezone": "Africa/Bujumbura",
    "latitude": -4.0508,
    "longitude": 30.1427
  },
  {
    "city": "Bareremba",
    "city_zh": "Bareremba",
    "country": "Burundi",
    "country_zh": "蒲隆地",
    "country_iso_code": "BI",
    "timezone": "Africa/Bujumbura",
    "latitude": -4.0498,
    "longitude": 30.108
  },
  {
    "city": "Kayuki",
    "city_zh": "Kayuki",
    "country": "Burundi",
    "country_zh": "蒲隆地",
    "country_iso_code": "BI",
    "timezone": "Africa/Bujumbura",
    "latitude": -4.0597,
    "longitude": 30.0891
  },
  {
    "city": "Gihofi-Bareremba",
    "city_zh": "Gihofi-Bareremba",
    "country": "Burundi",
    "country_zh": "蒲隆地",
    "country_iso_code": "BI",
    "timezone": "Africa/Bujumbura",
    "latitude": -4.0615,
    "longitude": 30.1265
  },
  {
    "city": "Mubuga",
    "city_zh": "Mubuga",
    "country": "Burundi",
    "country_zh": "蒲隆地",
    "country_iso_code": "BI",
    "timezone": "Africa/Bujumbura",
    "latitude": -4.0734,
    "longitude": 30.0591
  },
  {
    "city": "Gatabo",
    "city_zh": "Gatabo",
    "country": "Burundi",
    "country_zh": "蒲隆地",
    "country_iso_code": "BI",
    "timezone": "Africa/Bujumbura",
    "latitude": -4.0737,
    "longitude": 30.0896
  },
  {
    "city": "Karama",
    "city_zh": "Karama",
    "country": "Burundi",
    "country_zh": "蒲隆地",
    "country_iso_code": "BI",
    "timezone": "Africa/Bujumbura",
    "latitude": -4.0867,
    "longitude": 30.0785
  },
  {
    "city": "Kiyange",
    "city_zh": "Kiyange",
    "country": "Burundi",
    "country_zh": "蒲隆地",
    "country_iso_code": "BI",
    "timezone": "Africa/Bujumbura",
    "latitude": -4.0896,
    "longitude": 30.0247
  },
  {
    "city": "Mugeni",
    "city_zh": "Mugeni",
    "country": "Burundi",
    "country_zh": "蒲隆地",
    "country_iso_code": "BI",
    "timezone": "Africa/Bujumbura",
    "latitude": -4.0968,
    "longitude": 30.0098
  },
  {
    "city": "Muramba",
    "city_zh": "Muramba",
    "country": "Burundi",
    "country_zh": "蒲隆地",
    "country_iso_code": "BI",
    "timezone": "Africa/Bujumbura",
    "latitude": -4.0946,
    "longitude": 30.0737
  },
  {
    "city": "Kabizi",
    "city_zh": "Kabizi",
    "country": "Burundi",
    "country_zh": "蒲隆地",
    "country_iso_code": "BI",
    "timezone": "Africa/Bujumbura",
    "latitude": -4.0991,
    "longitude": 30.0492
  },
  {
    "city": "Kinyiganyiga",
    "city_zh": "Kinyiganyiga",
    "country": "Burundi",
    "country_zh": "蒲隆地",
    "country_iso_code": "BI",
    "timezone": "Africa/Bujumbura",
    "latitude": -4.1003,
    "longitude": 30.0874
  },
  {
    "city": "Muyaga",
    "city_zh": "Muyaga",
    "country": "Burundi",
    "country_zh": "蒲隆地",
    "country_iso_code": "BI",
    "timezone": "Africa/Bujumbura",
    "latitude": -4.1145,
    "longitude": 30.0061
  },
  {
    "city": "Ruvumu",
    "city_zh": "Ruvumu",
    "country": "Burundi",
    "country_zh": "蒲隆地",
    "country_iso_code": "BI",
    "timezone": "Africa/Bujumbura",
    "latitude": -4.1189,
    "longitude": 30.0317
  },
  {
    "city": "Gitongo",
    "city_zh": "Gitongo",
    "country": "Burundi",
    "country_zh": "蒲隆地",
    "country_iso_code": "BI",
    "timezone": "Africa/Bujumbura",
    "latitude": -4.1293,
    "longitude": 30.0489
  },
  {
    "city": "Muramba",
    "city_zh": "Muramba",
    "country": "Burundi",
    "country_zh": "蒲隆地",
    "country_iso_code": "BI",
    "timezone": "Africa/Bujumbura",
    "latitude": -4.1431,
    "longitude": 30.015
  },
  {
    "city": "Mugeregere",
    "city_zh": "Mugeregere",
    "country": "Burundi",
    "country_zh": "蒲隆地",
    "country_iso_code": "BI",
    "timezone": "Africa/Bujumbura",
    "latitude": -4.1487,
    "longitude": 30.0603
  },
  {
    "city": "Nyakigezi",
    "city_zh": "Nyakigezi",
    "country": "Burundi",
    "country_zh": "蒲隆地",
    "country_iso_code": "BI",
    "timezone": "Africa/Bujumbura",
    "latitude": -4.1594,
    "longitude": 30.0339
  },
  {
    "city": "Gitanga",
    "city_zh": "Gitanga",
    "country": "Burundi",
    "country_zh": "蒲隆地",
    "country_iso_code": "BI",
    "timezone": "Africa/Bujumbura",
    "latitude": -4.1639,
    "longitude": 30.0138
  },
  {
    "city": "Bigina",
    "city_zh": "Bigina",
    "country": "Burundi",
    "country_zh": "蒲隆地",
    "country_iso_code": "BI",
    "timezone": "Africa/Bujumbura",
    "latitude": -4.182,
    "longitude": 30.0256
  },
  {
    "city": "Nyantakara",
    "city_zh": "Nyantakara",
    "country": "Burundi",
    "country_zh": "蒲隆地",
    "country_iso_code": "BI",
    "timezone": "Africa/Bujumbura",
    "latitude": -4.1988,
    "longitude": 30.0298
  },
  {
    "city": "Musasa",
    "city_zh": "Musasa",
    "country": "Burundi",
    "country_zh": "蒲隆地",
    "country_iso_code": "BI",
    "timezone": "Africa/Bujumbura",
    "latitude": -4.2105,
    "longitude": 30.0374
  },
  {
    "city": "Marizi",
    "city_zh": "Marizi",
    "country": "Burundi",
    "country_zh": "蒲隆地",
    "country_iso_code": "BI",
    "timezone": "Africa/Bujumbura",
    "latitude": -4.2296,
    "longitude": 30.0184
  },
  {
    "city": "Bigina",
    "city_zh": "Bigina",
    "country": "Burundi",
    "country_zh": "蒲隆地",
    "country_iso_code": "BI",
    "timezone": "Africa/Bujumbura",
    "latitude": -4.2263,
    "longitude": 30.0355
  },
  {
    "city": "Gatwe",
    "city_zh": "Gatwe",
    "country": "Burundi",
    "country_zh": "蒲隆地",
    "country_iso_code": "BI",
    "timezone": "Africa/Bujumbura",
    "latitude": -4.2372,
    "longitude": 30.0103
  },
  {
    "city": "Mibazo",
    "city_zh": "Mibazo",
    "country": "Burundi",
    "country_zh": "蒲隆地",
    "country_iso_code": "BI",
    "timezone": "Africa/Bujumbura",
    "latitude": -4.237,
    "longitude": 30.0302
  },
  {
    "city": "Mayange",
    "city_zh": "Mayange",
    "country": "Burundi",
    "country_zh": "蒲隆地",
    "country_iso_code": "BI",
    "timezone": "Africa/Bujumbura",
    "latitude": -4.2549,
    "longitude": 30.0176
  },
  {
    "city": "Mudaturwa",
    "city_zh": "Mudaturwa",
    "country": "Burundi",
    "country_zh": "蒲隆地",
    "country_iso_code": "BI",
    "timezone": "Africa/Bujumbura",
    "latitude": -4.2608,
    "longitude": 30.0273
  },
  {
    "city": "Cunguza",
    "city_zh": "Cunguza",
    "country": "Burundi",
    "country_zh": "蒲隆地",
    "country_iso_code": "BI",
    "timezone": "Africa/Bujumbura",
    "latitude": -3.7554,
    "longitude": 29.8751
  },
  {
    "city": "Gitabo",
    "city_zh": "Gitabo",
    "country": "Burundi",
    "country_zh": "蒲隆地",
    "country_iso_code": "BI",
    "timezone": "Africa/Bujumbura",
    "latitude": -3.7589,
    "longitude": 29.9083
  },
  {
    "city": "Rwinzoka",
    "city_zh": "Rwinzoka",
    "country": "Burundi",
    "country_zh": "蒲隆地",
    "country_iso_code": "BI",
    "timezone": "Africa/Bujumbura",
    "latitude": -3.7603,
    "longitude": 29.9458
  },
  {
    "city": "Buraza",
    "city_zh": "Buraza",
    "country": "Burundi",
    "country_zh": "蒲隆地",
    "country_iso_code": "BI",
    "timezone": "Africa/Bujumbura",
    "latitude": -3.7639,
    "longitude": 29.8918
  },
  {
    "city": "Buhinyuza",
    "city_zh": "Buhinyuza",
    "country": "Burundi",
    "country_zh": "蒲隆地",
    "country_iso_code": "BI",
    "timezone": "Africa/Bujumbura",
    "latitude": -3.764,
    "longitude": 29.8817
  },
  {
    "city": "Kame",
    "city_zh": "Kame",
    "country": "Burundi",
    "country_zh": "蒲隆地",
    "country_iso_code": "BI",
    "timezone": "Africa/Bujumbura",
    "latitude": -3.7649,
    "longitude": 29.9082
  },
  {
    "city": "Gisizi",
    "city_zh": "Gisizi",
    "country": "Burundi",
    "country_zh": "蒲隆地",
    "country_iso_code": "BI",
    "timezone": "Africa/Bujumbura",
    "latitude": -3.7652,
    "longitude": 29.7518
  },
  {
    "city": "Mugano",
    "city_zh": "Mugano",
    "country": "Burundi",
    "country_zh": "蒲隆地",
    "country_iso_code": "BI",
    "timezone": "Africa/Bujumbura",
    "latitude": -3.7649,
    "longitude": 29.8676
  },
  {
    "city": "Mugano",
    "city_zh": "Mugano",
    "country": "Burundi",
    "country_zh": "蒲隆地",
    "country_iso_code": "BI",
    "timezone": "Africa/Bujumbura",
    "latitude": -3.7665,
    "longitude": 29.7685
  },
  {
    "city": "Ndava",
    "city_zh": "Ndava",
    "country": "Burundi",
    "country_zh": "蒲隆地",
    "country_iso_code": "BI",
    "timezone": "Africa/Bujumbura",
    "latitude": -3.7681,
    "longitude": 29.9189
  },
  {
    "city": "Kagimbu",
    "city_zh": "Kagimbu",
    "country": "Burundi",
    "country_zh": "蒲隆地",
    "country_iso_code": "BI",
    "timezone": "Africa/Bujumbura",
    "latitude": -3.7675,
    "longitude": 29.8474
  },
  {
    "city": "Butemba",
    "city_zh": "Butemba",
    "country": "Burundi",
    "country_zh": "蒲隆地",
    "country_iso_code": "BI",
    "timezone": "Africa/Bujumbura",
    "latitude": -3.7666,
    "longitude": 29.9822
  },
  {
    "city": "Kampezi",
    "city_zh": "Kampezi",
    "country": "Burundi",
    "country_zh": "蒲隆地",
    "country_iso_code": "BI",
    "timezone": "Africa/Bujumbura",
    "latitude": -3.7692,
    "longitude": 29.7933
  },
  {
    "city": "Butobwe",
    "city_zh": "Butobwe",
    "country": "Burundi",
    "country_zh": "蒲隆地",
    "country_iso_code": "BI",
    "timezone": "Africa/Bujumbura",
    "latitude": -3.768,
    "longitude": 29.8188
  },
  {
    "city": "Cabumba",
    "city_zh": "Cabumba",
    "country": "Burundi",
    "country_zh": "蒲隆地",
    "country_iso_code": "BI",
    "timezone": "Africa/Bujumbura",
    "latitude": -3.7706,
    "longitude": 29.8641
  },
  {
    "city": "Kirinzi",
    "city_zh": "Kirinzi",
    "country": "Burundi",
    "country_zh": "蒲隆地",
    "country_iso_code": "BI",
    "timezone": "Africa/Bujumbura",
    "latitude": -3.7716,
    "longitude": 29.8777
  },
  {
    "city": "Gikobe",
    "city_zh": "Gikobe",
    "country": "Burundi",
    "country_zh": "蒲隆地",
    "country_iso_code": "BI",
    "timezone": "Africa/Bujumbura",
    "latitude": -3.774,
    "longitude": 29.8577
  },
  {
    "city": "Muyange",
    "city_zh": "Muyange",
    "country": "Burundi",
    "country_zh": "蒲隆地",
    "country_iso_code": "BI",
    "timezone": "Africa/Bujumbura",
    "latitude": -3.774,
    "longitude": 29.9608
  },
  {
    "city": "Rutoke",
    "city_zh": "Rutoke",
    "country": "Burundi",
    "country_zh": "蒲隆地",
    "country_iso_code": "BI",
    "timezone": "Africa/Bujumbura",
    "latitude": -3.7751,
    "longitude": 29.8159
  },
  {
    "city": "Rugenegene",
    "city_zh": "Rugenegene",
    "country": "Burundi",
    "country_zh": "蒲隆地",
    "country_iso_code": "BI",
    "timezone": "Africa/Bujumbura",
    "latitude": -3.7736,
    "longitude": 29.9754
  },
  {
    "city": "Nyarunazi",
    "city_zh": "Nyarunazi",
    "country": "Burundi",
    "country_zh": "蒲隆地",
    "country_iso_code": "BI",
    "timezone": "Africa/Bujumbura",
    "latitude": -3.781,
    "longitude": 29.9551
  },
  {
    "city": "Buhogo",
    "city_zh": "Buhogo",
    "country": "Burundi",
    "country_zh": "蒲隆地",
    "country_iso_code": "BI",
    "timezone": "Africa/Bujumbura",
    "latitude": -3.7815,
    "longitude": 29.9678
  },
  {
    "city": "Kizama",
    "city_zh": "Kizama",
    "country": "Burundi",
    "country_zh": "蒲隆地",
    "country_iso_code": "BI",
    "timezone": "Africa/Bujumbura",
    "latitude": -3.78,
    "longitude": 29.8849
  },
  {
    "city": "Butezi",
    "city_zh": "Butezi",
    "country": "Burundi",
    "country_zh": "蒲隆地",
    "country_iso_code": "BI",
    "timezone": "Africa/Bujumbura",
    "latitude": -3.7859,
    "longitude": 29.9423
  },
  {
    "city": "Kinubanya",
    "city_zh": "Kinubanya",
    "country": "Burundi",
    "country_zh": "蒲隆地",
    "country_iso_code": "BI",
    "timezone": "Africa/Bujumbura",
    "latitude": -3.7856,
    "longitude": 29.7709
  },
  {
    "city": "Buriza",
    "city_zh": "Buriza",
    "country": "Burundi",
    "country_zh": "蒲隆地",
    "country_iso_code": "BI",
    "timezone": "Africa/Bujumbura",
    "latitude": -3.788,
    "longitude": 29.869
  },
  {
    "city": "Nyakuguma",
    "city_zh": "Nyakuguma",
    "country": "Burundi",
    "country_zh": "蒲隆地",
    "country_iso_code": "BI",
    "timezone": "Africa/Bujumbura",
    "latitude": -3.7879,
    "longitude": 29.7892
  },
  {
    "city": "Nyamure",
    "city_zh": "Nyamure",
    "country": "Burundi",
    "country_zh": "蒲隆地",
    "country_iso_code": "BI",
    "timezone": "Africa/Bujumbura",
    "latitude": -3.7881,
    "longitude": 29.9687
  },
  {
    "city": "Musama",
    "city_zh": "Musama",
    "country": "Burundi",
    "country_zh": "蒲隆地",
    "country_iso_code": "BI",
    "timezone": "Africa/Bujumbura",
    "latitude": -3.7888,
    "longitude": 29.8521
  },
  {
    "city": "Gahama",
    "city_zh": "Gahama",
    "country": "Burundi",
    "country_zh": "蒲隆地",
    "country_iso_code": "BI",
    "timezone": "Africa/Bujumbura",
    "latitude": -3.7873,
    "longitude": 29.7524
  },
  {
    "city": "Mihama",
    "city_zh": "Mihama",
    "country": "Burundi",
    "country_zh": "蒲隆地",
    "country_iso_code": "BI",
    "timezone": "Africa/Bujumbura",
    "latitude": -3.7936,
    "longitude": 29.9791
  },
  {
    "city": "Mbote",
    "city_zh": "Mbote",
    "country": "Burundi",
    "country_zh": "蒲隆地",
    "country_iso_code": "BI",
    "timezone": "Africa/Bujumbura",
    "latitude": -3.7972,
    "longitude": 29.7633
  },
  {
    "city": "Karambi",
    "city_zh": "Karambi",
    "country": "Burundi",
    "country_zh": "蒲隆地",
    "country_iso_code": "BI",
    "timezone": "Africa/Bujumbura",
    "latitude": -3.794,
    "longitude": 29.8366
  },
  {
    "city": "Munyegeri",
    "city_zh": "Munyegeri",
    "country": "Burundi",
    "country_zh": "蒲隆地",
    "country_iso_code": "BI",
    "timezone": "Africa/Bujumbura",
    "latitude": -3.7981,
    "longitude": 29.8079
  },
  {
    "city": "Gikwazo",
    "city_zh": "Gikwazo",
    "country": "Burundi",
    "country_zh": "蒲隆地",
    "country_iso_code": "BI",
    "timezone": "Africa/Bujumbura",
    "latitude": -3.8008,
    "longitude": 29.8334
  },
  {
    "city": "Nyakabuye",
    "city_zh": "Nyakabuye",
    "country": "Burundi",
    "country_zh": "蒲隆地",
    "country_iso_code": "BI",
    "timezone": "Africa/Bujumbura",
    "latitude": -3.7998,
    "longitude": 29.9323
  },
  {
    "city": "Karimbi",
    "city_zh": "Karimbi",
    "country": "Burundi",
    "country_zh": "蒲隆地",
    "country_iso_code": "BI",
    "timezone": "Africa/Bujumbura",
    "latitude": -3.7971,
    "longitude": 29.9577
  },
  {
    "city": "Rweru",
    "city_zh": "Rweru",
    "country": "Burundi",
    "country_zh": "蒲隆地",
    "country_iso_code": "BI",
    "timezone": "Africa/Bujumbura",
    "latitude": -3.8012,
    "longitude": 29.9404
  },
  {
    "city": "Nkuruba",
    "city_zh": "Nkuruba",
    "country": "Burundi",
    "country_zh": "蒲隆地",
    "country_iso_code": "BI",
    "timezone": "Africa/Bujumbura",
    "latitude": -3.8033,
    "longitude": 29.7689
  },
  {
    "city": "Mahwa",
    "city_zh": "Mahwa",
    "country": "Burundi",
    "country_zh": "蒲隆地",
    "country_iso_code": "BI",
    "timezone": "Africa/Bujumbura",
    "latitude": -3.8032,
    "longitude": 29.781
  },
  {
    "city": "Murara",
    "city_zh": "Murara",
    "country": "Burundi",
    "country_zh": "蒲隆地",
    "country_iso_code": "BI",
    "timezone": "Africa/Bujumbura",
    "latitude": -3.8072,
    "longitude": 29.8553
  },
  {
    "city": "Makoto",
    "city_zh": "Makoto",
    "country": "Burundi",
    "country_zh": "蒲隆地",
    "country_iso_code": "BI",
    "timezone": "Africa/Bujumbura",
    "latitude": -3.8054,
    "longitude": 29.8115
  },
  {
    "city": "Kabasa",
    "city_zh": "Kabasa",
    "country": "Burundi",
    "country_zh": "蒲隆地",
    "country_iso_code": "BI",
    "timezone": "Africa/Bujumbura",
    "latitude": -3.8076,
    "longitude": 29.8967
  },
  {
    "city": "Rango",
    "city_zh": "Rango",
    "country": "Burundi",
    "country_zh": "蒲隆地",
    "country_iso_code": "BI",
    "timezone": "Africa/Bujumbura",
    "latitude": -3.809,
    "longitude": 29.9159
  },
  {
    "city": "Ndago",
    "city_zh": "Ndago",
    "country": "Burundi",
    "country_zh": "蒲隆地",
    "country_iso_code": "BI",
    "timezone": "Africa/Bujumbura",
    "latitude": -3.8116,
    "longitude": 29.9219
  },
  {
    "city": "Ciyubake",
    "city_zh": "Ciyubake",
    "country": "Burundi",
    "country_zh": "蒲隆地",
    "country_iso_code": "BI",
    "timezone": "Africa/Bujumbura",
    "latitude": -3.8083,
    "longitude": 29.7702
  },
  {
    "city": "Kivubo",
    "city_zh": "Kivubo",
    "country": "Burundi",
    "country_zh": "蒲隆地",
    "country_iso_code": "BI",
    "timezone": "Africa/Bujumbura",
    "latitude": -3.8122,
    "longitude": 29.8531
  },
  {
    "city": "Bugunga",
    "city_zh": "Bugunga",
    "country": "Burundi",
    "country_zh": "蒲隆地",
    "country_iso_code": "BI",
    "timezone": "Africa/Bujumbura",
    "latitude": -3.814,
    "longitude": 29.9893
  },
  {
    "city": "Condi",
    "city_zh": "Condi",
    "country": "Burundi",
    "country_zh": "蒲隆地",
    "country_iso_code": "BI",
    "timezone": "Africa/Bujumbura",
    "latitude": -3.8073,
    "longitude": 29.8279
  },
  {
    "city": "Kinyanza",
    "city_zh": "Kinyanza",
    "country": "Burundi",
    "country_zh": "蒲隆地",
    "country_iso_code": "BI",
    "timezone": "Africa/Bujumbura",
    "latitude": -3.8196,
    "longitude": 29.9757
  },
  {
    "city": "Kanyuzwa",
    "city_zh": "Kanyuzwa",
    "country": "Burundi",
    "country_zh": "蒲隆地",
    "country_iso_code": "BI",
    "timezone": "Africa/Bujumbura",
    "latitude": -3.819,
    "longitude": 29.8262
  },
  {
    "city": "Nyabagase",
    "city_zh": "Nyabagase",
    "country": "Burundi",
    "country_zh": "蒲隆地",
    "country_iso_code": "BI",
    "timezone": "Africa/Bujumbura",
    "latitude": -3.8195,
    "longitude": 29.8627
  },
  {
    "city": "Gasange",
    "city_zh": "Gasange",
    "country": "Burundi",
    "country_zh": "蒲隆地",
    "country_iso_code": "BI",
    "timezone": "Africa/Bujumbura",
    "latitude": -3.8206,
    "longitude": 29.9519
  },
  {
    "city": "Gihanga",
    "city_zh": "Gihanga",
    "country": "Burundi",
    "country_zh": "蒲隆地",
    "country_iso_code": "BI",
    "timezone": "Africa/Bujumbura",
    "latitude": -3.821,
    "longitude": 29.81
  },
  {
    "city": "Gatongati",
    "city_zh": "Gatongati",
    "country": "Burundi",
    "country_zh": "蒲隆地",
    "country_iso_code": "BI",
    "timezone": "Africa/Bujumbura",
    "latitude": -3.8234,
    "longitude": 29.9703
  },
  {
    "city": "Munyinya",
    "city_zh": "Munyinya",
    "country": "Burundi",
    "country_zh": "蒲隆地",
    "country_iso_code": "BI",
    "timezone": "Africa/Bujumbura",
    "latitude": -3.8233,
    "longitude": 29.8778
  },
  {
    "city": "Gatwenge",
    "city_zh": "Gatwenge",
    "country": "Burundi",
    "country_zh": "蒲隆地",
    "country_iso_code": "BI",
    "timezone": "Africa/Bujumbura",
    "latitude": -3.8272,
    "longitude": 29.8211
  },
  {
    "city": "Rwesero",
    "city_zh": "Rwesero",
    "country": "Burundi",
    "country_zh": "蒲隆地",
    "country_iso_code": "BI",
    "timezone": "Africa/Bujumbura",
    "latitude": -3.8273,
    "longitude": 29.8403
  },
  {
    "city": "Dangara",
    "city_zh": "Dangara",
    "country": "Burundi",
    "country_zh": "蒲隆地",
    "country_iso_code": "BI",
    "timezone": "Africa/Bujumbura",
    "latitude": -3.8278,
    "longitude": 29.9392
  },
  {
    "city": "Kinganda",
    "city_zh": "Kinganda",
    "country": "Burundi",
    "country_zh": "蒲隆地",
    "country_iso_code": "BI",
    "timezone": "Africa/Bujumbura",
    "latitude": -3.8274,
    "longitude": 29.952
  },
  {
    "city": "Rufunzwe",
    "city_zh": "Rufunzwe",
    "country": "Burundi",
    "country_zh": "蒲隆地",
    "country_iso_code": "BI",
    "timezone": "Africa/Bujumbura",
    "latitude": -3.8283,
    "longitude": 29.9309
  },
  {
    "city": "Nyakabingo",
    "city_zh": "Nyakabingo",
    "country": "Burundi",
    "country_zh": "蒲隆地",
    "country_iso_code": "BI",
    "timezone": "Africa/Bujumbura",
    "latitude": -3.8334,
    "longitude": 29.7921
  },
  {
    "city": "Nyarubimba",
    "city_zh": "Nyarubimba",
    "country": "Burundi",
    "country_zh": "蒲隆地",
    "country_iso_code": "BI",
    "timezone": "Africa/Bujumbura",
    "latitude": -3.8322,
    "longitude": 29.9142
  },
  {
    "city": "Karwa",
    "city_zh": "Karwa",
    "country": "Burundi",
    "country_zh": "蒲隆地",
    "country_iso_code": "BI",
    "timezone": "Africa/Bujumbura",
    "latitude": -3.8328,
    "longitude": 29.809
  },
  {
    "city": "Kabingo",
    "city_zh": "Kabingo",
    "country": "Burundi",
    "country_zh": "蒲隆地",
    "country_iso_code": "BI",
    "timezone": "Africa/Bujumbura",
    "latitude": -3.8346,
    "longitude": 29.7555
  },
  {
    "city": "Ntobo",
    "city_zh": "Ntobo",
    "country": "Burundi",
    "country_zh": "蒲隆地",
    "country_iso_code": "BI",
    "timezone": "Africa/Bujumbura",
    "latitude": -3.9409,
    "longitude": 29.8756
  },
  {
    "city": "Ntuku",
    "city_zh": "Ntuku",
    "country": "Burundi",
    "country_zh": "蒲隆地",
    "country_iso_code": "BI",
    "timezone": "Africa/Bujumbura",
    "latitude": -3.9446,
    "longitude": 29.9224
  },
  {
    "city": "Ruvuye",
    "city_zh": "Ruvuye",
    "country": "Burundi",
    "country_zh": "蒲隆地",
    "country_iso_code": "BI",
    "timezone": "Africa/Bujumbura",
    "latitude": -3.9493,
    "longitude": 29.8444
  },
  {
    "city": "Mugi",
    "city_zh": "Mugi",
    "country": "Burundi",
    "country_zh": "蒲隆地",
    "country_iso_code": "BI",
    "timezone": "Africa/Bujumbura",
    "latitude": -3.949,
    "longitude": 29.9211
  },
  {
    "city": "Mugongo",
    "city_zh": "Mugongo",
    "country": "Burundi",
    "country_zh": "蒲隆地",
    "country_iso_code": "BI",
    "timezone": "Africa/Bujumbura",
    "latitude": -3.9508,
    "longitude": 29.9468
  },
  {
    "city": "Gisenyi",
    "city_zh": "Gisenyi",
    "country": "Burundi",
    "country_zh": "蒲隆地",
    "country_iso_code": "BI",
    "timezone": "Africa/Bujumbura",
    "latitude": -3.9505,
    "longitude": 29.9866
  },
  {
    "city": "Ngoma",
    "city_zh": "Ngoma",
    "country": "Burundi",
    "country_zh": "蒲隆地",
    "country_iso_code": "BI",
    "timezone": "Africa/Bujumbura",
    "latitude": -3.9535,
    "longitude": 29.8855
  },
  {
    "city": "Kabazo",
    "city_zh": "Kabazo",
    "country": "Burundi",
    "country_zh": "蒲隆地",
    "country_iso_code": "BI",
    "timezone": "Africa/Bujumbura",
    "latitude": -3.9518,
    "longitude": 29.8312
  },
  {
    "city": "Butezi",
    "city_zh": "Butezi",
    "country": "Burundi",
    "country_zh": "蒲隆地",
    "country_iso_code": "BI",
    "timezone": "Africa/Bujumbura",
    "latitude": -3.957,
    "longitude": 29.9857
  },
  {
    "city": "Museno",
    "city_zh": "Museno",
    "country": "Burundi",
    "country_zh": "蒲隆地",
    "country_iso_code": "BI",
    "timezone": "Africa/Bujumbura",
    "latitude": -3.9584,
    "longitude": 29.9432
  },
  {
    "city": "Gakwende",
    "city_zh": "Gakwende",
    "country": "Burundi",
    "country_zh": "蒲隆地",
    "country_iso_code": "BI",
    "timezone": "Africa/Bujumbura",
    "latitude": -3.9599,
    "longitude": 29.883
  },
  {
    "city": "Bartye",
    "city_zh": "Bartye",
    "country": "Burundi",
    "country_zh": "蒲隆地",
    "country_iso_code": "BI",
    "timezone": "Africa/Bujumbura",
    "latitude": -3.9623,
    "longitude": 29.8245
  },
  {
    "city": "Nyarwaga",
    "city_zh": "Nyarwaga",
    "country": "Burundi",
    "country_zh": "蒲隆地",
    "country_iso_code": "BI",
    "timezone": "Africa/Bujumbura",
    "latitude": -3.9618,
    "longitude": 29.7555
  },
  {
    "city": "Nyakibaka",
    "city_zh": "Nyakibaka",
    "country": "Burundi",
    "country_zh": "蒲隆地",
    "country_iso_code": "BI",
    "timezone": "Africa/Bujumbura",
    "latitude": -3.9659,
    "longitude": 29.9077
  },
  {
    "city": "Kirabuke",
    "city_zh": "Kirabuke",
    "country": "Burundi",
    "country_zh": "蒲隆地",
    "country_iso_code": "BI",
    "timezone": "Africa/Bujumbura",
    "latitude": -3.9673,
    "longitude": 29.7518
  },
  {
    "city": "Kinyeregeti",
    "city_zh": "Kinyeregeti",
    "country": "Burundi",
    "country_zh": "蒲隆地",
    "country_iso_code": "BI",
    "timezone": "Africa/Bujumbura",
    "latitude": -3.9671,
    "longitude": 29.9296
  },
  {
    "city": "Gatwaro",
    "city_zh": "Gatwaro",
    "country": "Burundi",
    "country_zh": "蒲隆地",
    "country_iso_code": "BI",
    "timezone": "Africa/Bujumbura",
    "latitude": -3.9639,
    "longitude": 29.8977
  },
  {
    "city": "Muheweza",
    "city_zh": "Muheweza",
    "country": "Burundi",
    "country_zh": "蒲隆地",
    "country_iso_code": "BI",
    "timezone": "Africa/Bujumbura",
    "latitude": -3.96402,
    "longitude": 29.84698
  },
  {
    "city": "Jungwe",
    "city_zh": "Jungwe",
    "country": "Burundi",
    "country_zh": "蒲隆地",
    "country_iso_code": "BI",
    "timezone": "Africa/Bujumbura",
    "latitude": -3.9673,
    "longitude": 29.7826
  },