[
  {
    "city": "Valmiera",
    "city_zh": "瓦爾米耶拉",
    "country": "Latvia",
    "country_zh": "拉脫維亞",
    "country_iso_code": "LV",
    "timezone": "Europe/Riga",
    "latitude": 57.54108,
    "longitude": 25.42751
  },
  {
    "city": "Jaunzemji",
    "city_zh": "Jaunzemji",
    "country": "Latvia",
    "country_zh": "拉脫維亞",
    "country_iso_code": "LV",
    "timezone": "Europe/Riga",
    "latitude": 57.13333,
    "longitude": 22.41667
  },
  {
    "city": "Grīžukrogs",
    "city_zh": "Grīžukrogs",
    "country": "Latvia",
    "country_zh": "拉脫維亞",
    "country_iso_code": "LV",
    "timezone": "Europe/Riga",
    "latitude": 57.38333,
    "longitude": 21.78333
  },
  {
    "city": "Čolēni",
    "city_zh": "Čolēni",
    "country": "Latvia",
    "country_zh": "拉脫維亞",
    "country_iso_code": "LV",
    "timezone": "Europe/Riga",
    "latitude": 57.0096,
    "longitude": 25.8794
  },
  {
    "city": "Zvirgzdene",
    "city_zh": "Zvirgzdene",
    "country": "Latvia",
    "country_zh": "拉脫維亞",
    "country_iso_code": "LV",
    "timezone": "Europe/Riga",
    "latitude": 56.57341,
    "longitude": 27.68239
  },
  {
    "city": "Zvirgzde",
    "city_zh": "Zvirgzde",
    "country": "Latvia",
    "country_zh": "拉脫維亞",
    "country_iso_code": "LV",
    "timezone": "Europe/Riga",
    "latitude": 56.64294,
    "longitude": 24.44582
  },
  {
    "city": "Zvidziena",
    "city_zh": "Zvidziena",
    "country": "Latvia",
    "country_zh": "拉脫維亞",
    "country_iso_code": "LV",
    "timezone": "Europe/Riga",
    "latitude": 56.84005,
    "longitude": 26.86294
  },
  {
    "city": "Zviergzdova",
    "city_zh": "Zviergzdova",
    "country": "Latvia",
    "country_zh": "拉脫維亞",
    "country_iso_code": "LV",
    "timezone": "Europe/Riga",
    "latitude": 56.3477,
    "longitude": 27.79348
  },
  {
    "city": "Zvindeļiški",
    "city_zh": "Zvindeļiški",
    "country": "Latvia",
    "country_zh": "拉脫維亞",
    "country_iso_code": "LV",
    "timezone": "Europe/Riga",
    "latitude": 55.97524,
    "longitude": 26.88933
  },
  {
    "city": "Zvejnieki",
    "city_zh": "Zvejnieki",
    "country": "Latvia",
    "country_zh": "拉脫維亞",
    "country_iso_code": "LV",
    "timezone": "Europe/Riga",
    "latitude": 56.31711,
    "longitude": 25.07858
  },
  {
    "city": "Zvejniekciems",
    "city_zh": "Zvejniekciems",
    "country": "Latvia",
    "country_zh": "拉脫維亞",
    "country_iso_code": "LV",
    "timezone": "Europe/Riga",
    "latitude": 57.308,
    "longitude": 24.41447
  },
  {
    "city": "Zvārtava",
    "city_zh": "Zvārtava",
    "country": "Latvia",
    "country_zh": "拉脫維亞",
    "country_iso_code": "LV",
    "timezone": "Europe/Riga",
    "latitude": 57.53721,
    "longitude": 26.37045
  },
  {
    "city": "Zvāre",
    "city_zh": "Zvāre",
    "country": "Latvia",
    "country_zh": "拉脫維亞",
    "country_iso_code": "LV",
    "timezone": "Europe/Riga",
    "latitude": 57.01886,
    "longitude": 23.00165
  },
  {
    "city": "Zutēni",
    "city_zh": "Zutēni",
    "country": "Latvia",
    "country_zh": "拉脫維亞",
    "country_iso_code": "LV",
    "timezone": "Europe/Riga",
    "latitude": 56.86283,
    "longitude": 22.45667
  },
  {
    "city": "Zuši",
    "city_zh": "Zuši",
    "country": "Latvia",
    "country_zh": "拉脫維亞",
    "country_iso_code": "LV",
    "timezone": "Europe/Riga",
    "latitude": 56.71814,
    "longitude": 27.34758
  },
  {
    "city": "Bētiņu Ciems",
    "city_zh": "Bētiņu Ciems",
    "country": "Latvia",
    "country_zh": "拉脫維亞",
    "country_iso_code": "LV",
    "timezone": "Europe/Riga",
    "latitude": 56.32581,
    "longitude": 21.08095
  },
  {
    "city": "Zūras",
    "city_zh": "Zūras",
    "country": "Latvia",
    "country_zh": "拉脫維亞",
    "country_iso_code": "LV",
    "timezone": "Europe/Riga",
    "latitude": 57.25653,
    "longitude": 21.60835
  },
  {
    "city": "Zundi",
    "city_zh": "Zundi",
    "country": "Latvia",
    "country_zh": "拉脫維亞",
    "country_iso_code": "LV",
    "timezone": "Europe/Riga",
    "latitude": 56.24483,
    "longitude": 27.44843
  },
  {
    "city": "Zundi",
    "city_zh": "Zundi",
    "country": "Latvia",
    "country_zh": "拉脫維亞",
    "country_iso_code": "LV",
    "timezone": "Europe/Riga",
    "latitude": 56.19639,
    "longitude": 27.30592
  },
  {
    "city": "Zundāni",
    "city_zh": "Zundāni",
    "country": "Latvia",
    "country_zh": "拉脫維亞",
    "country_iso_code": "LV",
    "timezone": "Europe/Riga",
    "latitude": 56.42543,
    "longitude": 26.21774
  },
  {
    "city": "Zulleni",
    "city_zh": "Zulleni",
    "country": "Latvia",
    "country_zh": "拉脫維亞",
    "country_iso_code": "LV",
    "timezone": "Europe/Riga",
    "latitude": 56.38625,
    "longitude": 24.40507
  },
  {
    "city": "Žuldiņas",
    "city_zh": "Žuldiņas",
    "country": "Latvia",
    "country_zh": "拉脫維亞",
    "country_iso_code": "LV",
    "timezone": "Europe/Riga",
    "latitude": 57.73363,
    "longitude": 26.14211
  },
  {
    "city": "Zuji",
    "city_zh": "Zuji",
    "country": "Latvia",
    "country_zh": "拉脫維亞",
    "country_iso_code": "LV",
    "timezone": "Europe/Riga",
    "latitude": 56.40892,
    "longitude": 27.03976
  },
  {
    "city": "Zosuli",
    "city_zh": "Zosuli",
    "country": "Latvia",
    "country_zh": "拉脫維亞",
    "country_iso_code": "LV",
    "timezone": "Europe/Riga",
    "latitude": 56.82486,
    "longitude": 27.19543
  },
  {
    "city": "Zosna",
    "city_zh": "Zosna",
    "country": "Latvia",
    "country_zh": "拉脫維亞",
    "country_iso_code": "LV",
    "timezone": "Europe/Riga",
    "latitude": 56.32839,
    "longitude": 27.33656
  },
  {
    "city": "Zosēni",
    "city_zh": "Zosēni",
    "country": "Latvia",
    "country_zh": "拉脫維亞",
    "country_iso_code": "LV",
    "timezone": "Europe/Riga",
    "latitude": 57.13703,
    "longitude": 25.9047
  },
  {
    "city": "Zasa",
    "city_zh": "Zasa",
    "country": "Latvia",
    "country_zh": "拉脫維亞",
    "country_iso_code": "LV",
    "timezone": "Europe/Riga",
    "latitude": 56.29272,
    "longitude": 25.98073
  },
  {
    "city": "Zonapi",
    "city_zh": "Zonapi",
    "country": "Latvia",
    "country_zh": "拉脫維亞",
    "country_iso_code": "LV",
    "timezone": "Europe/Riga",
    "latitude": 57.78385,
    "longitude": 24.60156
  },
  {
    "city": "Žogotas",
    "city_zh": "Žogotas",
    "country": "Latvia",
    "country_zh": "拉脫維亞",
    "country_iso_code": "LV",
    "timezone": "Europe/Riga",
    "latitude": 56.72009,
    "longitude": 27.36681
  },
  {
    "city": "Žoglova",
    "city_zh": "Žoglova",
    "country": "Latvia",
    "country_zh": "拉脫維亞",
    "country_iso_code": "LV",
    "timezone": "Europe/Riga",
    "latitude": 56.1962,
    "longitude": 28.09221
  },
  {
    "city": "Žogi",
    "city_zh": "Žogi",
    "country": "Latvia",
    "country_zh": "拉脫維亞",
    "country_iso_code": "LV",
    "timezone": "Europe/Riga",
    "latitude": 56.81795,
    "longitude": 27.30563
  },
  {
    "city": "Žocene",
    "city_zh": "Žocene",
    "country": "Latvia",
    "country_zh": "拉脫維亞",
    "country_iso_code": "LV",
    "timezone": "Europe/Riga",
    "latitude": 57.54223,
    "longitude": 22.70977
  },
  {
    "city": "Znotiņi",
    "city_zh": "Znotiņi",
    "country": "Latvia",
    "country_zh": "拉脫維亞",
    "country_iso_code": "LV",
    "timezone": "Europe/Riga",
    "latitude": 56.28462,
    "longitude": 26.57
  },
  {
    "city": "Zlēkas",
    "city_zh": "Zlēkas",
    "country": "Latvia",
    "country_zh": "拉脫維亞",
    "country_iso_code": "LV",
    "timezone": "Europe/Riga",
    "latitude": 57.12382,
    "longitude": 21.8291
  },
  {
    "city": "Zizma",
    "city_zh": "Zizma",
    "country": "Latvia",
    "country_zh": "拉脫維亞",
    "country_iso_code": "LV",
    "timezone": "Europe/Riga",
    "latitude": 56.45119,
    "longitude": 23.74205
  },
  {
    "city": "Sļadzeva",
    "city_zh": "Sļadzeva",
    "country": "Latvia",
    "country_zh": "拉脫維亞",
    "country_iso_code": "LV",
    "timezone": "Europe/Riga",
    "latitude": 56.36408,
    "longitude": 28.13259
  },
  {
    "city": "Zirņi",
    "city_zh": "Zirņi",
    "country": "Latvia",
    "country_zh": "拉脫維亞",
    "country_iso_code": "LV",
    "timezone": "Europe/Riga",
    "latitude": 56.67453,
    "longitude": 22.21616
  },
  {
    "city": "Zirgi",
    "city_zh": "Zirgi",
    "country": "Latvia",
    "country_zh": "拉脫維亞",
    "country_iso_code": "LV",
    "timezone": "Europe/Riga",
    "latitude": 56.25735,
    "longitude": 27.79151
  },
  {
    "city": "Ziras",
    "city_zh": "Ziras",
    "country": "Latvia",
    "country_zh": "拉脫維亞",
    "country_iso_code": "LV",
    "timezone": "Europe/Riga",
    "latitude": 57.17232,
    "longitude": 21.5762
  },
  {
    "city": "Zilupe",
    "city_zh": "濟盧佩",
    "country": "Latvia",
    "country_zh": "拉脫維亞",
    "country_iso_code": "LV",
    "timezone": "Europe/Riga",
    "latitude": 56.38616,
    "longitude": 28.12165
  },
  {
    "city": "Ziliņi",
    "city_zh": "Ziliņi",
    "country": "Latvia",
    "country_zh": "拉脫維亞",
    "country_iso_code": "LV",
    "timezone": "Europe/Riga",
    "latitude": 56.6483,
    "longitude": 26.08223
  },
  {
    "city": "Zīle",
    "city_zh": "Zīle",
    "country": "Latvia",
    "country_zh": "拉脫維亞",
    "country_iso_code": "LV",
    "timezone": "Europe/Riga",
    "latitude": 57.7025,
    "longitude": 26.04421
  },
  {
    "city": "Zilāni",
    "city_zh": "Zilāni",
    "country": "Latvia",
    "country_zh": "拉脫維亞",
    "country_iso_code": "LV",
    "timezone": "Europe/Riga",
    "latitude": 56.51405,
    "longitude": 25.94233
  },
  {
    "city": "Zilaiskalns",
    "city_zh": "Zilaiskalns",
    "country": "Latvia",
    "country_zh": "拉脫維亞",
    "country_iso_code": "LV",
    "timezone": "Europe/Riga",
    "latitude": 57.55783,
    "longitude": 25.20827
  },
  {
    "city": "Ziemupe",
    "city_zh": "Ziemupe",
    "country": "Latvia",
    "country_zh": "拉脫維亞",
    "country_iso_code": "LV",
    "timezone": "Europe/Riga",
    "latitude": 56.74833,
    "longitude": 21.07669
  },
  {
    "city": "Ziemeri",
    "city_zh": "Ziemeri",
    "country": "Latvia",
    "country_zh": "拉脫維亞",
    "country_iso_code": "LV",
    "timezone": "Europe/Riga",
    "latitude": 57.53339,
    "longitude": 27.06137
  },
  {
    "city": "Ziemeļi",
    "city_zh": "Ziemeļi",
    "country": "Latvia",
    "country_zh": "拉脫維亞",
    "country_iso_code": "LV",
    "timezone": "Europe/Riga",
    "latitude": 57.13044,
    "longitude": 26.22369
  },
  {
    "city": "Ziemeļciems",
    "city_zh": "Ziemeļciems",
    "country": "Latvia",
    "country_zh": "拉脫維亞",
    "country_iso_code": "LV",
    "timezone": "Europe/Riga",
    "latitude": 56.84499,
    "longitude": 21.76417
  },
  {
    "city": "Ziedkalne",
    "city_zh": "Ziedkalne",
    "country": "Latvia",
    "country_zh": "拉脫維亞",
    "country_iso_code": "LV",
    "timezone": "Europe/Riga",
    "latitude": 56.43482,
    "longitude": 23.4797
  },
  {
    "city": "Vengerski",
    "city_zh": "Vengerski",
    "country": "Latvia",
    "country_zh": "拉脫維亞",
    "country_iso_code": "LV",
    "timezone": "Europe/Riga",
    "latitude": 57.46027,
    "longitude": 27.02009
  },
  {
    "city": "Židina",
    "city_zh": "Židina",
    "country": "Latvia",
    "country_zh": "拉脫維亞",
    "country_iso_code": "LV",
    "timezone": "Europe/Riga",
    "latitude": 55.92701,
    "longitude": 26.89991
  },
  {
    "city": "Zibergova",
    "city_zh": "Zibergova",
    "country": "Latvia",
    "country_zh": "拉脫維亞",
    "country_iso_code": "LV",
    "timezone": "Europe/Riga",
    "latitude": 56.26428,
    "longitude": 26.5944
  },
  {
    "city": "Zjazuļova",
    "city_zh": "Zjazuļova",
    "country": "Latvia",
    "country_zh": "拉脫維亞",
    "country_iso_code": "LV",
    "timezone": "Europe/Riga",
    "latitude": 56.06451,
    "longitude": 27.80782
  },
  {
    "city": "Žierkļi",
    "city_zh": "Žierkļi",
    "country": "Latvia",
    "country_zh": "拉脫維亞",
    "country_iso_code": "LV",
    "timezone": "Europe/Riga",
    "latitude": 56.21154,
    "longitude": 27.21606
  },
  {
    "city": "Zepi",
    "city_zh": "Zepi",
    "country": "Latvia",
    "country_zh": "拉脫維亞",
    "country_iso_code": "LV",
    "timezone": "Europe/Riga",
    "latitude": 56.40592,
    "longitude": 26.18463
  },
  {
    "city": "Zentene",
    "city_zh": "Zentene",
    "country": "Latvia",
    "country_zh": "拉脫維亞",
    "country_iso_code": "LV",
    "timezone": "Europe/Riga",
    "latitude": 57.13454,
    "longitude": 22.9764
  },
  {
    "city": "Zēniņi",
    "city_zh": "Zēniņi",
    "country": "Latvia",
    "country_zh": "拉脫維亞",
    "country_iso_code": "LV",
    "timezone": "Europe/Riga",
    "latitude": 57.05556,
    "longitude": 25.85834
  },
  {
    "city": "Zemītes",
    "city_zh": "Zemītes",
    "country": "Latvia",
    "country_zh": "拉脫維亞",
    "country_iso_code": "LV",
    "timezone": "Europe/Riga",
    "latitude": 57.14988,
    "longitude": 26.52254
  },
  {
    "city": "Zemīte",
    "city_zh": "Zemīte",
    "country": "Latvia",
    "country_zh": "拉脫維亞",
    "country_iso_code": "LV",
    "timezone": "Europe/Riga",
    "latitude": 56.92832,
    "longitude": 22.79394
  },
  {
    "city": "Kalnieši",
    "city_zh": "Kalnieši",
    "country": "Latvia",
    "country_zh": "拉脫維亞",
    "country_iso_code": "LV",
    "timezone": "Europe/Riga",
    "latitude": 56.20139,
    "longitude": 25.66059
  },
  {
    "city": "Zemgale",
    "city_zh": "Zemgale",
    "country": "Latvia",
    "country_zh": "拉脫維亞",
    "country_iso_code": "LV",
    "timezone": "Europe/Riga",
    "latitude": 56.58318,
    "longitude": 23.55283
  },
  {
    "city": "Zemgale",
    "city_zh": "Zemgale",
    "country": "Latvia",
    "country_zh": "拉脫維亞",
    "country_iso_code": "LV",
    "timezone": "Europe/Riga",
    "latitude": 55.71477,
    "longitude": 26.47026
  },
  {
    "city": "Želvi",
    "city_zh": "Želvi",
    "country": "Latvia",
    "country_zh": "拉脫維亞",
    "country_iso_code": "LV",
    "timezone": "Europe/Riga",
    "latitude": 56.21782,
    "longitude": 26.73936
  },
  {
    "city": "Zeltiņi",
    "city_zh": "Zeltiņi",
    "country": "Latvia",
    "country_zh": "拉脫維亞",
    "country_iso_code": "LV",
    "timezone": "Europe/Riga",
    "latitude": 57.45689,
    "longitude": 26.00026
  },
  {
    "city": "Zeltiņi",
    "city_zh": "Zeltiņi",
    "country": "Latvia",
    "country_zh": "拉脫維亞",
    "country_iso_code": "LV",
    "timezone": "Europe/Riga",
    "latitude": 57.35903,
    "longitude": 26.77711
  },
  {
    "city": "Zeltiņi",
    "city_zh": "Zeltiņi",
    "country": "Latvia",
    "country_zh": "拉脫維亞",
    "country_iso_code": "LV",
    "timezone": "Europe/Riga",
    "latitude": 56.88403,
    "longitude": 24.37438
  },
  {
    "city": "Zeltiņi",
    "city_zh": "Zeltiņi",
    "country": "Latvia",
    "country_zh": "拉脫維亞",
    "country_iso_code": "LV",
    "timezone": "Europe/Riga",
    "latitude": 56.55446,
    "longitude": 27.28449
  },
  {
    "city": "Zeltiņi",
    "city_zh": "Zeltiņi",
    "country": "Latvia",
    "country_zh": "拉脫維亞",
    "country_iso_code": "LV",
    "timezone": "Europe/Riga",
    "latitude": 56.54841,
    "longitude": 27.89007
  },
  {
    "city": "Zeltaleja",
    "city_zh": "Zeltaleja",
    "country": "Latvia",
    "country_zh": "拉脫維亞",
    "country_iso_code": "LV",
    "timezone": "Europe/Riga",
    "latitude": 57.18683,
    "longitude": 26.85831
  },
  {
    "city": "Zelmeņi",
    "city_zh": "Zelmeņi",
    "country": "Latvia",
    "country_zh": "拉脫維亞",
    "country_iso_code": "LV",
    "timezone": "Europe/Riga",
    "latitude": 56.45167,
    "longitude": 23.35194
  },
  {
    "city": "Zelkalis",
    "city_zh": "Zelkalis",
    "country": "Latvia",
    "country_zh": "拉脫維亞",
    "country_iso_code": "LV",
    "timezone": "Europe/Riga",
    "latitude": 57.23333,
    "longitude": 25.60007
  },
  {
    "city": "Zelgauska",
    "city_zh": "Zelgauska",
    "country": "Latvia",
    "country_zh": "拉脫維亞",
    "country_iso_code": "LV",
    "timezone": "Europe/Riga",
    "latitude": 56.86209,
    "longitude": 26.11339
  },
  {
    "city": "Železnieki",
    "city_zh": "Železnieki",
    "country": "Latvia",
    "country_zh": "拉脫維亞",
    "country_iso_code": "LV",
    "timezone": "Europe/Riga",
    "latitude": 56.46097,
    "longitude": 27.66663
  },
  {
    "city": "Zeļļi",
    "city_zh": "Zeļļi",
    "country": "Latvia",
    "country_zh": "拉脫維亞",
    "country_iso_code": "LV",
    "timezone": "Europe/Riga",
    "latitude": 56.05749,
    "longitude": 27.52979
  },
  {
    "city": "Zelenpole",
    "city_zh": "Zelenpole",
    "country": "Latvia",
    "country_zh": "拉脫維亞",
    "country_iso_code": "LV",
    "timezone": "Europe/Riga",
    "latitude": 56.26197,
    "longitude": 27.50173
  },
  {
    "city": "Zeļčeva",
    "city_zh": "Zeļčeva",
    "country": "Latvia",
    "country_zh": "拉脫維亞",
    "country_iso_code": "LV",
    "timezone": "Europe/Riga",
    "latitude": 56.52731,
    "longitude": 27.51569
  },
  {
    "city": "Zeiļova",
    "city_zh": "Zeiļova",
    "country": "Latvia",
    "country_zh": "拉脫維亞",
    "country_iso_code": "LV",
    "timezone": "Europe/Riga",
    "latitude": 56.18522,
    "longitude": 27.96078
  },
  {
    "city": "Zeikari",
    "city_zh": "Zeikari",
    "country": "Latvia",
    "country_zh": "拉脫維亞",
    "country_iso_code": "LV",
    "timezone": "Europe/Riga",
    "latitude": 57.08408,
    "longitude": 25.73985
  },
  {
    "city": "Zebrene",
    "city_zh": "Zebrene",
    "country": "Latvia",
    "country_zh": "拉脫維亞",
    "country_iso_code": "LV",
    "timezone": "Europe/Riga",
    "latitude": 56.60373,
    "longitude": 22.88383
  },
  {
    "city": "Zebras muiža",
    "city_zh": "Zebras muiža",
    "country": "Latvia",
    "country_zh": "拉脫維亞",
    "country_iso_code": "LV",
    "timezone": "Europe/Riga",
    "latitude": 56.6475,
    "longitude": 23.03583
  },
  {
    "city": "Zaube",
    "city_zh": "Zaube",
    "country": "Latvia",
    "country_zh": "拉脫維亞",
    "country_iso_code": "LV",
    "timezone": "Europe/Riga",
    "latitude": 56.99331,
    "longitude": 25.2608
  },
  {
    "city": "Zaube",
    "city_zh": "Zaube",
    "country": "Latvia",
    "country_zh": "拉脫維亞",
    "country_iso_code": "LV",
    "timezone": "Europe/Riga",
    "latitude": 56.99571,
    "longitude": 25.26181
  },
  {
    "city": "Zatiški",
    "city_zh": "Zatiški",
    "country": "Latvia",
    "country_zh": "拉脫維亞",
    "country_iso_code": "LV",
    "timezone": "Europe/Riga",
    "latitude": 56.82216,
    "longitude": 27.53242
  },
  {
    "city": "Zastjenki",
    "city_zh": "Zastjenki",
    "country": "Latvia",
    "country_zh": "拉脫維亞",
    "country_iso_code": "LV",
    "timezone": "Europe/Riga",
    "latitude": 55.95031,
    "longitude": 26.70244
  },
  {
    "city": "Zastinski",
    "city_zh": "Zastinski",
    "country": "Latvia",
    "country_zh": "拉脫維亞",
    "country_iso_code": "LV",
    "timezone": "Europe/Riga",
    "latitude": 56.75573,
    "longitude": 27.72347
  },
  {
    "city": "Zasa",
    "city_zh": "Zasa",
    "country": "Latvia",
    "country_zh": "拉脫維亞",
    "country_iso_code": "LV",
    "timezone": "Europe/Riga",
    "latitude": 56.29263,
    "longitude": 25.98164
  },
  {
    "city": "Zarinki",
    "city_zh": "Zarinki",
    "country": "Latvia",
    "country_zh": "拉脫維亞",
    "country_iso_code": "LV",
    "timezone": "Europe/Riga",
    "latitude": 56.07965,
    "longitude": 26.1999
  },
  {
    "city": "Zariņi",
    "city_zh": "Zariņi",
    "country": "Latvia",
    "country_zh": "拉脫維亞",
    "country_iso_code": "LV",
    "timezone": "Europe/Riga",
    "latitude": 56.3493,
    "longitude": 26.69033
  },
  {
    "city": "Trūpi",
    "city_zh": "Trūpi",
    "country": "Latvia",
    "country_zh": "拉脫維亞",
    "country_iso_code": "LV",
    "timezone": "Europe/Riga",
    "latitude": 56.74289,
    "longitude": 27.80024
  },
  {
    "city": "Zante",
    "city_zh": "Zante",
    "country": "Latvia",
    "country_zh": "拉脫維亞",
    "country_iso_code": "LV",
    "timezone": "Europe/Riga",
    "latitude": 56.83743,
    "longitude": 22.73825
  },
  {
    "city": "Zānāni",
    "city_zh": "Zānāni",
    "country": "Latvia",
    "country_zh": "拉脫維亞",
    "country_iso_code": "LV",
    "timezone": "Europe/Riga",
    "latitude": 56.31485,
    "longitude": 25.95542
  },
  {
    "city": "Zaņas Muiža",
    "city_zh": "Zaņas Muiža",
    "country": "Latvia",
    "country_zh": "拉脫維亞",
    "country_iso_code": "LV",
    "timezone": "Europe/Riga",
    "latitude": 56.47849,
    "longitude": 22.14557
  },
  {
    "city": "Zamšoviki",
    "city_zh": "Zamšoviki",
    "country": "Latvia",
    "country_zh": "拉脫維亞",
    "country_iso_code": "LV",
    "timezone": "Europe/Riga",
    "latitude": 56.15958,
    "longitude": 27.97377
  },
  {
    "city": "Šahmovka",
    "city_zh": "Šahmovka",
    "country": "Latvia",
    "country_zh": "拉脫維亞",
    "country_iso_code": "LV",
    "timezone": "Europe/Riga",
    "latitude": 56.34877,
    "longitude": 27.05826
  },
  {
    "city": "Zameži",
    "city_zh": "Zameži",
    "country": "Latvia",
    "country_zh": "拉脫維亞",
    "country_iso_code": "LV",
    "timezone": "Europe/Riga",
    "latitude": 56.44464,
    "longitude": 26.92139
  },
  {
    "city": "Zalve",
    "city_zh": "Zalve",
    "country": "Latvia",
    "country_zh": "拉脫維亞",
    "country_iso_code": "LV",
    "timezone": "Europe/Riga",
    "latitude": 56.32656,
    "longitude": 25.24675
  },
  {
    "city": "Zaļumi",
    "city_zh": "Zaļumi",
    "country": "Latvia",
    "country_zh": "拉脫維亞",
    "country_iso_code": "LV",
    "timezone": "Europe/Riga",
    "latitude": 55.99038,
    "longitude": 26.62616
  },
  {
    "city": "Zaļűkšņi",
    "city_zh": "Zaļűkšņi",
    "country": "Latvia",
    "country_zh": "拉脫維亞",
    "country_iso_code": "LV",
    "timezone": "Europe/Riga",
    "latitude": 56.6982,
    "longitude": 27.44059
  },
  {
    "city": "Zaļmuiža",
    "city_zh": "Zaļmuiža",
    "country": "Latvia",
    "country_zh": "拉脫維亞",
    "country_iso_code": "LV",
    "timezone": "Europe/Riga",
    "latitude": 56.73441,
    "longitude": 27.38617
  },
  {
    "city": "Zaļmežnieki",
    "city_zh": "Zaļmežnieki",
    "country": "Latvia",
    "country_zh": "拉脫維亞",
    "country_iso_code": "LV",
    "timezone": "Europe/Riga",
    "latitude": 57.18104,
    "longitude": 27.38594
  },
  {
    "city": "Zaļmežnieki",
    "city_zh": "Zaļmežnieki",
    "country": "Latvia",
    "country_zh": "拉脫維亞",
    "country_iso_code": "LV",
    "timezone": "Europe/Riga",
    "latitude": 56.756,
    "longitude": 26.58099
  },
  {
    "city": "Zālīte",
    "city_zh": "Zālīte",
    "country": "Latvia",
    "country_zh": "拉脫維亞",
    "country_iso_code": "LV",
    "timezone": "Europe/Riga",
    "latitude": 56.61729,
    "longitude": 24.08257
  },
  {
    "city": "Zaļesje",
    "city_zh": "Zaļesje",
    "country": "Latvia",
    "country_zh": "拉脫維亞",
    "country_iso_code": "LV",
    "timezone": "Europe/Riga",
    "latitude": 56.33752,
    "longitude": 28.14096
  },
  {
    "city": "Zaļenieki",
    "city_zh": "Zaļenieki",
    "country": "Latvia",
    "country_zh": "拉脫維亞",
    "country_iso_code": "LV",
    "timezone": "Europe/Riga",
    "latitude": 56.52659,
    "longitude": 23.50805
  },
  {
    "city": "Zalāni",
    "city_zh": "Zalāni",
    "country": "Latvia",
    "country_zh": "拉脫維亞",
    "country_iso_code": "LV",
    "timezone": "Europe/Riga",
    "latitude": 56.58004,
    "longitude": 26.40146
  },
  {
    "city": "Zalaki",
    "city_zh": "Zalaki",
    "country": "Latvia",
    "country_zh": "拉脫維亞",
    "country_iso_code": "LV",
    "timezone": "Europe/Riga",
    "latitude": 56.41407,
    "longitude": 25.37725
  },
  {
    "city": "Zaļaci",
    "city_zh": "Zaļaci",
    "country": "Latvia",
    "country_zh": "拉脫維亞",
    "country_iso_code": "LV",
    "timezone": "Europe/Riga",
    "latitude": 56.57856,
    "longitude": 26.04424
  },
  {
    "city": "Zaķīši",
    "city_zh": "Zaķīši",
    "country": "Latvia",
    "country_zh": "拉脫維亞",
    "country_iso_code": "LV",
    "timezone": "Europe/Riga",
    "latitude": 56.19508,
    "longitude": 26.65691
  },
  {
    "city": "Zaķi",
    "city_zh": "Zaķi",
    "country": "Latvia",
    "country_zh": "拉脫維亞",
    "country_iso_code": "LV",
    "timezone": "Europe/Riga",
    "latitude": 57.57036,
    "longitude": 26.2429
  },
  {
    "city": "Zaķi",
    "city_zh": "Zaķi",
    "country": "Latvia",
    "country_zh": "拉脫維亞",
    "country_iso_code": "LV",
    "timezone": "Europe/Riga",
    "latitude": 57.50094,
    "longitude": 24.42665
  },
  {
    "city": "Zaķumuiža",
    "city_zh": "Zaķumuiža",
    "country": "Latvia",
    "country_zh": "拉脫維亞",
    "country_iso_code": "LV",
    "timezone": "Europe/Riga",
    "latitude": 56.97033,
    "longitude": 24.47894
  },
  {
    "city": "Zaiceva",
    "city_zh": "Zaiceva",
    "country": "Latvia",
    "country_zh": "拉脫維亞",
    "country_iso_code": "LV",
    "timezone": "Europe/Riga",
    "latitude": 57.46633,
    "longitude": 27.4387
  },
  {
    "city": "Zahari",
    "city_zh": "Zahari",
    "country": "Latvia",
    "country_zh": "拉脫維亞",
    "country_iso_code": "LV",
    "timezone": "Europe/Riga",
    "latitude": 56.74166,
    "longitude": 27.88073
  },
  {
    "city": "Zāģernieki",
    "city_zh": "Zāģernieki",
    "country": "Latvia",
    "country_zh": "拉脫維亞",
    "country_iso_code": "LV",
    "timezone": "Europe/Riga",
    "latitude": 57.23117,
    "longitude": 27.0597
  },
  {
    "city": "Žagatnieki",
    "city_zh": "Žagatnieki",
    "country": "Latvia",
    "country_zh": "拉脫維亞",
    "country_iso_code": "LV",
    "timezone": "Europe/Riga",
    "latitude": 57.43333,
    "longitude": 21.76667
  },
  {
    "city": "Žagatas",
    "city_zh": "Žagatas",
    "country": "Latvia",
    "country_zh": "拉脫維亞",
    "country_iso_code": "LV",
    "timezone": "Europe/Riga",
    "latitude": 56.68174,
    "longitude": 27.01959
  },
  {
    "city": "Zagarje",
    "city_zh": "Zagarje",
    "country": "Latvia",
    "country_zh": "拉脫維亞",
    "country_iso_code": "LV",
    "timezone": "Europe/Riga",
    "latitude": 56.43322,
    "longitude": 26.81525
  },
  {
    "city": "Pieškalni",
    "city_zh": "Pieškalni",
    "country": "Latvia",
    "country_zh": "拉脫維亞",
    "country_iso_code": "LV",
    "timezone": "Europe/Riga",
    "latitude": 57.35585,
    "longitude": 25.26294
  },
  {
    "city": "Zādzene",
    "city_zh": "Zādzene",
    "country": "Latvia",
    "country_zh": "拉脫維亞",
    "country_iso_code": "LV",
    "timezone": "Europe/Riga",
    "latitude": 56.79593,
    "longitude": 25.1155
  },
  {
    "city": "Zaharova",
    "city_zh": "Zaharova",
    "country": "Latvia",
    "country_zh": "拉脫維亞",
    "country_iso_code": "LV",
    "timezone": "Europe/Riga",
    "latitude": 55.9852,
    "longitude": 27.6849
  },
  {
    "city": "Zaborje",
    "city_zh": "Zaborje",
    "country": "Latvia",
    "country_zh": "拉脫維亞",
    "country_iso_code": "LV",
    "timezone": "Europe/Riga",
    "latitude": 56.17925,
    "longitude": 28.13338
  },
  {
    "city": "Zabolova",
    "city_zh": "Zabolova",
    "country": "Latvia",
    "country_zh": "拉脫維亞",
    "country_iso_code": "LV",
    "timezone": "Europe/Riga",
    "latitude": 57.5307,
    "longitude": 27.47621
  },
  {
    "city": "Zabolotje",
    "city_zh": "Zabolotje",
    "country": "Latvia",
    "country_zh": "拉脫維亞",
    "country_iso_code": "LV",
    "timezone": "Europe/Riga",
    "latitude": 56.43716,
    "longitude": 27.0056
  },
  {
    "city": "Zabolocki",
    "city_zh": "Zabolocki",
    "country": "Latvia",
    "country_zh": "拉脫維亞",
    "country_iso_code": "LV",
    "timezone": "Europe/Riga",
    "latitude": 56.40966,
    "longitude": 28.08303
  },
  {
    "city": "Zablūdnīki",
    "city_zh": "Zablūdnīki",
    "country": "Latvia",
    "country_zh": "拉脫維亞",
    "country_iso_code": "LV",
    "timezone": "Europe/Riga",
    "latitude": 56.22807,
    "longitude": 26.47546
  },
  {
    "city": "Žabi",
    "city_zh": "Žabi",
    "country": "Latvia",
    "country_zh": "拉脫維亞",
    "country_iso_code": "LV",
    "timezone": "Europe/Riga",
    "latitude": 57.11667,
    "longitude": 21.51667
  },
  {
    "city": "Zabalotje",
    "city_zh": "Zabalotje",
    "country": "Latvia",
    "country_zh": "拉脫維亞",
    "country_iso_code": "LV",
    "timezone": "Europe/Riga",
    "latitude": 56.53999,
    "longitude": 27.48711
  },
  {
    "city": "Vutnēni",
    "city_zh": "Vutnēni",
    "country": "Latvia",
    "country_zh": "拉脫維亞",
    "country_iso_code": "LV",
    "timezone": "Europe/Riga",
    "latitude": 56.54832,
    "longitude": 26.67369
  },
  {
    "city": "Vucini",
    "city_zh": "Vucini",
    "country": "Latvia",
    "country_zh": "拉脫維亞",
    "country_iso_code": "LV",
    "timezone": "Europe/Riga",
    "latitude": 56.32158,
    "longitude": 26.2048
  },
  {
    "city": "Voveri",
    "city_zh": "Voveri",
    "country": "Latvia",
    "country_zh": "拉脫維亞",
    "country_iso_code": "LV",
    "timezone": "Europe/Riga",
    "latitude": 56.63916,
    "longitude": 27.49298
  },
  {
    "city": "Orņevka",
    "city_zh": "Orņevka",
    "country": "Latvia",
    "country_zh": "拉脫維亞",
    "country_iso_code": "LV",
    "timezone": "Europe/Riga",
    "latitude": 56.3543,
    "longitude": 26.97883
  },
  {
    "city": "Vorkaļi",
    "city_zh": "Vorkaļi",
    "country": "Latvia",
    "country_zh": "拉脫維亞",
    "country_iso_code": "LV",
    "timezone": "Europe/Riga",
    "latitude": 56.41219,
    "longitude": 27.71594
  },
  {
    "city": "Vonogi",
    "city_zh": "Vonogi",
    "country": "Latvia",
    "country_zh": "拉脫維亞",
    "country_iso_code": "LV",
    "timezone": "Europe/Riga",
    "latitude": 56.20075,
    "longitude": 27.86756
  },
  {
    "city": "Volkova",
    "city_zh": "Volkova",
    "country": "Latvia",
    "country_zh": "拉脫維亞",
    "country_iso_code": "LV",
    "timezone": "Europe/Riga",
    "latitude": 57.50589,
    "longitude": 27.22612
  },
  {
    "city": "Volkarezi",
    "city_zh": "Volkarezi",
    "country": "Latvia",
    "country_zh": "拉脫維亞",
    "country_iso_code": "LV",
    "timezone": "Europe/Riga",
    "latitude": 56.19904,
    "longitude": 27.96639
  },
  {
    "city": "Daumanti",
    "city_zh": "Daumanti",
    "country": "Latvia",
    "country_zh": "拉脫維亞",
    "country_iso_code": "LV",
    "timezone": "Europe/Riga",
    "latitude": 56.39277,
    "longitude": 23.69704
  },
  {
    "city": "Voiti",
    "city_zh": "Voiti",
    "country": "Latvia",
    "country_zh": "拉脫維亞",
    "country_iso_code": "LV",
    "timezone": "Europe/Riga",
    "latitude": 56.56104,
    "longitude": 27.85486
  },
  {
    "city": "Vocīši",
    "city_zh": "Vocīši",
    "country": "Latvia",
    "country_zh": "拉脫維亞",
    "country_iso_code": "LV",
    "timezone": "Europe/Riga",
    "latitude": 56.25478,
    "longitude": 27.18395
  },
  {
    "city": "Vizla",
    "city_zh": "Vizla",
    "country": "Latvia",
    "country_zh": "拉脫維亞",
    "country_iso_code": "LV",
    "timezone": "Europe/Riga",
    "latitude": 57.4247,
    "longitude": 26.28148
  },
  {
    "city": "Vilzēni",
    "city_zh": "Vilzēni",
    "country": "Latvia",
    "country_zh": "拉脫維亞",
    "country_iso_code": "LV",
    "timezone": "Europe/Riga",
    "latitude": 57.72063,
    "longitude": 25.0162
  },
  {
    "city": "Vitrupe",
    "city_zh": "Vitrupe",
    "country": "Latvia",
    "country_zh": "拉脫維亞",
    "country_iso_code": "LV",
    "timezone": "Europe/Riga",
    "latitude": 57.59555,
    "longitude": 24.51903
  },
  {
    "city": "Vītoliņi",
    "city_zh": "Vītoliņi",
    "country": "Latvia",
    "country_zh": "拉脫維亞",
    "country_iso_code": "LV",
    "timezone": "Europe/Riga",
    "latitude": 56.70085,
    "longitude": 23.7007
  },
  {
    "city": "Vītoli",
    "city_zh": "Vītoli",
    "country": "Latvia",
    "country_zh": "拉脫維亞",
    "country_iso_code": "LV",
    "timezone": "Europe/Riga",
    "latitude": 56.91667,
    "longitude": 21.65
  },
  {
    "city": "Vītoli",
    "city_zh": "Vītoli",
    "country": "Latvia",
    "country_zh": "拉脫維亞",
    "country_iso_code": "LV",
    "timezone": "Europe/Riga",
    "latitude": 56.3,
    "longitude": 23.1
  },
  {
    "city": "Vitkuški",
    "city_zh": "Vitkuški",
    "country": "Latvia",
    "country_zh": "拉脫維亞",
    "country_iso_code": "LV",
    "timezone": "Europe/Riga",
    "latitude": 55.9616,
    "longitude": 26.05202
  },
  {
    "city": "Vitiņi",
    "city_zh": "Vitiņi",
    "country": "Latvia",
    "country_zh": "拉脫維亞",
    "country_iso_code": "LV",
    "timezone": "Europe/Riga",
    "latitude": 56.49406,
    "longitude": 21.10263
  },
  {
    "city": "Vītiņi",
    "city_zh": "Vītiņi",
    "country": "Latvia",
    "country_zh": "拉脫維亞",
    "country_iso_code": "LV",
    "timezone": "Europe/Riga",
    "latitude": 56.44314,
    "longitude": 22.918
  },
  {
    "city": "Viteikas",
    "city_zh": "Viteikas",
    "country": "Latvia",
    "country_zh": "拉脫維亞",
    "country_iso_code": "LV",
    "timezone": "Europe/Riga",
    "latitude": 56.29421,
    "longitude": 24.08925
  },
  {
    "city": "Vite",
    "city_zh": "Vite",
    "country": "Latvia",
    "country_zh": "拉脫維亞",
    "country_iso_code": "LV",
    "timezone": "Europe/Riga",
    "latitude": 56.96325,
    "longitude": 24.98328
  },
  {
    "city": "Vistusala",
    "city_zh": "Vistusala",
    "country": "Latvia",
    "country_zh": "拉脫維亞",
    "country_iso_code": "LV",
    "timezone": "Europe/Riga",
    "latitude": 57.15701,
    "longitude": 27.40754
  },
  {
    "city": "Rembate",
    "city_zh": "Rembate",
    "country": "Latvia",
    "country_zh": "拉脫維亞",
    "country_iso_code": "LV",
    "timezone": "Europe/Riga",
    "latitude": 56.75612,
    "longitude": 24.78162
  },
  {
    "city": "Višļi",
    "city_zh": "Višļi",
    "country": "Latvia",
    "country_zh": "拉脫維亞",
    "country_iso_code": "LV",
    "timezone": "Europe/Riga",
    "latitude": 57.00786,
    "longitude": 22.48841
  },
  {
    "city": "Viškuļi",
    "city_zh": "Viškuļi",
    "country": "Latvia",
    "country_zh": "拉脫維亞",
    "country_iso_code": "LV",
    "timezone": "Europe/Riga",
    "latitude": 56.81805,
    "longitude": 27.1326
  },
  {
    "city": "Višķi",
    "city_zh": "Višķi",
    "country": "Latvia",
    "country_zh": "拉脫維亞",
    "country_iso_code": "LV",
    "timezone": "Europe/Riga",
    "latitude": 57.5443,
    "longitude": 25.80199
  },
  {
    "city": "Višķi",
    "city_zh": "Višķi",
    "country": "Latvia",
    "country_zh": "拉脫維亞",
    "country_iso_code": "LV",
    "timezone": "Europe/Riga",
    "latitude": 56.05344,
    "longitude": 26.78321
  },
  {
    "city": "Višķeri",
    "city_zh": "Višķeri",
    "country": "Latvia",
    "country_zh": "拉脫維亞",
    "country_iso_code": "LV",
    "timezone": "Europe/Riga",
    "latitude": 56.3527,
    "longitude": 27.33845
  },
  {
    "city": "Viškeri",
    "city_zh": "Viškeri",
    "country": "Latvia",
    "country_zh": "拉脫維亞",
    "country_iso_code": "LV",
    "timezone": "Europe/Riga",
    "latitude": 56.34078,
    "longitude": 27.2093
  },
  {
    "city": "Viskalni",
    "city_zh": "Viskalni",
    "country": "Latvia",
    "country_zh": "拉脫維亞",
    "country_iso_code": "LV",
    "timezone": "Europe/Riga",
    "latitude": 57.76667,
    "longitude": 24.53333
  },
  {
    "city": "Viskāļi",
    "city_zh": "Viskāļi",
    "country": "Latvia",
    "country_zh": "拉脫維亞",
    "country_iso_code": "LV",
    "timezone": "Europe/Riga",
    "latitude": 56.67789,
    "longitude": 25.30345
  },
  {
    "city": "Visikums",
    "city_zh": "Visikums",
    "country": "Latvia",
    "country_zh": "拉脫維亞",
    "country_iso_code": "LV",
    "timezone": "Europe/Riga",
    "latitude": 57.45134,
    "longitude": 27.25856
  },
  {
    "city": "Viši",
    "city_zh": "Viši",
    "country": "Latvia",
    "country_zh": "拉脫維亞",
    "country_iso_code": "LV",
    "timezone": "Europe/Riga",
    "latitude": 56.38881,
    "longitude": 27.5663
  },
  {
    "city": "Viselova",
    "city_zh": "Viselova",
    "country": "Latvia",
    "country_zh": "拉脫維亞",
    "country_iso_code": "LV",
    "timezone": "Europe/Riga",
    "latitude": 55.99366,
    "longitude": 26.80225
  },
  {
    "city": "Virziķi",
    "city_zh": "Virziķi",
    "country": "Latvia",
    "country_zh": "拉脫維亞",
    "country_iso_code": "LV",
    "timezone": "Europe/Riga",
    "latitude": 57.24441,
    "longitude": 21.6234
  },
  {
    "city": "Viršņukalns",
    "city_zh": "Viršņukalns",
    "country": "Latvia",
    "country_zh": "拉脫維亞",
    "country_iso_code": "LV",
    "timezone": "Europe/Riga",
    "latitude": 56.88258,
    "longitude": 24.98385
  },
  {
    "city": "Virsīte",
    "city_zh": "Virsīte",
    "country": "Latvia",
    "country_zh": "拉脫維亞",
    "country_iso_code": "LV",
    "timezone": "Europe/Riga",
    "latitude": 56.34552,
    "longitude": 23.91415
  },
  {
    "city": "Virpe",
    "city_zh": "Virpe",
    "country": "Latvia",
    "country_zh": "拉脫維亞",
    "country_iso_code": "LV",
    "timezone": "Europe/Riga",
    "latitude": 57.47369,
    "longitude": 22.01725
  },
  {
    "city": "Virķēni",
    "city_zh": "Virķēni",
    "country": "Latvia",
    "country_zh": "拉脫維亞",
    "country_iso_code": "LV",
    "timezone": "Europe/Riga",
    "latitude": 57.91954,
    "longitude": 25.25293
  },
  {
    "city": "Virga",
    "city_zh": "Virga",
    "country": "Latvia",
    "country_zh": "拉脫維亞",
    "country_iso_code": "LV",
    "timezone": "Europe/Riga",
    "latitude": 56.47671,
    "longitude": 21.41802
  },
  {
    "city": "Vireši",
    "city_zh": "Vireši",
    "country": "Latvia",
    "country_zh": "拉脫維亞",
    "country_iso_code": "LV",
    "timezone": "Europe/Riga",
    "latitude": 57.45465,
    "longitude": 26.36753
  },
  {
    "city": "Virdzes",
    "city_zh": "Virdzes",
    "country": "Latvia",
    "country_zh": "拉脫維亞",
    "country_iso_code": "LV",
    "timezone": "Europe/Riga",
    "latitude": 56.93065,
    "longitude": 25.93078
  },
  {
    "city": "Vircava",
    "city_zh": "Vircava",
    "country": "Latvia",
    "country_zh": "拉脫維亞",
    "country_iso_code": "LV",
    "timezone": "Europe/Riga",
    "latitude": 56.55876,
    "longitude": 23.77255
  },
  {
    "city": "Virāne",
    "city_zh": "Virāne",
    "country": "Latvia",
    "country_zh": "拉脫維亞",
    "country_iso_code": "LV",
    "timezone": "Europe/Riga",
    "latitude": 57.04671,
    "longitude": 26.38071
  },
  {
    "city": "Vipulka",
    "city_zh": "Vipulka",
    "country": "Latvia",
    "country_zh": "拉脫維亞",
    "country_iso_code": "LV",
    "timezone": "Europe/Riga",
    "latitude": 57.95,
    "longitude": 25.23333
  },
  {
    "city": "Vīpe",
    "city_zh": "Vīpe",
    "country": "Latvia",
    "country_zh": "拉脫維亞",
    "country_iso_code": "LV",
    "timezone": "Europe/Riga",
    "latitude": 56.4659,
    "longitude": 26.09013
  },
  {
    "city": "Viņķi",
    "city_zh": "Viņķi",
    "country": "Latvia",
    "country_zh": "拉脫維亞",
    "country_iso_code": "LV",
    "timezone": "Europe/Riga",
    "latitude": 57.14958,
    "longitude": 26.07121
  },
  {
    "city": "Vindraži",
    "city_zh": "Vindraži",
    "country": "Latvia",
    "country_zh": "拉脫維亞",
    "country_iso_code": "LV",
    "timezone": "Europe/Riga",
    "latitude": 56.55605,
    "longitude": 28.10845
  },
  {
    "city": "Vindedži",
    "city_zh": "Vindedži",
    "country": "Latvia",
    "country_zh": "拉脫維亞",
    "country_iso_code": "LV",
    "timezone": "Europe/Riga",
    "latitude": 56.38333,
    "longitude": 24.95
  },
  {
    "city": "Vilzēnmuiža",
    "city_zh": "Vilzēnmuiža",
    "country": "Latvia",
    "country_zh": "拉脫維亞",
    "country_iso_code": "LV",
    "timezone": "Europe/Riga",
    "latitude": 57.70248,
    "longitude": 25.00649
  },
  {
    "city": "Viļaka",
    "city_zh": "Viļaka",
    "country": "Latvia",
    "country_zh": "拉脫維亞",
    "country_iso_code": "LV",
    "timezone": "Europe/Riga",
    "latitude": 57.18458,
    "longitude": 27.6722
  },
  {
    "city": "Viluši",
    "city_zh": "Viluši",
    "country": "Latvia",
    "country_zh": "拉脫維亞",
    "country_iso_code": "LV",
    "timezone": "Europe/Riga",
    "latitude": 55.92906,
    "longitude": 26.69927
  },
  {
    "city": "Viļums",
    "city_zh": "Viļums",
    "country": "Latvia",
    "country_zh": "拉脫維亞",
    "country_iso_code": "LV",
    "timezone": "Europe/Riga",
    "latitude": 57.04363,
    "longitude": 25.17871
  },
  {
    "city": "Vilpulka",
    "city_zh": "Vilpulka",
    "country": "Latvia",
    "country_zh": "拉脫維亞",
    "country_iso_code": "LV",
    "timezone": "Europe/Riga",
    "latitude": 57.96496,
    "longitude": 25.23345
  },
  {
    "city": "Mundigciems",
    "city_zh": "Mundigciems",
    "country": "Latvia",
    "country_zh": "拉脫維亞",
    "country_iso_code": "LV",
    "timezone": "Europe/Riga",
    "latitude": 57.21619,
    "longitude": 22.59714
  },
  {
    "city": "Vilkupe",
    "city_zh": "Vilkupe",
    "country": "Latvia",
    "country_zh": "拉脫維亞",
    "country_iso_code": "LV",
    "timezone": "Europe/Riga",
    "latitude": 56.1324,
    "longitude": 25.82585
  },
  {
    "city": "Viļķene",
    "city_zh": "Viļķene",
    "country": "Latvia",
    "country_zh": "拉脫維亞",
    "country_iso_code": "LV",
    "timezone": "Europe/Riga",
    "latitude": 57.61121,
    "longitude": 24.61085
  },
  {
    "city": "Vilkova",
    "city_zh": "Vilkova",
    "country": "Latvia",
    "country_zh": "拉脫維亞",
    "country_iso_code": "LV",
    "timezone": "Europe/Riga",
    "latitude": 57.06823,
    "longitude": 27.59779
  },
  {
    "city": "Vilksala",
    "city_zh": "Vilksala",
    "country": "Latvia",
    "country_zh": "拉脫維亞",
    "country_iso_code": "LV",
    "timezone": "Europe/Riga",
    "latitude": 57.03208,
    "longitude": 23.01181
  },
  {
    "city": "Vilkarūcis",
    "city_zh": "Vilkarūcis",
    "country": "Latvia",
    "country_zh": "拉脫維亞",
    "country_iso_code": "LV",
    "timezone": "Europe/Riga",
    "latitude": 56.99357,
    "longitude": 27.30778
  },
  {
    "city": "Vilkāji",
    "city_zh": "Vilkāji",
    "country": "Latvia",
    "country_zh": "拉脫維亞",
    "country_iso_code": "LV",
    "timezone": "Europe/Riga",
    "latitude": 56.51348,
    "longitude": 26.28513
  },
  {
    "city": "Vilkāja",
    "city_zh": "Vilkāja",
    "country": "Latvia",
    "country_zh": "拉脫維亞",
    "country_iso_code": "LV",
    "timezone": "Europe/Riga",
    "latitude": 56.96791,
    "longitude": 23.09556
  },
  {
    "city": "Vildoga",
    "city_zh": "Vildoga",
    "country": "Latvia",
    "country_zh": "拉脫維亞",
    "country_iso_code": "LV",
    "timezone": "Europe/Riga",
    "latitude": 57.20139,
    "longitude": 24.98407
  },
  {
    "city": "Vilciņi",
    "city_zh": "Vilciņi",
    "country": "Latvia",
    "country_zh": "拉脫維亞",
    "country_iso_code": "LV",
    "timezone": "Europe/Riga",
    "latitude": 56.47603,
    "longitude": 26.03399
  },
  {
    "city": "Vilce",
    "city_zh": "Vilce",
    "country": "Latvia",
    "country_zh": "拉脫維亞",
    "country_iso_code": "LV",
    "timezone": "Europe/Riga",
    "latitude": 56.42032,
    "longitude": 23.54781
  },
  {
    "city": "Vilciņi",
    "city_zh": "Vilciņi",
    "country": "Latvia",
    "country_zh": "拉脫維亞",
    "country_iso_code": "LV",
    "timezone": "Europe/Riga",
    "latitude": 56.45928,
    "longitude": 26.6753
  },
  {
    "city": "Vilcāni",
    "city_zh": "Vilcāni",
    "country": "Latvia",
    "country_zh": "拉脫維亞",
    "country_iso_code": "LV",
    "timezone": "Europe/Riga",
    "latitude": 56.31117,
    "longitude": 26.37356
  },
  {
    "city": "Vilcāni",
    "city_zh": "Vilcāni",
    "country": "Latvia",
    "country_zh": "拉脫維亞",
    "country_iso_code": "LV",
    "timezone": "Europe/Riga",
    "latitude": 55.96028,
    "longitude": 26.24174
  },
  {
    "city": "Viļāni",
    "city_zh": "Viļāni",
    "country": "Latvia",
    "country_zh": "拉脫維亞",
    "country_iso_code": "LV",
    "timezone": "Europe/Riga",
    "latitude": 56.55253,
    "longitude": 26.92449
  },
  {
    "city": "Vīlande",
    "city_zh": "Vīlande",
    "country": "Latvia",
    "country_zh": "拉脫維亞",
    "country_iso_code": "LV",
    "timezone": "Europe/Riga",
    "latitude": 56.95736,
    "longitude": 27.2362
  },
  {
    "city": "Vīkšņi",
    "city_zh": "Vīkšņi",
    "country": "Latvia",
    "country_zh": "拉脫維亞",
    "country_iso_code": "LV",
    "timezone": "Europe/Riga",
    "latitude": 57.00747,
    "longitude": 26.87693
  },
  {
    "city": "Vīksna",
    "city_zh": "Vīksna",
    "country": "Latvia",
    "country_zh": "拉脫維亞",
    "country_iso_code": "LV",
    "timezone": "Europe/Riga",
    "latitude": 57.21494,
    "longitude": 27.32077
  },
  {
    "city": "Vīksele",
    "city_zh": "Vīksele",
    "country": "Latvia",
    "country_zh": "拉脫維亞",
    "country_iso_code": "LV",
    "timezone": "Europe/Riga",
    "latitude": 56.86802,
    "longitude": 23.31822
  },
  {
    "city": "Vīķi",
    "city_zh": "Vīķi",
    "country": "Latvia",
    "country_zh": "拉脫維亞",
    "country_iso_code": "LV",
    "timezone": "Europe/Riga",
    "latitude": 57.86224,
    "longitude": 24.80083
  },
  {
    "city": "Kalna Vikaiņi",
    "city_zh": "Kalna Vikaiņi",
    "country": "Latvia",
    "country_zh": "拉脫維亞",
    "country_iso_code": "LV",
    "timezone": "Europe/Riga",
    "latitude": 55.86755,
    "longitude": 27.2771
  },
  {
    "city": "Vijciems",
    "city_zh": "Vijciems",
    "country": "Latvia",
    "country_zh": "拉脫維亞",
    "country_iso_code": "LV",
    "timezone": "Europe/Riga",
    "latitude": 57.58605,
    "longitude": 25.95323
  },
  {
    "city": "Vigkale",
    "city_zh": "Vigkale",
    "country": "Latvia",
    "country_zh": "拉脫維亞",
    "country_iso_code": "LV",
    "timezone": "Europe/Riga",
    "latitude": 56.66667,
    "longitude": 25.36667
  },
  {
    "city": "Staburags",
    "city_zh": "Staburags",
    "country": "Latvia",
    "country_zh": "拉脫維亞",
    "country_iso_code": "LV",
    "timezone": "Europe/Riga",
    "latitude": 56.56977,
    "longitude": 25.49761
  },
  {
    "city": "Vīganti",
    "city_zh": "Vīganti",
    "country": "Latvia",
    "country_zh": "拉脫維亞",
    "country_iso_code": "LV",
    "timezone": "Europe/Riga",
    "latitude": 56.10975,
    "longitude": 26.83292
  },
  {
    "city": "Vigāle",
    "city_zh": "Vigāle",
    "country": "Latvia",
    "country_zh": "拉脫維亞",
    "country_iso_code": "LV",
    "timezone": "Europe/Riga",
    "latitude": 56.8834,
    "longitude": 21.82087
  },
  {
    "city": "Trimaļnīki",
    "city_zh": "Trimaļnīki",
    "country": "Latvia",
    "country_zh": "拉脫維亞",
    "country_iso_code": "LV",
    "timezone": "Europe/Riga",
    "latitude": 56.67889,
    "longitude": 27.30164
  },
  {
    "city": "Vietalva",
    "city_zh": "Vietalva",
    "country": "Latvia",
    "country_zh": "拉脫維亞",
    "country_iso_code": "LV",
    "timezone": "Europe/Riga",
    "latitude": 56.73695,
    "longitude": 25.7667
  },
  {
    "city": "Viestura Laukums",
    "city_zh": "Viestura Laukums",
    "country": "Latvia",
    "country_zh": "拉脫維亞",
    "country_iso_code": "LV",
    "timezone": "Europe/Riga",
    "latitude": 57.55121,
    "longitude": 25.4364
  },
  {
    "city": "Viesītes",
    "city_zh": "Viesītes",
    "country": "Latvia",
    "country_zh": "拉脫維亞",
    "country_iso_code": "LV",
    "timezone": "Europe/Riga",
    "latitude": 56.42576,
    "longitude": 25.22754
  },
  {
    "city": "Viesīte",
    "city_zh": "Viesīte",
    "country": "Latvia",
    "country_zh": "拉脫維亞",
    "country_iso_code": "LV",
    "timezone": "Europe/Riga",
    "latitude": 56.34751,
    "longitude": 25.55514
  },
  {
    "city": "Viesiena",
    "city_zh": "Viesiena",
    "country": "Latvia",
    "country_zh": "拉脫維亞",
    "country_iso_code": "LV",
    "timezone": "Europe/Riga",
    "latitude": 56.89342,
    "longitude": 26.03146
  },
  {
    "city": "Viesatas",
    "city_zh": "Viesatas",
    "country": "Latvia",
    "country_zh": "拉脫維亞",
    "country_iso_code": "LV",
    "timezone": "Europe/Riga",
    "latitude": 56.79555,
    "longitude": 22.85245
  },
  {
    "city": "Viesalgciems",
    "city_zh": "Viesalgciems",
    "country": "Latvia",
    "country_zh": "拉脫維亞",
    "country_iso_code": "LV",
    "timezone": "Europe/Riga",
    "latitude": 56.86308,
    "longitude": 22.03076
  },
  {
    "city": "Vienība",
    "city_zh": "Vienība",
    "country": "Latvia",
    "country_zh": "拉脫維亞",
    "country_iso_code": "LV",
    "timezone": "Europe/Riga",
    "latitude": 56.90219,
    "longitude": 23.12778
  },
  {
    "city": "Viekaži",
    "city_zh": "Viekaži",
    "country": "Latvia",
    "country_zh": "拉脫維亞",
    "country_iso_code": "LV",
    "timezone": "Europe/Riga",
    "latitude": 57.53606,
    "longitude": 24.71561
  },
  {
    "city": "Viecītes",
    "city_zh": "Viecītes",
    "country": "Latvia",
    "country_zh": "拉脫維亞",
    "country_iso_code": "LV",
    "timezone": "Europe/Riga",
    "latitude": 57.38638,
    "longitude": 22.03712
  },
  {
    "city": "Velbēni",
    "city_zh": "Velbēni",
    "country": "Latvia",
    "country_zh": "拉脫維亞",
    "country_iso_code": "LV",
    "timezone": "Europe/Riga",
    "latitude": 56.7,
    "longitude": 25.15
  },
  {
    "city": "Vidussola",
    "city_zh": "Vidussola",
    "country": "Latvia",
    "country_zh": "拉脫維亞",
    "country_iso_code": "LV",
    "timezone": "Europe/Riga",
    "latitude": 56.98517,
    "longitude": 27.08778
  },
  {
    "city": "Viduspoguļanka",
    "city_zh": "Viduspoguļanka",
    "country": "Latvia",
    "country_zh": "拉脫維亞",
    "country_iso_code": "LV",
    "timezone": "Europe/Riga",
    "latitude": 55.90989,
    "longitude": 26.49445
  },
  {
    "city": "Vidusmuiža",
    "city_zh": "Vidusmuiža",
    "country": "Latvia",
    "country_zh": "拉脫維亞",
    "country_iso_code": "LV",
    "timezone": "Europe/Riga",
    "latitude": 56.61412,
    "longitude": 21.87035
  },
  {
    "city": "Vidusmuiža",
    "city_zh": "Vidusmuiža",
    "country": "Latvia",
    "country_zh": "拉脫維亞",
    "country_iso_code": "LV",
    "timezone": "Europe/Riga",
    "latitude": 56.41238,
    "longitude": 23.82342
  },
  {
    "city": "Viduči",
    "city_zh": "Viduči",
    "country": "Latvia",
    "country_zh": "拉脫維亞",
    "country_iso_code": "LV",
    "timezone": "Europe/Riga",
    "latitude": 57.13099,
    "longitude": 27.60438
  },
  {
    "city": "Vidsmuiža",
    "city_zh": "Vidsmuiža",
    "country": "Latvia",
    "country_zh": "拉脫維亞",
    "country_iso_code": "LV",
    "timezone": "Europe/Riga",
    "latitude": 56.61539,
    "longitude": 21.87082
  },
  {
    "city": "Vidsala",
    "city_zh": "Vidsala",
    "country": "Latvia",
    "country_zh": "拉脫維亞",
    "country_iso_code": "LV",
    "timezone": "Europe/Riga",
    "latitude": 56.34307,
    "longitude": 25.8598
  },
  {
    "city": "Vidriži",
    "city_zh": "Vidriži",
    "country": "Latvia",
    "country_zh": "拉脫維亞",
    "country_iso_code": "LV",
    "timezone": "Europe/Riga",
    "latitude": 57.34491,
    "longitude": 24.66692
  },
  {
    "city": "Mežinieki",
    "city_zh": "Mežinieki",
    "country": "Latvia",
    "country_zh": "拉脫維亞",
    "country_iso_code": "LV",
    "timezone": "Europe/Riga",
    "latitude": 56.76978,
    "longitude": 23.47619
  },
  {
    "city": "Vīdale",
    "city_zh": "Vīdale",
    "country": "Latvia",
    "country_zh": "拉脫維亞",
    "country_iso_code": "LV",
    "timezone": "Europe/Riga",
    "latitude": 57.60758,
    "longitude": 22.44996
  },
  {
    "city": "Vidaga",
    "city_zh": "Vidaga",
    "country": "Latvia",
    "country_zh": "拉脫維亞",
    "country_iso_code": "LV",
    "timezone": "Europe/Riga",
    "latitude": 57.42899,
    "longitude": 26.34792
  },
  {
    "city": "Vibroka",
    "city_zh": "Vibroka",
    "country": "Latvia",
    "country_zh": "拉脫維亞",
    "country_iso_code": "LV",
    "timezone": "Europe/Riga",
    "latitude": 57.01789,
    "longitude": 24.95217
  },
  {
    "city": "Vībiņi",
    "city_zh": "Vībiņi",
    "country": "Latvia",
    "country_zh": "拉脫維亞",
    "country_iso_code": "LV",
    "timezone": "Europe/Riga",
    "latitude": 56.48652,
    "longitude": 21.89262
  },
  {
    "city": "Vevervežes",
    "city_zh": "Vevervežes",
    "country": "Latvia",
    "country_zh": "拉脫維亞",
    "country_iso_code": "LV",
    "timezone": "Europe/Riga",
    "latitude": 56.80019,
    "longitude": 22.88336
  },
  {
    "city": "Vēveri",
    "city_zh": "Vēveri",
    "country": "Latvia",
    "country_zh": "拉脫維亞",
    "country_iso_code": "LV",
    "timezone": "Europe/Riga",
    "latitude": 57.77827,
    "longitude": 25.70131
  },
  {
    "city": "Vēveri",
    "city_zh": "Vēveri",
    "country": "Latvia",
    "country_zh": "拉脫維亞",
    "country_iso_code": "LV",
    "timezone": "Europe/Riga",
    "latitude": 57.11327,
    "longitude": 25.84594
  },
  {
    "city": "Vēveri",
    "city_zh": "Vēveri",
    "country": "Latvia",
    "country_zh": "拉脫維亞",
    "country_iso_code": "LV",
    "timezone": "Europe/Riga",
    "latitude": 56.26165,
    "longitude": 27.00381
  },
  {
    "city": "Vēveri",
    "city_zh": "Vēveri",
    "country": "Latvia",
    "country_zh": "拉脫維亞",
    "country_iso_code": "LV",
    "timezone": "Europe/Riga",
    "latitude": 57.11263,
    "longitude": 25.84584
  },
  {
    "city": "Vecumnieki",
    "city_zh": "Vecumnieki",
    "country": "Latvia",
    "country_zh": "拉脫維亞",
    "country_iso_code": "LV",
    "timezone": "Europe/Riga",
    "latitude": 56.60608,
    "longitude": 24.52232
  },
  {
    "city": "Veterovka",
    "city_zh": "Veterovka",
    "country": "Latvia",
    "country_zh": "拉脫維亞",
    "country_iso_code": "LV",
    "timezone": "Europe/Riga",
    "latitude": 55.97028,
    "longitude": 27.41681
  },
  {
    "city": "Vestiena",
    "city_zh": "Vestiena",
    "country": "Latvia",
    "country_zh": "拉脫維亞",
    "country_iso_code": "LV",
    "timezone": "Europe/Riga",
    "latitude": 56.86622,
    "longitude": 25.87336
  },
  {
    "city": "Vesetnieki",
    "city_zh": "Vesetnieki",
    "country": "Latvia",
    "country_zh": "拉脫維亞",
    "country_iso_code": "LV",
    "timezone": "Europe/Riga",
    "latitude": 56.62254,
    "longitude": 25.8537
  },
  {
    "city": "Veseļi",
    "city_zh": "Veseļi",
    "country": "Latvia",
    "country_zh": "拉脫維亞",
    "country_iso_code": "LV",
    "timezone": "Europe/Riga",
    "latitude": 56.52591,
    "longitude": 25.88084
  },
  {
    "city": "Veselava",
    "city_zh": "Veselava",
    "country": "Latvia",
    "country_zh": "拉脫維亞",
    "country_iso_code": "LV",
    "timezone": "Europe/Riga",
    "latitude": 57.28869,
    "longitude": 25.47755
  },
  {
    "city": "Virveļi",
    "city_zh": "Virveļi",
    "country": "Latvia",
    "country_zh": "拉脫維亞",
    "country_iso_code": "LV",
    "timezone": "Europe/Riga",
    "latitude": 55.89019,
    "longitude": 26.86801
  },
  {
    "city": "Vjarumi",
    "city_zh": "Vjarumi",
    "country": "Latvia",
    "country_zh": "拉脫維亞",
    "country_iso_code": "LV",
    "timezone": "Europe/Riga",
    "latitude": 56.65615,
    "longitude": 27.9723
  },
  {
    "city": "Vertūkšņa",
    "city_zh": "Vertūkšņa",
    "country": "Latvia",
    "country_zh": "拉脫維亞",
    "country_iso_code": "LV",
    "timezone": "Europe/Riga",
    "latitude": 56.37,
    "longitude": 27.18833
  },
  {
    "city": "Vērsīši",
    "city_zh": "Vērsīši",
    "country": "Latvia",
    "country_zh": "拉脫維亞",
    "country_iso_code": "LV",
    "timezone": "Europe/Riga",
    "latitude": 57.61107,
    "longitude": 26.17995
  },
  {
    "city": "Vērsis",
    "city_zh": "Vērsis",
    "country": "Latvia",
    "country_zh": "拉脫維亞",
    "country_iso_code": "LV",
    "timezone": "Europe/Riga",
    "latitude": 57.96543,
    "longitude": 25.11615
  },
  {
    "city": "Mūsa",
    "city_zh": "Mūsa",
    "country": "Latvia",
    "country_zh": "拉脫維亞",
    "country_iso_code": "LV",
    "timezone": "Europe/Riga",
    "latitude": 56.39469,
    "longitude": 24.23984
  },
  {
    "city": "Vierņi",
    "city_zh": "Vierņi",
    "country": "Latvia",
    "country_zh": "拉脫維亞",
    "country_iso_code": "LV",
    "timezone": "Europe/Riga",
    "latitude": 56.585,
    "longitude": 27.62905
  },
  {
    "city": "Vērgale",
    "city_zh": "Vērgale",
    "country": "Latvia",
    "country_zh": "拉脫維亞",
    "country_iso_code": "LV",
    "timezone": "Europe/Riga",
    "latitude": 56.69865,
    "longitude": 21.19748
  },
  {
    "city": "Vērene",
    "city_zh": "Vērene",
    "country": "Latvia",
    "country_zh": "拉脫維亞",
    "country_iso_code": "LV",
    "timezone": "Europe/Riga",
    "latitude": 56.79049,
    "longitude": 25.26766
  },
  {
    "city": "Vērdiņi",
    "city_zh": "Vērdiņi",
    "country": "Latvia",
    "country_zh": "拉脫維亞",
    "country_iso_code": "LV",
    "timezone": "Europe/Riga",
    "latitude": 56.40609,
    "longitude": 24.70194
  },
  {
    "city": "Veremes",
    "city_zh": "Veremes",
    "country": "Latvia",
    "country_zh": "拉脫維亞",
    "country_iso_code": "LV",
    "timezone": "Europe/Riga",
    "latitude": 56.58633,
    "longitude": 27.40162
  },
  {
    "city": "Vepri",
    "city_zh": "Vepri",
    "country": "Latvia",
    "country_zh": "拉脫維亞",
    "country_iso_code": "LV",
    "timezone": "Europe/Riga",
    "latitude": 56.22242,
    "longitude": 26.54328
  },
  {
    "city": "Ventspils",
    "city_zh": "Ventspils",
    "country": "Latvia",
    "country_zh": "拉脫維亞",
    "country_iso_code": "LV",
    "timezone": "Europe/Riga",
    "latitude": 57.39485,
    "longitude": 21.56121
  },
  {
    "city": "Ventava",
    "city_zh": "Ventava",
    "country": "Latvia",
    "country_zh": "拉脫維亞",
    "country_iso_code": "LV",
    "timezone": "Europe/Riga",
    "latitude": 57.22876,
    "longitude": 21.61157
  },
  {
    "city": "Vendzavas",
    "city_zh": "Vendzavas",
    "country": "Latvia",
    "country_zh": "拉脫維亞",
    "country_iso_code": "LV",
    "timezone": "Europe/Riga",
    "latitude": 57.17878,
    "longitude": 21.67405
  },
  {
    "city": "Veltiņi",
    "city_zh": "Veltiņi",
    "country": "Latvia",
    "country_zh": "拉脫維亞",
    "country_iso_code": "LV",
    "timezone": "Europe/Riga",
    "latitude": 57.27914,
    "longitude": 21.50424
  },
  {
    "city": "Velmeri",
    "city_zh": "Velmeri",
    "country": "Latvia",
    "country_zh": "拉脫維亞",
    "country_iso_code": "LV",
    "timezone": "Europe/Riga",
    "latitude": 57.14686,
    "longitude": 25.35815
  },
  {
    "city": "Veļķumuiža",
    "city_zh": "Veļķumuiža",
    "country": "Latvia",
    "country_zh": "拉脫維亞",
    "country_iso_code": "LV",
    "timezone": "Europe/Riga",
    "latitude": 57.06459,
    "longitude": 25.84058
  },
  {
    "city": "Kalna Vēliņi",
    "city_zh": "Kalna Vēliņi",
    "country": "Latvia",
    "country_zh": "拉脫維亞",
    "country_iso_code": "LV",
    "timezone": "Europe/Riga",
    "latitude": 57.3528,
    "longitude": 25.62486
  },
  {
    "city": "Velēna",
    "city_zh": "Velēna",
    "country": "Latvia",
    "country_zh": "拉脫維亞",
    "country_iso_code": "LV",
    "timezone": "Europe/Riga",
    "latitude": 57.23931,
    "longitude": 26.40238
  },
  {
    "city": "Veldze",
    "city_zh": "Veldze",
    "country": "Latvia",
    "country_zh": "拉脫維亞",
    "country_iso_code": "LV",
    "timezone": "Europe/Riga",
    "latitude": 56.97614,
    "longitude": 22.05411
  },
  {
    "city": "Vējstūri",
    "city_zh": "Vējstūri",
    "country": "Latvia",
    "country_zh": "拉脫維亞",
    "country_iso_code": "LV",
    "timezone": "Europe/Riga",
    "latitude": 56.85417,
    "longitude": 24.3225
  },
  {
    "city": "Kalnabeites",
    "city_zh": "Kalnabeites",
    "country": "Latvia",
    "country_zh": "拉脫維亞",
    "country_iso_code": "LV",
    "timezone": "Europe/Riga",
    "latitude": 57.13823,
    "longitude": 24.83833
  },
  {
    "city": "Vējava",
    "city_zh": "Vējava",
    "country": "Latvia",
    "country_zh": "拉脫維亞",
    "country_iso_code": "LV",
    "timezone": "Europe/Riga",
    "latitude": 56.92839,
    "longitude": 25.88252
  },
  {
    "city": "Veiziniški",
    "city_zh": "Veiziniški",
    "country": "Latvia",
    "country_zh": "拉脫維亞",
    "country_iso_code": "LV",
    "timezone": "Europe/Riga",
    "latitude": 56.0776,
    "longitude": 27.65022
  },
  {
    "city": "Veismaņi",
    "city_zh": "Veismaņi",
    "country": "Latvia",
    "country_zh": "拉脫維亞",
    "country_iso_code": "LV",
    "timezone": "Europe/Riga",
    "latitude": 57.301,
    "longitude": 25.345
  },
  {
    "city": "Veismaņi",
    "city_zh": "Veismaņi",
    "country": "Latvia",
    "country_zh": "拉脫維亞",
    "country_iso_code": "LV",
    "timezone": "Europe/Riga",
    "latitude": 56.77565,
    "longitude": 24.05888
  },
  {
    "city": "Veipi",
    "city_zh": "Veipi",
    "country": "Latvia",
    "country_zh": "拉脫維亞",
    "country_iso_code": "LV",
    "timezone": "Europe/Riga",
    "latitude": 56.63979,
    "longitude": 26.5934
  },
  {
    "city": "Veiguri",
    "city_zh": "Veiguri",
    "country": "Latvia",
    "country_zh": "拉脫維亞",
    "country_iso_code": "LV",
    "timezone": "Europe/Riga",
    "latitude": 56.40212,
    "longitude": 26.11688
  },
  {
    "city": "Veģi",
    "city_zh": "Veģi",
    "country": "Latvia",
    "country_zh": "拉脫維亞",
    "country_iso_code": "LV",
    "timezone": "Europe/Riga",
    "latitude": 57.08693,
    "longitude": 22.47202
  },
  {
    "city": "Vēgas",
    "city_zh": "Vēgas",
    "country": "Latvia",
    "country_zh": "拉脫維亞",
    "country_iso_code": "LV",
    "timezone": "Europe/Riga",
    "latitude": 57.0455,
    "longitude": 21.86613
  },
  {
    "city": "Vēdenieši",
    "city_zh": "Vēdenieši",
    "country": "Latvia",
    "country_zh": "拉脫維亞",
    "country_iso_code": "LV",
    "timezone": "Europe/Riga",
    "latitude": 57.2386,
    "longitude": 27.66876
  },
  {
    "city": "Vēde",
    "city_zh": "Vēde",
    "country": "Latvia",
    "country_zh": "拉脫維亞",
    "country_iso_code": "LV",
    "timezone": "Europe/Riga",
    "latitude": 57.49789,
    "longitude": 21.8453
  },
  {
    "city": "Zvārde",
    "city_zh": "Zvārde",
    "country": "Latvia",
    "country_zh": "拉脫維亞",
    "country_iso_code": "LV",
    "timezone": "Europe/Riga",
    "latitude": 56.56838,
    "longitude": 22.62767
  },
  {
    "city": "Veczosna",
    "city_zh": "Veczosna",
    "country": "Latvia",
    "country_zh": "拉脫維亞",
    "country_iso_code": "LV",
    "timezone": "Europe/Riga",
    "latitude": 56.33505,
    "longitude": 27.3039
  },
  {
    "city": "Viešķeles",
    "city_zh": "Viešķeles",
    "country": "Latvia",
    "country_zh": "拉脫維亞",
    "country_iso_code": "LV",
    "timezone": "Europe/Riga",
    "latitude": 57.34189,
    "longitude": 26.56118
  },
  {
    "city": "Vecvārkava",
    "city_zh": "Vecvārkava",
    "country": "Latvia",
    "country_zh": "拉脫維亞",
    "country_iso_code": "LV",
    "timezone": "Europe/Riga",
    "latitude": 56.19838,
    "longitude": 26.50811
  },
  {
    "city": "Vecvagares",
    "city_zh": "Vecvagares",
    "country": "Latvia",
    "country_zh": "拉脫維亞",
    "country_iso_code": "LV",
    "timezone": "Europe/Riga",
    "latitude": 56.45,
    "longitude": 23.7
  },
  {
    "city": "Vecvagari",
    "city_zh": "Vecvagari",
    "country": "Latvia",
    "country_zh": "拉脫維亞",
    "country_iso_code": "LV",
    "timezone": "Europe/Riga",
    "latitude": 56.87889,
    "longitude": 23.2225
  },
  {
    "city": "Vecupji",
    "city_zh": "Vecupji",
    "country": "Latvia",
    "country_zh": "拉脫維亞",
    "country_iso_code": "LV",
    "timezone": "Europe/Riga",
    "latitude": 57.31667,
    "longitude": 21.96667
  },
  {
    "city": "Vecumnieki",
    "city_zh": "Vecumnieki",
    "country": "Latvia",
    "country_zh": "拉脫維亞",
    "country_iso_code": "LV",
    "timezone": "Europe/Riga",
    "latitude": 56.66047,
    "longitude": 26.65455
  },
  {
    "city": "Vecumi",
    "city_zh": "Vecumi",
    "country": "Latvia",
    "country_zh": "拉脫維亞",
    "country_iso_code": "LV",
    "timezone": "Europe/Riga",
    "latitude": 57.21347,
    "longitude": 27.77249
  },
  {
    "city": "Vecie Tokari",
    "city_zh": "Vecie Tokari",
    "country": "Latvia",
    "country_zh": "拉脫維亞",
    "country_iso_code": "LV",
    "timezone": "Europe/Riga",
    "latitude": 56.03273,
    "longitude": 26.67603
  },
  {
    "city": "Vectilža",
    "city_zh": "Vectilža",
    "country": "Latvia",
    "country_zh": "拉脫維亞",
    "country_iso_code": "LV",
    "timezone": "Europe/Riga",
    "latitude": 56.96268,
    "longitude": 27.40166
  },
  {
    "city": "Vecsvirlauka",
    "city_zh": "Vecsvirlauka",
    "country": "Latvia",
    "country_zh": "拉脫維亞",
    "country_iso_code": "LV",
    "timezone": "Europe/Riga",
    "latitude": 56.63972,
    "longitude": 23.78694
  },
  {
    "city": "Vecstāmeriena",
    "city_zh": "Vecstāmeriena",
    "country": "Latvia",
    "country_zh": "拉脫維亞",
    "country_iso_code": "LV",
    "timezone": "Europe/Riga",
    "latitude": 57.21459,
    "longitude": 26.88801
  },
  {
    "city": "Vecslabada",
    "city_zh": "Vecslabada",
    "country": "Latvia",
    "country_zh": "拉脫維亞",
    "country_iso_code": "LV",
    "timezone": "Europe/Riga",
    "latitude": 56.2609,
    "longitude": 27.98638
  },
  {
    "city": "VEF-Skulte",
    "city_zh": "VEF-Skulte",
    "country": "Latvia",
    "country_zh": "拉脫維亞",
    "country_iso_code": "LV",
    "timezone": "Europe/Riga",
    "latitude": 57.32294,
    "longitude": 24.44775
  },
  {
    "city": "Skanuļi",
    "city_zh": "Skanuļi",
    "country": "Latvia",
    "country_zh": "拉脫維亞",
    "country_iso_code": "LV",
    "timezone": "Europe/Riga",
    "latitude": 57.08313,
    "longitude": 26.06805
  },
  {
    "city": "Vecsinepes",
    "city_zh": "Vecsinepes",
    "country": "Latvia",
    "country_zh": "拉脫維亞",
    "country_iso_code": "LV",
    "timezone": "Europe/Riga",
    "latitude": 57.21845,
    "longitude": 22.04135
  },
  {
    "city": "Vecsaule",
    "city_zh": "Vecsaule",
    "country": "Latvia",
    "country_zh": "拉脫維亞",
    "country_iso_code": "LV",
    "timezone": "Europe/Riga",
    "latitude": 56.43262,
    "longitude": 24.3525
  },
  {
    "city": "Vecsāti",
    "city_zh": "Vecsāti",
    "country": "Latvia",
    "country_zh": "拉脫維亞",
    "country_iso_code": "LV",
    "timezone": "Europe/Riga",
    "latitude": 56.9225,
    "longitude": 22.95061
  },
  {
    "city": "Červonka",
    "city_zh": "Červonka",
    "country": "Latvia",
    "country_zh": "拉脫維亞",
    "country_iso_code": "LV",
    "timezone": "Europe/Riga",
    "latitude": 55.82474,
    "longitude": 26.77069
  },
  {
    "city": "Vecsalaca",
    "city_zh": "Vecsalaca",
    "country": "Latvia",
    "country_zh": "拉脫維亞",
    "country_iso_code": "LV",
    "timezone": "Europe/Riga",
    "latitude": 57.75762,
    "longitude": 24.41235
  },
  {
    "city": "Vecsaikava",
    "city_zh": "Vecsaikava",
    "country": "Latvia",
    "country_zh": "拉脫維亞",
    "country_iso_code": "LV",
    "timezone": "Europe/Riga",
    "latitude": 56.76579,
    "longitude": 26.42636
  },
  {
    "city": "Vecpoļi",
    "city_zh": "Vecpoļi",
    "country": "Latvia",
    "country_zh": "拉脫維亞",
    "country_iso_code": "LV",
    "timezone": "Europe/Riga",
    "latitude": 56.83151,
    "longitude": 26.34894
  },
  {
    "city": "Vecpils",
    "city_zh": "Vecpils",
    "country": "Latvia",
    "country_zh": "拉脫維亞",
    "country_iso_code": "LV",
    "timezone": "Europe/Riga",
    "latitude": 57.0,
    "longitude": 24.95
  },
  {
    "city": "Vecpils",
    "city_zh": "Vecpils",
    "country": "Latvia",
    "country_zh": "拉脫維亞",
    "country_iso_code": "LV",
    "timezone": "Europe/Riga",
    "latitude": 56.83978,
    "longitude": 27.07905
  },
  {
    "city": "Vecpils",
    "city_zh": "Vecpils",
    "country": "Latvia",
    "country_zh": "拉脫維亞",
    "country_iso_code": "LV",
    "timezone": "Europe/Riga",
    "latitude": 56.62422,
    "longitude": 21.49101
  },
  {
    "city": "Vecpiebalga",
    "city_zh": "Vecpiebalga",
    "country": "Latvia",
    "country_zh": "拉脫維亞",
    "country_iso_code": "LV",
    "timezone": "Europe/Riga",
    "latitude": 57.0609,
    "longitude": 25.81624
  },
  {
    "city": "Vecokra",
    "city_zh": "Vecokra",
    "country": "Latvia",
    "country_zh": "拉脫維亞",
    "country_iso_code": "LV",
    "timezone": "Europe/Riga",
    "latitude": 56.12369,
    "longitude": 27.28498
  },
  {
    "city": "Vecā Muiža",
    "city_zh": "Vecā Muiža",
    "country": "Latvia",
    "country_zh": "拉脫維亞",
    "country_iso_code": "LV",
    "timezone": "Europe/Riga",
    "latitude": 56.96152,
    "longitude": 22.42335
  },
  {
    "city": "Upītes",
    "city_zh": "Upītes",
    "country": "Latvia",
    "country_zh": "拉脫維亞",
    "country_iso_code": "LV",
    "timezone": "Europe/Riga",
    "latitude": 56.95372,
    "longitude": 21.78675
  },
  {
    "city": "Vecmokas",
    "city_zh": "Vecmokas",
    "country": "Latvia",
    "country_zh": "拉脫維亞",
    "country_iso_code": "LV",
    "timezone": "Europe/Riga",
    "latitude": 57.00016,
    "longitude": 23.0802
  },
  {
    "city": "Vecmīlgrāvis",
    "city_zh": "Vecmīlgrāvis",
    "country": "Latvia",
    "country_zh": "拉脫維亞",
    "country_iso_code": "LV",
    "timezone": "Europe/Riga",
    "latitude": 57.03039,
    "longitude": 24.11207
  },
  {
    "city": "Vecmiķeļi",
    "city_zh": "Vecmiķeļi",
    "country": "Latvia",
    "country_zh": "拉脫維亞",
    "country_iso_code": "LV",
    "timezone": "Europe/Riga",
    "latitude": 56.45819,
    "longitude": 23.06458
  },
  {
    "city": "Vecmēmele",
    "city_zh": "Vecmēmele",
    "country": "Latvia",
    "country_zh": "拉脫維亞",
    "country_iso_code": "LV",
    "timezone": "Europe/Riga",
    "latitude": 56.27686,
    "longitude": 25.03215
  },
  {
    "city": "Veclīkupēni",
    "city_zh": "Veclīkupēni",
    "country": "Latvia",
    "country_zh": "拉脫維亞",
    "country_iso_code": "LV",
    "timezone": "Europe/Riga",
    "latitude": 56.42824,
    "longitude": 22.51339
  },
  {
    "city": "Vec-Liepāja",
    "city_zh": "Vec-Liepāja",
    "country": "Latvia",
    "country_zh": "拉脫維亞",
    "country_iso_code": "LV",
    "timezone": "Europe/Riga",
    "latitude": 56.50806,
    "longitude": 21.01149
  },
  {
    "city": "Veclaicene",
    "city_zh": "Veclaicene",
    "country": "Latvia",
    "country_zh": "拉脫維亞",
    "country_iso_code": "LV",
    "timezone": "Europe/Riga",
    "latitude": 57.56917,
    "longitude": 27.00662
  },
  {
    "city": "Veckušķi",
    "city_zh": "Veckušķi",
    "country": "Latvia",
    "country_zh": "拉脫維亞",
    "country_iso_code": "LV",
    "timezone": "Europe/Riga",
    "latitude": 57.21934,
    "longitude": 22.03863
  },
  {
    "city": "Mežārija",
    "city_zh": "Mežārija",
    "country": "Latvia",
    "country_zh": "拉脫維亞",
    "country_iso_code": "LV",
    "timezone": "Europe/Riga",
    "latitude": 57.21718,
    "longitude": 27.44579
  },
  {
    "city": "Krīči",
    "city_zh": "Krīči",
    "country": "Latvia",
    "country_zh": "拉脫維亞",
    "country_iso_code": "LV",
    "timezone": "Europe/Riga",
    "latitude": 56.48949,
    "longitude": 24.67871
  },
  {
    "city": "Vecķeipene",
    "city_zh": "Vecķeipene",
    "country": "Latvia",
    "country_zh": "拉脫維亞",
    "country_iso_code": "LV",
    "timezone": "Europe/Riga",
    "latitude": 56.8253,
    "longitude": 25.19063
  },
  {
    "city": "Veckārķi",
    "city_zh": "Veckārķi",
    "country": "Latvia",
    "country_zh": "拉脫維亞",
    "country_iso_code": "LV",
    "timezone": "Europe/Riga",
    "latitude": 57.80892,
    "longitude": 25.63535
  },
  {
    "city": "Veckalsnava",
    "city_zh": "Veckalsnava",
    "country": "Latvia",
    "country_zh": "拉脫維亞",
    "country_iso_code": "LV",
    "timezone": "Europe/Riga",
    "latitude": 56.75096,
    "longitude": 26.02056
  },
  {
    "city": "Vēciņi",
    "city_zh": "Vēciņi",
    "country": "Latvia",
    "country_zh": "拉脫維亞",
    "country_iso_code": "LV",
    "timezone": "Europe/Riga",
    "latitude": 57.55071,
    "longitude": 26.88568
  },
  {
    "city": "Vecgailumi",
    "city_zh": "Vecgailumi",
    "country": "Latvia",
    "country_zh": "拉脫維亞",
    "country_iso_code": "LV",
    "timezone": "Europe/Riga",
    "latitude": 56.67531,
    "longitude": 27.42314
  },
  {
    "city": "Vecgaiķi",
    "city_zh": "Vecgaiķi",
    "country": "Latvia",
    "country_zh": "拉脫維亞",
    "country_iso_code": "LV",
    "timezone": "Europe/Riga",
    "latitude": 56.78554,
    "longitude": 22.56541
  },
  {
    "city": "Veceļi",
    "city_zh": "Veceļi",
    "country": "Latvia",
    "country_zh": "拉脫維亞",
    "country_iso_code": "LV",
    "timezone": "Europe/Riga",
    "latitude": 56.4529,
    "longitude": 26.29577
  },
  {
    "city": "Vecdome",
    "city_zh": "Vecdome",
    "country": "Latvia",
    "country_zh": "拉脫維亞",
    "country_iso_code": "LV",
    "timezone": "Europe/Riga",
    "latitude": 56.09843,
    "longitude": 27.55639
  },
  {
    "city": "Amatas Skola",
    "city_zh": "Amatas Skola",
    "country": "Latvia",
    "country_zh": "拉脫維亞",
    "country_iso_code": "LV",
    "timezone": "Europe/Riga",
    "latitude": 57.16728,
    "longitude": 25.27734
  },
  {
    "city": "Vecciems",
    "city_zh": "Vecciems",
    "country": "Latvia",
    "country_zh": "拉脫維亞",
    "country_iso_code": "LV",
    "timezone": "Europe/Riga",
    "latitude": 57.12594,
    "longitude": 22.87422
  },
  {
    "city": "Vecborne",
    "city_zh": "Vecborne",
    "country": "Latvia",
    "country_zh": "拉脫維亞",
    "country_iso_code": "LV",
    "timezone": "Europe/Riga",
    "latitude": 55.86063,
    "longitude": 27.00869
  },
  {
    "city": "Vecborisova",
    "city_zh": "Vecborisova",
    "country": "Latvia",
    "country_zh": "拉脫維亞",
    "country_iso_code": "LV",
    "timezone": "Europe/Riga",
    "latitude": 56.55243,
    "longitude": 27.38672
  },
  {
    "city": "Birzāki",
    "city_zh": "Birzāki",
    "country": "Latvia",
    "country_zh": "拉脫維亞",
    "country_iso_code": "LV",
    "timezone": "Europe/Riga",
    "latitude": 56.30874,
    "longitude": 26.27092
  },
  {
    "city": "Vecbebri",
    "city_zh": "Vecbebri",
    "country": "Latvia",
    "country_zh": "拉脫維亞",
    "country_iso_code": "LV",
    "timezone": "Europe/Riga",
    "latitude": 56.71977,
    "longitude": 25.48347
  },
  {
    "city": "Vecbāta",
    "city_zh": "Vecbāta",
    "country": "Latvia",
    "country_zh": "拉脫維亞",
    "country_iso_code": "LV",
    "timezone": "Europe/Riga",
    "latitude": 56.4416,
    "longitude": 21.87445
  },
  {
    "city": "Vecauce",
    "city_zh": "Vecauce",
    "country": "Latvia",
    "country_zh": "拉脫維亞",
    "country_iso_code": "LV",
    "timezone": "Europe/Riga",
    "latitude": 56.46837,
    "longitude": 22.88967
  },
  {
    "city": "Vecate",
    "city_zh": "Vecate",
    "country": "Latvia",
    "country_zh": "拉脫維亞",
    "country_iso_code": "LV",
    "timezone": "Europe/Riga",
    "latitude": 57.79358,
    "longitude": 25.13307
  },
  {
    "city": "Vecannahitte",
    "city_zh": "Vecannahitte",
    "country": "Latvia",
    "country_zh": "拉脫維亞",
    "country_iso_code": "LV",
    "timezone": "Europe/Riga",
    "latitude": 57.41667,
    "longitude": 22.05
  },
  {
    "city": "Vecanna",
    "city_zh": "Vecanna",
    "country": "Latvia",
    "country_zh": "拉脫維亞",
    "country_iso_code": "LV",
    "timezone": "Europe/Riga",
    "latitude": 57.34956,
    "longitude": 27.06863
  },
  {
    "city": "Vecāmuiža",
    "city_zh": "Vecāmuiža",
    "country": "Latvia",
    "country_zh": "拉脫維亞",
    "country_iso_code": "LV",
    "timezone": "Europe/Riga",
    "latitude": 57.20695,
    "longitude": 26.21383
  },
  {
    "city": "Vecāķi",
    "city_zh": "Vecāķi",
    "country": "Latvia",
    "country_zh": "拉脫維亞",
    "country_iso_code": "LV",
    "timezone": "Europe/Riga",
    "latitude": 57.07147,
    "longitude": 24.1035
  },
  {
    "city": "Vecaduliena",
    "city_zh": "Vecaduliena",
    "country": "Latvia",
    "country_zh": "拉脫維亞",
    "country_iso_code": "LV",
    "timezone": "Europe/Riga",
    "latitude": 57.08939,
    "longitude": 26.40919
  },
  {
    "city": "Voveres",
    "city_zh": "Voveres",
    "country": "Latvia",
    "country_zh": "拉脫維亞",
    "country_iso_code": "LV",
    "timezone": "Europe/Riga",
    "latitude": 56.45381,
    "longitude": 26.81948
  },
  {
    "city": "Voveri",
    "city_zh": "Voveri",
    "country": "Latvia",
    "country_zh": "拉脫維亞",
    "country_iso_code": "LV",
    "timezone": "Europe/Riga",
    "latitude": 56.10068,
    "longitude": 27.2168
  },
  {
    "city": "Vāverkrogs",
    "city_zh": "Vāverkrogs",
    "country": "Latvia",
    "country_zh": "拉脫維亞",
    "country_iso_code": "LV",
    "timezone": "Europe/Riga",
    "latitude": 56.9229,
    "longitude": 24.67198
  },
  {
    "city": "Vatrāne",
    "city_zh": "Vatrāne",
    "country": "Latvia",
    "country_zh": "拉脫維亞",
    "country_iso_code": "LV",
    "timezone": "Europe/Riga",
    "latitude": 56.90324,
    "longitude": 25.12633
  },
  {
    "city": "Vaski",
    "city_zh": "Vaski",
    "country": "Latvia",
    "country_zh": "拉脫維亞",
    "country_iso_code": "LV",
    "timezone": "Europe/Riga",
    "latitude": 56.84148,
    "longitude": 23.04014
  },
  {
    "city": "Vārzas",
    "city_zh": "Vārzas",
    "country": "Latvia",
    "country_zh": "拉脫維亞",
    "country_iso_code": "LV",
    "timezone": "Europe/Riga",
    "latitude": 57.3831,
    "longitude": 24.40227
  },
  {
    "city": "Vārve",
    "city_zh": "Vārve",
    "country": "Latvia",
    "country_zh": "拉脫維亞",
    "country_iso_code": "LV",
    "timezone": "Europe/Riga",
    "latitude": 57.30708,
    "longitude": 21.55792
  },
  {
    "city": "Vārve",
    "city_zh": "Vārve",
    "country": "Latvia",
    "country_zh": "拉脫維亞",
    "country_iso_code": "LV",
    "timezone": "Europe/Riga",
    "latitude": 56.55461,
    "longitude": 21.3733
  },
  {
    "city": "Vartulova",
    "city_zh": "Vartulova",
    "country": "Latvia",
    "country_zh": "拉脫維亞",
    "country_iso_code": "LV",
    "timezone": "Europe/Riga",
    "latitude": 56.21892,
    "longitude": 27.73134
  },
  {
    "city": "Vārtāja",
    "city_zh": "Vārtāja",
    "country": "Latvia",
    "country_zh": "拉脫維亞",
    "country_iso_code": "LV",
    "timezone": "Europe/Riga",
    "latitude": 56.48927,
    "longitude": 21.36343
  },
  {
    "city": "Varšava",
    "city_zh": "Varšava",
    "country": "Latvia",
    "country_zh": "拉脫維亞",
    "country_iso_code": "LV",
    "timezone": "Europe/Riga",
    "latitude": 56.36092,
    "longitude": 27.88692
  },
  {
    "city": "Vārpene",
    "city_zh": "Vārpene",
    "country": "Latvia",
    "country_zh": "拉脫維亞",
    "country_iso_code": "LV",
    "timezone": "Europe/Riga",
    "latitude": 55.78818,
    "longitude": 26.74801
  },
  {
    "city": "Varnaviči",
    "city_zh": "Varnaviči",
    "country": "Latvia",
    "country_zh": "拉脫維亞",
    "country_iso_code": "LV",
    "timezone": "Europe/Riga",
    "latitude": 55.83046,
    "longitude": 27.29605
  },
  {
    "city": "Vārnava",
    "city_zh": "Vārnava",
    "country": "Latvia",
    "country_zh": "拉脫維亞",
    "country_iso_code": "LV",
    "timezone": "Europe/Riga",
    "latitude": 56.41458,
    "longitude": 25.54635
  },
  {
    "city": "Vārnukrogs",
    "city_zh": "Vārnukrogs",
    "country": "Latvia",
    "country_zh": "拉脫維亞",
    "country_iso_code": "LV",
    "timezone": "Europe/Riga",
    "latitude": 56.99307,
    "longitude": 23.94426
  },
  {
    "city": "Vārme",
    "city_zh": "Vārme",
    "country": "Latvia",
    "country_zh": "拉脫維亞",
    "country_iso_code": "LV",
    "timezone": "Europe/Riga",
    "latitude": 56.87297,
    "longitude": 22.23719
  },
  {
    "city": "Varķe",
    "city_zh": "Varķe",
    "country": "Latvia",
    "country_zh": "拉脫維亞",
    "country_iso_code": "LV",
    "timezone": "Europe/Riga",
    "latitude": 56.444,
    "longitude": 21.75654
  },
  {
    "city": "Vārkava",
    "city_zh": "Vārkava",
    "country": "Latvia",
    "country_zh": "拉脫維亞",
    "country_iso_code": "LV",
    "timezone": "Europe/Riga",
    "latitude": 56.24745,
    "longitude": 26.56631
  },
  {
    "city": "Varkava",
    "city_zh": "Varkava",
    "country": "Latvia",
    "country_zh": "拉脫維亞",
    "country_iso_code": "LV",
    "timezone": "Europe/Riga",
    "latitude": 56.07893,
    "longitude": 25.94009
  },
  {
    "city": "Varkaļi",
    "city_zh": "Varkaļi",
    "country": "Latvia",
    "country_zh": "拉脫維亞",
    "country_iso_code": "LV",
    "timezone": "Europe/Riga",
    "latitude": 56.94909,
    "longitude": 23.80257
  },
  {
    "city": "Variņi",
    "city_zh": "Variņi",
    "country": "Latvia",
    "country_zh": "拉脫維亞",
    "country_iso_code": "LV",
    "timezone": "Europe/Riga",
    "latitude": 57.31865,
    "longitude": 26.17317
  },
  {
    "city": "Varieši",
    "city_zh": "Varieši",
    "country": "Latvia",
    "country_zh": "拉脫維亞",
    "country_iso_code": "LV",
    "timezone": "Europe/Riga",
    "latitude": 56.56648,
    "longitude": 25.97528
  },
  {
    "city": "Varieba",
    "city_zh": "Varieba",
    "country": "Latvia",
    "country_zh": "拉脫維亞",
    "country_iso_code": "LV",
    "timezone": "Europe/Riga",
    "latitude": 56.86652,
    "longitude": 22.57859
  },
  {
    "city": "Vareiki",
    "city_zh": "Vareiki",
    "country": "Latvia",
    "country_zh": "拉脫維亞",
    "country_iso_code": "LV",
    "timezone": "Europe/Riga",
    "latitude": 56.85169,
    "longitude": 27.55998
  },
  {
    "city": "Dvarči",
    "city_zh": "Dvarči",
    "country": "Latvia",
    "country_zh": "拉脫維亞",
    "country_iso_code": "LV",
    "timezone": "Europe/Riga",
    "latitude": 56.28504,
    "longitude": 27.41528
  },
  {
    "city": "Varakļāni",
    "city_zh": "Varakļāni",
    "country": "Latvia",
    "country_zh": "拉脫維亞",
    "country_iso_code": "LV",
    "timezone": "Europe/Riga",
    "latitude": 56.60826,
    "longitude": 26.75377
  },
  {
    "city": "Vaņķi",
    "city_zh": "Vaņķi",
    "country": "Latvia",
    "country_zh": "拉脫維亞",
    "country_iso_code": "LV",
    "timezone": "Europe/Riga",
    "latitude": 57.21667,
    "longitude": 21.56667
  },
  {
    "city": "Vangaži",
    "city_zh": "Vangaži",
    "country": "Latvia",
    "country_zh": "拉脫維亞",
    "country_iso_code": "LV",
    "timezone": "Europe/Riga",
    "latitude": 57.09358,
    "longitude": 24.54468
  },
  {
    "city": "Vanga",
    "city_zh": "Vanga",
    "country": "Latvia",
    "country_zh": "拉脫維亞",
    "country_iso_code": "LV",
    "timezone": "Europe/Riga",
    "latitude": 56.78306,
    "longitude": 21.75859
  },
  {
    "city": "Vāne",
    "city_zh": "Vāne",
    "country": "Latvia",
    "country_zh": "拉脫維亞",
    "country_iso_code": "LV",
    "timezone": "Europe/Riga",
    "latitude": 56.92464,
    "longitude": 22.56169
  },
  {
    "city": "Vandzene",
    "city_zh": "Vandzene",
    "country": "Latvia",
    "country_zh": "拉脫維亞",
    "country_iso_code": "LV",
    "timezone": "Europe/Riga",
    "latitude": 57.30947,
    "longitude": 22.77431
  },
  {
    "city": "Vandāni",
    "city_zh": "Vandāni",
    "country": "Latvia",
    "country_zh": "拉脫維亞",
    "country_iso_code": "LV",
    "timezone": "Europe/Riga",
    "latitude": 56.33329,
    "longitude": 26.15999
  },
  {
    "city": "Vanagi",
    "city_zh": "Vanagi",
    "country": "Latvia",
    "country_zh": "拉脫維亞",
    "country_iso_code": "LV",
    "timezone": "Europe/Riga",
    "latitude": 57.29172,
    "longitude": 24.78764
  },
  {
    "city": "Vanagi",
    "city_zh": "Vanagi",
    "country": "Latvia",
    "country_zh": "拉脫維亞",
    "country_iso_code": "LV",
    "timezone": "Europe/Riga",
    "latitude": 56.28894,
    "longitude": 26.37651
  },
  {
    "city": "Vanagi",
    "city_zh": "Vanagi",
    "country": "Latvia",
    "country_zh": "拉脫維亞",
    "country_iso_code": "LV",
    "timezone": "Europe/Riga",
    "latitude": 56.07987,
    "longitude": 26.84438
  },
  {
    "city": "Vanagi",
    "city_zh": "Vanagi",
    "country": "Latvia",
    "country_zh": "拉脫維亞",
    "country_iso_code": "LV",
    "timezone": "Europe/Riga",
    "latitude": 56.03654,
    "longitude": 27.28018
  },
  {
    "city": "Valteri",
    "city_zh": "Valteri",
    "country": "Latvia",
    "country_zh": "拉脫維亞",
    "country_iso_code": "LV",
    "timezone": "Europe/Riga",
    "latitude": 55.97273,
    "longitude": 27.44579
  },
  {
    "city": "Valteķi",
    "city_zh": "Valteķi",
    "country": "Latvia",
    "country_zh": "拉脫維亞",
    "country_iso_code": "LV",
    "timezone": "Europe/Riga",
    "latitude": 56.29473,
    "longitude": 24.53925
  },
  {
    "city": "Valtaiķi",
    "city_zh": "Valtaiķi",
    "country": "Latvia",
    "country_zh": "拉脫維亞",
    "country_iso_code": "LV",
    "timezone": "Europe/Riga",
    "latitude": 56.69756,
    "longitude": 21.80465
  },
  {
    "city": "Valpene",
    "city_zh": "Valpene",
    "country": "Latvia",
    "country_zh": "拉脫維亞",
    "country_iso_code": "LV",
    "timezone": "Europe/Riga",
    "latitude": 57.42739,
    "longitude": 22.38842
  },
  {
    "city": "Volodina",
    "city_zh": "Volodina",
    "country": "Latvia",
    "country_zh": "拉脫維亞",
    "country_iso_code": "LV",
    "timezone": "Europe/Riga",
    "latitude": 55.8146,
    "longitude": 26.58757
  },
  {
    "city": "Valmiermuiža",
    "city_zh": "Valmiermuiža",
    "country": "Latvia",
    "country_zh": "拉脫維亞",
    "country_iso_code": "LV",
    "timezone": "Europe/Riga",
    "latitude": 57.56053,
    "longitude": 25.42833
  },
  {
    "city": "Valle",
    "city_zh": "Valle",
    "country": "Latvia",
    "country_zh": "拉脫維亞",
    "country_iso_code": "LV",
    "timezone": "Europe/Riga",
    "latitude": 56.5105,
    "longitude": 24.73512
  },
  {
    "city": "Valka",
    "city_zh": "瓦爾卡",
    "country": "Latvia",
    "country_zh": "拉脫維亞",
    "country_iso_code": "LV",
    "timezone": "Europe/Riga",
    "latitude": 57.7752,
    "longitude": 26.01013
  },
  {
    "city": "Valgundes Ciems",
    "city_zh": "Valgundes Ciems",
    "country": "Latvia",
    "country_zh": "拉脫維亞",
    "country_iso_code": "LV",
    "timezone": "Europe/Riga",
    "latitude": 56.76667,
    "longitude": 23.61667
  },
  {
    "city": "Valgunde",
    "city_zh": "Valgunde",
    "country": "Latvia",
    "country_zh": "拉脫維亞",
    "country_iso_code": "LV",
    "timezone": "Europe/Riga",
    "latitude": 56.74921,
    "longitude": 23.6806
  },
  {
    "city": "Valgale",
    "city_zh": "Valgale",
    "country": "Latvia",
    "country_zh": "拉脫維亞",
    "country_iso_code": "LV",
    "timezone": "Europe/Riga",
    "latitude": 57.05212,
    "longitude": 22.47339
  },
  {
    "city": "Valgalciems",
    "city_zh": "Valgalciems",
    "country": "Latvia",
    "country_zh": "拉脫維亞",
    "country_iso_code": "LV",
    "timezone": "Europe/Riga",
    "latitude": 57.40992,
    "longitude": 22.94683
  },
  {
    "city": "Vāle",
    "city_zh": "Vāle",
    "country": "Latvia",
    "country_zh": "拉脫維亞",
    "country_iso_code": "LV",
    "timezone": "Europe/Riga",
    "latitude": 57.50688,
    "longitude": 25.66689
  },
  {
    "city": "Valdgale",
    "city_zh": "Valdgale",
    "country": "Latvia",
    "country_zh": "拉脫維亞",
    "country_iso_code": "LV",
    "timezone": "Europe/Riga",
    "latitude": 57.28294,
    "longitude": 22.56969
  },
  {
    "city": "Valdemārpils",
    "city_zh": "Valdemārpils",
    "country": "Latvia",
    "country_zh": "拉脫維亞",
    "country_iso_code": "LV",
    "timezone": "Europe/Riga",
    "latitude": 57.37068,
    "longitude": 22.59188
  },
  {
    "city": "Valdeķi",
    "city_zh": "Valdeķi",
    "country": "Latvia",
    "country_zh": "拉脫維亞",
    "country_iso_code": "LV",
    "timezone": "Europe/Riga",
    "latitude": 56.99903,
    "longitude": 22.77298
  },
  {
    "city": "Valdes Muiža",
    "city_zh": "Valdes Muiža",
    "country": "Latvia",
    "country_zh": "拉脫維亞",
    "country_iso_code": "LV",
    "timezone": "Europe/Riga",
    "latitude": 57.01745,
    "longitude": 26.32536
  },
  {
    "city": "Valāta",
    "city_zh": "Valāta",
    "country": "Latvia",
    "country_zh": "拉脫維亞",
    "country_iso_code": "LV",
    "timezone": "Europe/Riga",
    "latitude": 56.72084,
    "longitude": 21.72768
  },
  {
    "city": "Valaki",
    "city_zh": "Valaki",
    "country": "Latvia",
    "country_zh": "拉脫維亞",
    "country_iso_code": "LV",
    "timezone": "Europe/Riga",
    "latitude": 56.65145,
    "longitude": 23.78867
  },
  {
    "city": "Vākšēni",
    "city_zh": "Vākšēni",
    "country": "Latvia",
    "country_zh": "拉脫維亞",
    "country_iso_code": "LV",
    "timezone": "Europe/Riga",
    "latitude": 57.62783,
    "longitude": 25.20503
  },
  {
    "city": "Vaivodi",
    "city_zh": "Vaivodi",
    "country": "Latvia",
    "country_zh": "拉脫維亞",
    "country_iso_code": "LV",
    "timezone": "Europe/Riga",
    "latitude": 56.15385,
    "longitude": 27.6933
  },
  {
    "city": "Vaive",
    "city_zh": "Vaive",
    "country": "Latvia",
    "country_zh": "拉脫維亞",
    "country_iso_code": "LV",
    "timezone": "Europe/Riga",
    "latitude": 57.25606,
    "longitude": 25.36953
  },
  {
    "city": "Vaivodi",
    "city_zh": "Vaivodi",
    "country": "Latvia",
    "country_zh": "拉脫維亞",
    "country_iso_code": "LV",
    "timezone": "Europe/Riga",
    "latitude": 55.8441,
    "longitude": 27.49226
  },
  {
    "city": "Vaiteļeva",
    "city_zh": "Vaiteļeva",
    "country": "Latvia",
    "country_zh": "拉脫維亞",
    "country_iso_code": "LV",
    "timezone": "Europe/Riga",
    "latitude": 55.85,
    "longitude": 27.55
  },
  {
    "city": "Vaišļi",
    "city_zh": "Vaišļi",
    "country": "Latvia",
    "country_zh": "拉脫維亞",
    "country_iso_code": "LV",
    "timezone": "Europe/Riga",
    "latitude": 56.24005,
    "longitude": 27.64089
  },
  {
    "city": "Vairogi",
    "city_zh": "Vairogi",
    "country": "Latvia",
    "country_zh": "拉脫維亞",
    "country_iso_code": "LV",
    "timezone": "Europe/Riga",
    "latitude": 56.45372,
    "longitude": 23.94683
  },
  {
    "city": "Vainova",
    "city_zh": "Vainova",
    "country": "Latvia",
    "country_zh": "拉脫維亞",
    "country_iso_code": "LV",
    "timezone": "Europe/Riga",
    "latitude": 56.30422,
    "longitude": 27.07845
  },
  {
    "city": "Vaiņodes Muiža",
    "city_zh": "Vaiņodes Muiža",
    "country": "Latvia",
    "country_zh": "拉脫維亞",
    "country_iso_code": "LV",
    "timezone": "Europe/Riga",
    "latitude": 56.41611,
    "longitude": 21.89637
  },
  {
    "city": "Vaiņode",
    "city_zh": "Vaiņode",
    "country": "Latvia",
    "country_zh": "拉脫維亞",
    "country_iso_code": "LV",
    "timezone": "Europe/Riga",
    "latitude": 56.41848,
    "longitude": 21.85405
  },
  {
    "city": "Vainiži",
    "city_zh": "Vainiži",
    "country": "Latvia",
    "country_zh": "拉脫維亞",
    "country_iso_code": "LV",
    "timezone": "Europe/Riga",
    "latitude": 57.45492,
    "longitude": 24.91544
  },
  {
    "city": "Vainas",
    "city_zh": "Vainas",
    "country": "Latvia",
    "country_zh": "拉脫維亞",
    "country_iso_code": "LV",
    "timezone": "Europe/Riga",
    "latitude": 56.68333,
    "longitude": 23.85
  },
  {
    "city": "Vainagi",
    "city_zh": "Vainagi",
    "country": "Latvia",
    "country_zh": "拉脫維亞",
    "country_iso_code": "LV",
    "timezone": "Europe/Riga",
    "latitude": 57.13696,
    "longitude": 27.76844
  },
  {
    "city": "Vaikuļāni",
    "city_zh": "Vaikuļāni",
    "country": "Latvia",
    "country_zh": "拉脫維亞",
    "country_iso_code": "LV",
    "timezone": "Europe/Riga",
    "latitude": 56.00524,
    "longitude": 26.39453
  },
  {
    "city": "Zascenku Vaideri",
    "city_zh": "Zascenku Vaideri",
    "country": "Latvia",
    "country_zh": "拉脫維亞",
    "country_iso_code": "LV",
    "timezone": "Europe/Riga",
    "latitude": 56.04198,
    "longitude": 26.44788
  },
  {
    "city": "Vaide",
    "city_zh": "Vaide",
    "country": "Latvia",
    "country_zh": "拉脫維亞",
    "country_iso_code": "LV",
    "timezone": "Europe/Riga",
    "latitude": 57.72634,
    "longitude": 22.45099
  },
  {
    "city": "Vaidava",
    "city_zh": "Vaidava",
    "country": "Latvia",
    "country_zh": "拉脫維亞",
    "country_iso_code": "LV",
    "timezone": "Europe/Riga",
    "latitude": 57.42827,
    "longitude": 25.28366
  },
  {
    "city": "Vaicuļeva",
    "city_zh": "Vaicuļeva",
    "country": "Latvia",
    "country_zh": "拉脫維亞",
    "country_iso_code": "LV",
    "timezone": "Europe/Riga",
    "latitude": 55.85403,
    "longitude": 27.54843
  },
  {
    "city": "Vagulāni",
    "city_zh": "Vagulāni",
    "country": "Latvia",
    "country_zh": "拉脫維亞",
    "country_iso_code": "LV",
    "timezone": "Europe/Riga",
    "latitude": 56.36853,
    "longitude": 25.89973
  },
  {
    "city": "Vaglāni",
    "city_zh": "Vaglāni",
    "country": "Latvia",
    "country_zh": "拉脫維亞",
    "country_iso_code": "LV",
    "timezone": "Europe/Riga",
    "latitude": 56.56601,
    "longitude": 26.06163
  },
  {
    "city": "Vagaļi",
    "city_zh": "Vagaļi",
    "country": "Latvia",
    "country_zh": "拉脫維亞",
    "country_iso_code": "LV",
    "timezone": "Europe/Riga",
    "latitude": 56.43021,
    "longitude": 27.47953
  },
  {
    "city": "Vadži",
    "city_zh": "Vadži",
    "country": "Latvia",
    "country_zh": "拉脫維亞",
    "country_iso_code": "LV",
    "timezone": "Europe/Riga",
    "latitude": 57.60215,
    "longitude": 25.80852
  },
  {
    "city": "Vadži",
    "city_zh": "Vadži",
    "country": "Latvia",
    "country_zh": "拉脫維亞",
    "country_iso_code": "LV",
    "timezone": "Europe/Riga",
    "latitude": 56.61667,
    "longitude": 23.78333
  },
  {
    "city": "Vādzere",
    "city_zh": "Vādzere",
    "country": "Latvia",
    "country_zh": "拉脫維亞",
    "country_iso_code": "LV",
    "timezone": "Europe/Riga",
    "latitude": 57.41403,
    "longitude": 22.36771
  },
  {
    "city": "Vadakste",
    "city_zh": "Vadakste",
    "country": "Latvia",
    "country_zh": "拉脫維亞",
    "country_iso_code": "LV",
    "timezone": "Europe/Riga",
    "latitude": 56.37545,
    "longitude": 22.74741
  },
  {
    "city": "Vācu Kalni",
    "city_zh": "Vācu Kalni",
    "country": "Latvia",
    "country_zh": "拉脫維亞",
    "country_iso_code": "LV",
    "timezone": "Europe/Riga",
    "latitude": 56.53285,
    "longitude": 28.04459
  },
  {
    "city": "Vācieši",
    "city_zh": "Vācieši",
    "country": "Latvia",
    "country_zh": "拉脫維亞",
    "country_iso_code": "LV",
    "timezone": "Europe/Riga",
    "latitude": 56.25,
    "longitude": 27.18333
  },
  {
    "city": "Vabole",
    "city_zh": "Vabole",
    "country": "Latvia",
    "country_zh": "拉脫維亞",
    "country_iso_code": "LV",
    "timezone": "Europe/Riga",
    "latitude": 56.02976,
    "longitude": 26.46366
  },
  {
    "city": "Ūziņi",
    "city_zh": "Ūziņi",
    "country": "Latvia",
    "country_zh": "拉脫維亞",
    "country_iso_code": "LV",
    "timezone": "Europe/Riga",
    "latitude": 56.4805,
    "longitude": 23.56742
  },
  {
    "city": "Užava",
    "city_zh": "Užava",
    "country": "Latvia",
    "country_zh": "拉脫維亞",
    "country_iso_code": "LV",
    "timezone": "Europe/Riga",
    "latitude": 57.22983,
    "longitude": 21.45578
  },
  {
    "city": "Ustroņi",
    "city_zh": "Ustroņi",
    "country": "Latvia",
    "country_zh": "拉脫維亞",
    "country_iso_code": "LV",
    "timezone": "Europe/Riga",
    "latitude": 56.48365,
    "longitude": 26.96798
  },
  {
    "city": "Ustje",
    "city_zh": "Ustje",
    "country": "Latvia",
    "country_zh": "拉脫維亞",
    "country_iso_code": "LV",
    "timezone": "Europe/Riga",
    "latitude": 56.07608,
    "longitude": 27.55394
  },
  {
    "city": "Ušpeļi",
    "city_zh": "Ušpeļi",
    "country": "Latvia",
    "country_zh": "拉脫維亞",
    "country_iso_code": "LV",
    "timezone": "Europe/Riga",
    "latitude": 56.32306,
    "longitude": 26.98216
  },
  {
    "city": "Usmenieki",
    "city_zh": "Usmenieki",
    "country": "Latvia",
    "country_zh": "拉脫維亞",
    "country_iso_code": "LV",
    "timezone": "Europe/Riga",
    "latitude": 57.21906,
    "longitude": 22.21458
  },
  {
    "city": "Usma",
    "city_zh": "Usma",
    "country": "Latvia",
    "country_zh": "拉脫維亞",
    "country_iso_code": "LV",
    "timezone": "Europe/Riga",
    "latitude": 57.21771,
    "longitude": 22.1554
  },
  {
    "city": "Ūsiņi",
    "city_zh": "Ūsiņi",
    "country": "Latvia",
    "country_zh": "拉脫維亞",
    "country_iso_code": "LV",
    "timezone": "Europe/Riga",
    "latitude": 56.67274,
    "longitude": 25.51317
  },
  {
    "city": "Uši",
    "city_zh": "Uši",
    "country": "Latvia",
    "country_zh": "拉脫維亞",
    "country_iso_code": "LV",
    "timezone": "Europe/Riga",
    "latitude": 57.70094,
    "longitude": 22.56836
  },
  {
    "city": "Ušāni",
    "city_zh": "Ušāni",
    "country": "Latvia",
    "country_zh": "拉脫維亞",
    "country_iso_code": "LV",
    "timezone": "Europe/Riga",
    "latitude": 56.57934,
    "longitude": 26.02112
  },
  {
    "city": "Urķērnieki",
    "city_zh": "Urķērnieki",
    "country": "Latvia",
    "country_zh": "拉脫維亞",
    "country_iso_code": "LV",
    "timezone": "Europe/Riga",
    "latitude": 56.54646,
    "longitude": 25.90703
  },
  {
    "city": "Uriekste",
    "city_zh": "Uriekste",
    "country": "Latvia",
    "country_zh": "拉脫維亞",
    "country_iso_code": "LV",
    "timezone": "Europe/Riga",
    "latitude": 57.18616,
    "longitude": 26.24316
  },
  {
    "city": "Urga",
    "city_zh": "Urga",
    "country": "Latvia",
    "country_zh": "拉脫維亞",
    "country_iso_code": "LV",
    "timezone": "Europe/Riga",
    "latitude": 57.73277,
    "longitude": 24.96229
  },
  {
    "city": "Upmaļciems",
    "city_zh": "Upmaļciems",
    "country": "Latvia",
    "country_zh": "拉脫維亞",
    "country_iso_code": "LV",
    "timezone": "Europe/Riga",
    "latitude": 56.35871,
    "longitude": 21.07126
  },
  {
    "city": "Upmala",
    "city_zh": "Upmala",
    "country": "Latvia",
    "country_zh": "拉脫維亞",
    "country_iso_code": "LV",
    "timezone": "Europe/Riga",
    "latitude": 57.23042,
    "longitude": 27.76658
  },
  {
    "city": "Upīte",
    "city_zh": "Upīte",
    "country": "Latvia",
    "country_zh": "拉脫維亞",
    "country_iso_code": "LV",
    "timezone": "Europe/Riga",
    "latitude": 57.02619,
    "longitude": 27.67306
  },
  {
    "city": "Upes Plūģi",
    "city_zh": "Upes Plūģi",
    "country": "Latvia",
    "country_zh": "拉脫維亞",
    "country_iso_code": "LV",
    "timezone": "Europe/Riga",
    "latitude": 56.56667,
    "longitude": 23.55
  },
  {
    "city": "Upesmuiža",
    "city_zh": "Upesmuiža",
    "country": "Latvia",
    "country_zh": "拉脫維亞",
    "country_iso_code": "LV",
    "timezone": "Europe/Riga",
    "latitude": 56.87702,
    "longitude": 21.21458
  },
  {
    "city": "Upesgrīva",
    "city_zh": "Upesgrīva",
    "country": "Latvia",
    "country_zh": "拉脫維亞",
    "country_iso_code": "LV",
    "timezone": "Europe/Riga",
    "latitude": 57.38523,
    "longitude": 23.01567
  },
  {
    "city": "Upesciems",
    "city_zh": "Upesciems",
    "country": "Latvia",
    "country_zh": "拉脫維亞",
    "country_iso_code": "LV",
    "timezone": "Europe/Riga",
    "latitude": 56.98685,
    "longitude": 24.33788
  },
  {
    "city": "Upēni",
    "city_zh": "Upēni",
    "country": "Latvia",
    "country_zh": "拉脫維亞",
    "country_iso_code": "LV",
    "timezone": "Europe/Riga",
    "latitude": 57.58305,
    "longitude": 24.72528
  },
  {
    "city": "Upenieki",
    "city_zh": "Upenieki",
    "country": "Latvia",
    "country_zh": "拉脫維亞",
    "country_iso_code": "LV",
    "timezone": "Europe/Riga",
    "latitude": 56.95131,
    "longitude": 27.38191
  },
  {
    "city": "Upenieki",
    "city_zh": "Upenieki",
    "country": "Latvia",
    "country_zh": "拉脫維亞",
    "country_iso_code": "LV",
    "timezone": "Europe/Riga",
    "latitude": 56.65717,
    "longitude": 22.90366
  },
  {
    "city": "Upenieki",
    "city_zh": "Upenieki",
    "country": "Latvia",
    "country_zh": "拉脫維亞",
    "country_iso_code": "LV",
    "timezone": "Europe/Riga",
    "latitude": 56.49245,
    "longitude": 26.68837
  },
  {
    "city": "Upenieki",
    "city_zh": "Upenieki",
    "country": "Latvia",
    "country_zh": "拉脫維亞",
    "country_iso_code": "LV",
    "timezone": "Europe/Riga",
    "latitude": 56.29058,
    "longitude": 26.2114
  },
  {
    "city": "Upeitnīki",
    "city_zh": "Upeitnīki",
    "country": "Latvia",
    "country_zh": "拉脫維亞",
    "country_iso_code": "LV",
    "timezone": "Europe/Riga",
    "latitude": 57.02024,
    "longitude": 27.02162
  },
  {
    "city": "Unturi",
    "city_zh": "Unturi",
    "country": "Latvia",
    "country_zh": "拉脫維亞",
    "country_iso_code": "LV",
    "timezone": "Europe/Riga",
    "latitude": 57.86667,
    "longitude": 25.1
  },