[
  {
    "city": "Zion Hill",
    "city_zh": "Zion Hill",
    "country": "Montserrat",
    "country_zh": "Montserrat",
    "country_iso_code": "MS",
    "timezone": "America/Montserrat",
    "latitude": 16.76809,
    "longitude": -62.21793
  },
  {
    "city": "Woodlands",
    "city_zh": "Woodlands",
    "country": "Montserrat",
    "country_zh": "Montserrat",
    "country_iso_code": "MS",
    "timezone": "America/Montserrat",
    "latitude": 16.75741,
    "longitude": -62.22433
  },
  {
    "city": "Windy Hill",
    "city_zh": "Windy Hill",
    "country": "Montserrat",
    "country_zh": "Montserrat",
    "country_iso_code": "MS",
    "timezone": "America/Montserrat",
    "latitude": 16.7337,
    "longitude": -62.19317
  },
  {
    "city": "Weekes",
    "city_zh": "Weekes",
    "country": "Montserrat",
    "country_zh": "Montserrat",
    "country_iso_code": "MS",
    "timezone": "America/Montserrat",
    "latitude": 16.72934,
    "longitude": -62.21742
  },
  {
    "city": "Webbs",
    "city_zh": "Webbs",
    "country": "Montserrat",
    "country_zh": "Montserrat",
    "country_iso_code": "MS",
    "timezone": "America/Montserrat",
    "latitude": 16.70549,
    "longitude": -62.21699
  },
  {
    "city": "Virgin Islands",
    "city_zh": "Virgin Islands",
    "country": "Montserrat",
    "country_zh": "Montserrat",
    "country_iso_code": "MS",
    "timezone": "America/Montserrat",
    "latitude": 16.77874,
    "longitude": -62.21734
  },
  {
    "city": "Victoria",
    "city_zh": "Victoria",
    "country": "Montserrat",
    "country_zh": "Montserrat",
    "country_iso_code": "MS",
    "timezone": "America/Montserrat",
    "latitude": 16.70005,
    "longitude": -62.21809
  },
  {
    "city": "Tuitt's",
    "city_zh": "Tuitt's",
    "country": "Montserrat",
    "country_zh": "Montserrat",
    "country_iso_code": "MS",
    "timezone": "America/Montserrat",
    "latitude": 16.72137,
    "longitude": -62.16888
  },
  {
    "city": "Trials",
    "city_zh": "Trials",
    "country": "Montserrat",
    "country_zh": "Montserrat",
    "country_iso_code": "MS",
    "timezone": "America/Montserrat",
    "latitude": 16.69267,
    "longitude": -62.21088
  },
  {
    "city": "Trant's",
    "city_zh": "Trant's",
    "country": "Montserrat",
    "country_zh": "Montserrat",
    "country_iso_code": "MS",
    "timezone": "America/Montserrat",
    "latitude": 16.76534,
    "longitude": -62.16408
  },
  {
    "city": "Streatham",
    "city_zh": "Streatham",
    "country": "Montserrat",
    "country_zh": "Montserrat",
    "country_iso_code": "MS",
    "timezone": "America/Montserrat",
    "latitude": 16.73039,
    "longitude": -62.19048
  },
  {
    "city": "Soldier Ghaut",
    "city_zh": "Soldier Ghaut",
    "country": "Montserrat",
    "country_zh": "Montserrat",
    "country_iso_code": "MS",
    "timezone": "America/Montserrat",
    "latitude": 16.7827,
    "longitude": -62.21117
  },
  {
    "city": "Shooters Hill",
    "city_zh": "Shooters Hill",
    "country": "Montserrat",
    "country_zh": "Montserrat",
    "country_iso_code": "MS",
    "timezone": "America/Montserrat",
    "latitude": 16.6779,
    "longitude": -62.19266
  },
  {
    "city": "Salem",
    "city_zh": "Salem",
    "country": "Montserrat",
    "country_zh": "Montserrat",
    "country_iso_code": "MS",
    "timezone": "America/Montserrat",
    "latitude": 16.75095,
    "longitude": -62.22175
  },
  {
    "city": "Saint Peters",
    "city_zh": "Saint Peters",
    "country": "Montserrat",
    "country_zh": "Montserrat",
    "country_iso_code": "MS",
    "timezone": "America/Montserrat",
    "latitude": 16.7727,
    "longitude": -62.21729
  },
  {
    "city": "Saint Patrick's",
    "city_zh": "Saint Patrick's",
    "country": "Montserrat",
    "country_zh": "Montserrat",
    "country_iso_code": "MS",
    "timezone": "America/Montserrat",
    "latitude": 16.68808,
    "longitude": -62.19764
  },
  {
    "city": "Saint John's Village",
    "city_zh": "Saint John's Village",
    "country": "Montserrat",
    "country_zh": "Montserrat",
    "country_iso_code": "MS",
    "timezone": "America/Montserrat",
    "latitude": 16.78215,
    "longitude": -62.19103
  },
  {
    "city": "Saint George’s Hill",
    "city_zh": "Saint George’s Hill",
    "country": "Montserrat",
    "country_zh": "Montserrat",
    "country_iso_code": "MS",
    "timezone": "America/Montserrat",
    "latitude": 16.72399,
    "longitude": -62.20861
  },
  {
    "city": "Ryners",
    "city_zh": "Ryners",
    "country": "Montserrat",
    "country_zh": "Montserrat",
    "country_iso_code": "MS",
    "timezone": "America/Montserrat",
    "latitude": 16.70971,
    "longitude": -62.21871
  },
  {
    "city": "Rocklands",
    "city_zh": "Rocklands",
    "country": "Montserrat",
    "country_zh": "Montserrat",
    "country_iso_code": "MS",
    "timezone": "America/Montserrat",
    "latitude": 16.74193,
    "longitude": -62.21965
  },
  {
    "city": "Roche’s Yard",
    "city_zh": "Roche’s Yard",
    "country": "Montserrat",
    "country_zh": "Montserrat",
    "country_iso_code": "MS",
    "timezone": "America/Montserrat",
    "latitude": 16.70155,
    "longitude": -62.15688
  },
  {
    "city": "Richmond Hill",
    "city_zh": "Richmond Hill",
    "country": "Montserrat",
    "country_zh": "Montserrat",
    "country_iso_code": "MS",
    "timezone": "America/Montserrat",
    "latitude": 16.71858,
    "longitude": -62.22433
  },
  {
    "city": "Richmond",
    "city_zh": "Richmond",
    "country": "Montserrat",
    "country_zh": "Montserrat",
    "country_iso_code": "MS",
    "timezone": "America/Montserrat",
    "latitude": 16.71597,
    "longitude": -62.22669
  },
  {
    "city": "Rendezvous",
    "city_zh": "Rendezvous",
    "country": "Montserrat",
    "country_zh": "Montserrat",
    "country_iso_code": "MS",
    "timezone": "America/Montserrat",
    "latitude": 16.80894,
    "longitude": -62.19958
  },
  {
    "city": "Pond Bottom",
    "city_zh": "Pond Bottom",
    "country": "Montserrat",
    "country_zh": "Montserrat",
    "country_iso_code": "MS",
    "timezone": "America/Montserrat",
    "latitude": 16.78139,
    "longitude": -62.20989
  },
  {
    "city": "Plymouth",
    "city_zh": "普利茅斯",
    "country": "Montserrat",
    "country_zh": "Montserrat",
    "country_iso_code": "MS",
    "timezone": "America/Montserrat",
    "latitude": 16.70555,
    "longitude": -62.21292
  },
  {
    "city": "Parsons",
    "city_zh": "Parsons",
    "country": "Montserrat",
    "country_zh": "Montserrat",
    "country_iso_code": "MS",
    "timezone": "America/Montserrat",
    "latitude": 16.70589,
    "longitude": -62.20911
  },
  {
    "city": "Olveston",
    "city_zh": "Olveston",
    "country": "Montserrat",
    "country_zh": "Montserrat",
    "country_iso_code": "MS",
    "timezone": "America/Montserrat",
    "latitude": 16.75433,
    "longitude": -62.22884
  },
  {
    "city": "Old Towne",
    "city_zh": "Old Towne",
    "country": "Montserrat",
    "country_zh": "Montserrat",
    "country_iso_code": "MS",
    "timezone": "America/Montserrat",
    "latitude": 16.74693,
    "longitude": -62.23369
  },
  {
    "city": "Old Norwood",
    "city_zh": "Old Norwood",
    "country": "Montserrat",
    "country_zh": "Montserrat",
    "country_iso_code": "MS",
    "timezone": "America/Montserrat",
    "latitude": 16.78607,
    "longitude": -62.19842
  },
  {
    "city": "Nixons",
    "city_zh": "Nixons",
    "country": "Montserrat",
    "country_zh": "Montserrat",
    "country_iso_code": "MS",
    "timezone": "America/Montserrat",
    "latitude": 16.78001,
    "longitude": -62.21266
  },
  {
    "city": "Morris’",
    "city_zh": "Morris’",
    "country": "Montserrat",
    "country_zh": "Montserrat",
    "country_iso_code": "MS",
    "timezone": "America/Montserrat",
    "latitude": 16.68524,
    "longitude": -62.18193
  },
  {
    "city": "Molyneux",
    "city_zh": "Molyneux",
    "country": "Montserrat",
    "country_zh": "Montserrat",
    "country_iso_code": "MS",
    "timezone": "America/Montserrat",
    "latitude": 16.72684,
    "longitude": -62.19712
  },
  {
    "city": "Marko Bottom",
    "city_zh": "Marko Bottom",
    "country": "Montserrat",
    "country_zh": "Montserrat",
    "country_iso_code": "MS",
    "timezone": "America/Montserrat",
    "latitude": 16.78482,
    "longitude": -62.21242
  },
  {
    "city": "Mango Hill",
    "city_zh": "Mango Hill",
    "country": "Montserrat",
    "country_zh": "Montserrat",
    "country_iso_code": "MS",
    "timezone": "America/Montserrat",
    "latitude": 16.77616,
    "longitude": -62.19673
  },
  {
    "city": "Long Ground Village (Destroyed)",
    "city_zh": "Long Ground Village (Destroyed)",
    "country": "Montserrat",
    "country_zh": "Montserrat",
    "country_iso_code": "MS",
    "timezone": "America/Montserrat",
    "latitude": 16.70941,
    "longitude": -62.16498
  },
  {
    "city": "Lee’s",
    "city_zh": "Lee’s",
    "country": "Montserrat",
    "country_zh": "Montserrat",
    "country_iso_code": "MS",
    "timezone": "America/Montserrat",
    "latitude": 16.72355,
    "longitude": -62.19956
  },
  {
    "city": "Kinsale",
    "city_zh": "Kinsale",
    "country": "Montserrat",
    "country_zh": "Montserrat",
    "country_iso_code": "MS",
    "timezone": "America/Montserrat",
    "latitude": 16.69593,
    "longitude": -62.20858
  },
  {
    "city": "Judy Piece",
    "city_zh": "Judy Piece",
    "country": "Montserrat",
    "country_zh": "Montserrat",
    "country_iso_code": "MS",
    "timezone": "America/Montserrat",
    "latitude": 16.78086,
    "longitude": -62.19309
  },
  {
    "city": "Jubilee Town",
    "city_zh": "Jubilee Town",
    "country": "Montserrat",
    "country_zh": "Montserrat",
    "country_iso_code": "MS",
    "timezone": "America/Montserrat",
    "latitude": 16.70415,
    "longitude": -62.2174
  },
  {
    "city": "Iles Bay",
    "city_zh": "Iles Bay",
    "country": "Montserrat",
    "country_zh": "Montserrat",
    "country_iso_code": "MS",
    "timezone": "America/Montserrat",
    "latitude": 16.7366,
    "longitude": -62.23012
  },
  {
    "city": "Iles Bay",
    "city_zh": "Iles Bay",
    "country": "Montserrat",
    "country_zh": "Montserrat",
    "country_iso_code": "MS",
    "timezone": "America/Montserrat",
    "latitude": 16.73514,
    "longitude": -62.21785
  },
  {
    "city": "Hope",
    "city_zh": "Hope",
    "country": "Montserrat",
    "country_zh": "Montserrat",
    "country_iso_code": "MS",
    "timezone": "America/Montserrat",
    "latitude": 16.74854,
    "longitude": -62.21766
  },
  {
    "city": "Hodge’s Hill",
    "city_zh": "Hodge’s Hill",
    "country": "Montserrat",
    "country_zh": "Montserrat",
    "country_iso_code": "MS",
    "timezone": "America/Montserrat",
    "latitude": 16.73075,
    "longitude": -62.19918
  },
  {
    "city": "Harris",
    "city_zh": "Harris",
    "country": "Montserrat",
    "country_zh": "Montserrat",
    "country_iso_code": "MS",
    "timezone": "America/Montserrat",
    "latitude": 16.74172,
    "longitude": -62.17124
  },
  {
    "city": "Happy Hill",
    "city_zh": "Happy Hill",
    "country": "Montserrat",
    "country_zh": "Montserrat",
    "country_iso_code": "MS",
    "timezone": "America/Montserrat",
    "latitude": 16.74189,
    "longitude": -62.22301
  },
  {
    "city": "Gun Hill",
    "city_zh": "Gun Hill",
    "country": "Montserrat",
    "country_zh": "Montserrat",
    "country_iso_code": "MS",
    "timezone": "America/Montserrat",
    "latitude": 16.72972,
    "longitude": -62.19171
  },
  {
    "city": "Glen Mhor",
    "city_zh": "Glen Mhor",
    "country": "Montserrat",
    "country_zh": "Montserrat",
    "country_iso_code": "MS",
    "timezone": "America/Montserrat",
    "latitude": 16.71579,
    "longitude": -62.20496
  },
  {
    "city": "Gingoes",
    "city_zh": "Gingoes",
    "country": "Montserrat",
    "country_zh": "Montserrat",
    "country_iso_code": "MS",
    "timezone": "America/Montserrat",
    "latitude": 16.68868,
    "longitude": -62.20949
  },
  {
    "city": "Gerald’s Bottom",
    "city_zh": "Gerald’s Bottom",
    "country": "Montserrat",
    "country_zh": "Montserrat",
    "country_iso_code": "MS",
    "timezone": "America/Montserrat",
    "latitude": 16.79042,
    "longitude": -62.1977
  },
  {
    "city": "Gerald's",
    "city_zh": "Gerald's",
    "country": "Montserrat",
    "country_zh": "Montserrat",
    "country_iso_code": "MS",
    "timezone": "America/Montserrat",
    "latitude": 16.79575,
    "longitude": -62.19356
  },
  {
    "city": "Gages",
    "city_zh": "Gages",
    "country": "Montserrat",
    "country_zh": "Montserrat",
    "country_iso_code": "MS",
    "timezone": "America/Montserrat",
    "latitude": 16.72614,
    "longitude": -62.19678
  },
  {
    "city": "Frith",
    "city_zh": "Frith",
    "country": "Montserrat",
    "country_zh": "Montserrat",
    "country_iso_code": "MS",
    "timezone": "America/Montserrat",
    "latitude": 16.7448,
    "longitude": -62.21798
  },
  {
    "city": "Fox's Bay",
    "city_zh": "Fox's Bay",
    "country": "Montserrat",
    "country_zh": "Montserrat",
    "country_iso_code": "MS",
    "timezone": "America/Montserrat",
    "latitude": 16.72873,
    "longitude": -62.23317
  },
  {
    "city": "Fogarty",
    "city_zh": "Fogarty",
    "country": "Montserrat",
    "country_zh": "Montserrat",
    "country_iso_code": "MS",
    "timezone": "America/Montserrat",
    "latitude": 16.77334,
    "longitude": -62.21383
  },
  {
    "city": "Fleming",
    "city_zh": "Fleming",
    "country": "Montserrat",
    "country_zh": "Montserrat",
    "country_iso_code": "MS",
    "timezone": "America/Montserrat",
    "latitude": 16.74499,
    "longitude": -62.21685
  },
  {
    "city": "Farm",
    "city_zh": "Farm",
    "country": "Montserrat",
    "country_zh": "Montserrat",
    "country_iso_code": "MS",
    "timezone": "America/Montserrat",
    "latitude": 16.7353,
    "longitude": -62.16506
  },
  {
    "city": "Fairfield",
    "city_zh": "Fairfield",
    "country": "Montserrat",
    "country_zh": "Montserrat",
    "country_iso_code": "MS",
    "timezone": "America/Montserrat",
    "latitude": 16.69587,
    "longitude": -62.21154
  },
  {
    "city": "Dyer’s",
    "city_zh": "Dyer’s",
    "country": "Montserrat",
    "country_zh": "Montserrat",
    "country_iso_code": "MS",
    "timezone": "America/Montserrat",
    "latitude": 16.72798,
    "longitude": -62.19648
  },
  {
    "city": "Duberry Hill",
    "city_zh": "Duberry Hill",
    "country": "Montserrat",
    "country_zh": "Montserrat",
    "country_iso_code": "MS",
    "timezone": "America/Montserrat",
    "latitude": 16.7584,
    "longitude": -62.22174
  },
  {
    "city": "Drummond’s",
    "city_zh": "Drummond’s",
    "country": "Montserrat",
    "country_zh": "Montserrat",
    "country_iso_code": "MS",
    "timezone": "America/Montserrat",
    "latitude": 16.80065,
    "longitude": -62.19736
  },
  {
    "city": "Dick Hill",
    "city_zh": "Dick Hill",
    "country": "Montserrat",
    "country_zh": "Montserrat",
    "country_iso_code": "MS",
    "timezone": "America/Montserrat",
    "latitude": 16.77879,
    "longitude": -62.19315
  },
  {
    "city": "Delvins",
    "city_zh": "Delvins",
    "country": "Montserrat",
    "country_zh": "Montserrat",
    "country_iso_code": "MS",
    "timezone": "America/Montserrat",
    "latitude": 16.7251,
    "longitude": -62.22454
  },
  {
    "city": "Davy Hill",
    "city_zh": "Davy Hill",
    "country": "Montserrat",
    "country_zh": "Montserrat",
    "country_iso_code": "MS",
    "timezone": "America/Montserrat",
    "latitude": 16.79443,
    "longitude": -62.2051
  },
  {
    "city": "Cudjoe Head",
    "city_zh": "Cudjoe Head",
    "country": "Montserrat",
    "country_zh": "Montserrat",
    "country_iso_code": "MS",
    "timezone": "America/Montserrat",
    "latitude": 16.78441,
    "longitude": -62.20819
  },
  {
    "city": "Cork Hill",
    "city_zh": "Cork Hill",
    "country": "Montserrat",
    "country_zh": "Montserrat",
    "country_iso_code": "MS",
    "timezone": "America/Montserrat",
    "latitude": 16.72925,
    "longitude": -62.21883
  },
  {
    "city": "Cheapend",
    "city_zh": "Cheapend",
    "country": "Montserrat",
    "country_zh": "Montserrat",
    "country_iso_code": "MS",
    "timezone": "America/Montserrat",
    "latitude": 16.74203,
    "longitude": -62.21975
  },
  {
    "city": "Cavalla Hill",
    "city_zh": "Cavalla Hill",
    "country": "Montserrat",
    "country_zh": "Montserrat",
    "country_iso_code": "MS",
    "timezone": "America/Montserrat",
    "latitude": 16.77658,
    "longitude": -62.20574
  },
  {
    "city": "Bramble (Destroyed)",
    "city_zh": "Bramble (Destroyed)",
    "country": "Montserrat",
    "country_zh": "Montserrat",
    "country_iso_code": "MS",
    "timezone": "America/Montserrat",
    "latitude": 16.71792,
    "longitude": -62.16515
  },
  {
    "city": "Black Ghaut Basin",
    "city_zh": "Black Ghaut Basin",
    "country": "Montserrat",
    "country_zh": "Montserrat",
    "country_iso_code": "MS",
    "timezone": "America/Montserrat",
    "latitude": 16.78848,
    "longitude": -62.21444
  },
  {
    "city": "Bethel (Destroyed)",
    "city_zh": "Bethel (Destroyed)",
    "country": "Montserrat",
    "country_zh": "Montserrat",
    "country_iso_code": "MS",
    "timezone": "America/Montserrat",
    "latitude": 16.74693,
    "longitude": -62.15464
  },
  {
    "city": "Beech Hill",
    "city_zh": "Beech Hill",
    "country": "Montserrat",
    "country_zh": "Montserrat",
    "country_iso_code": "MS",
    "timezone": "America/Montserrat",
    "latitude": 16.73494,
    "longitude": -62.1932
  },
  {
    "city": "Banks",
    "city_zh": "Banks",
    "country": "Montserrat",
    "country_zh": "Montserrat",
    "country_iso_code": "MS",
    "timezone": "America/Montserrat",
    "latitude": 16.78374,
    "longitude": -62.21464
  },
  {
    "city": "Banks Level",
    "city_zh": "Banks Level",
    "country": "Montserrat",
    "country_zh": "Montserrat",
    "country_iso_code": "MS",
    "timezone": "America/Montserrat",
    "latitude": 16.78612,
    "longitude": -62.21611
  },
  {
    "city": "Baker Hill",
    "city_zh": "Baker Hill",
    "country": "Montserrat",
    "country_zh": "Montserrat",
    "country_iso_code": "MS",
    "timezone": "America/Montserrat",
    "latitude": 16.7774,
    "longitude": -62.20939
  },
  {
    "city": "Amersham",
    "city_zh": "Amersham",
    "country": "Montserrat",
    "country_zh": "Montserrat",
    "country_iso_code": "MS",
    "timezone": "America/Montserrat",
    "latitude": 16.70159,
    "longitude": -62.21265
  },
  {
    "city": "Hell's Gate",
    "city_zh": "Hell's Gate",
    "country": "Montserrat",
    "country_zh": "Montserrat",
    "country_iso_code": "MS",
    "timezone": "America/Montserrat",
    "latitude": 16.8183,
    "longitude": -62.18438
  },
  {
    "city": "Brades",
    "city_zh": "布莱兹",
    "country": "Montserrat",
    "country_zh": "Montserrat",
    "country_iso_code": "MS",
    "timezone": "America/Montserrat",
    "latitude": 16.79183,
    "longitude": -62.21058
  },
  {
    "city": "Old Town",
    "city_zh": "Old Town",
    "country": "Montserrat",
    "country_zh": "Montserrat",
    "country_iso_code": "MS",
    "timezone": "America/Montserrat",
    "latitude": 16.72339,
    "longitude": -62.23489
  },
  {
    "city": "Elberton",
    "city_zh": "Elberton",
    "country": "Montserrat",
    "country_zh": "Montserrat",
    "country_iso_code": "MS",
    "timezone": "America/Montserrat",
    "latitude": 16.72511,
    "longitude": -62.22781
  },
  {
    "city": "Garibaldi Hill",
    "city_zh": "Garibaldi Hill",
    "country": "Montserrat",
    "country_zh": "Montserrat",
    "country_iso_code": "MS",
    "timezone": "America/Montserrat",
    "latitude": 16.73958,
    "longitude": -62.23042
  }
]