[
  {
    "city": "Zuze",
    "city_zh": "Zuze",
    "country": "Tanzania",
    "country_zh": "坦尚尼亞",
    "country_iso_code": "TZ",
    "timezone": "Africa/Dar_es_Salaam",
    "latitude": -6.13333,
    "longitude": 39.33333
  },
  {
    "city": "Zungukeni",
    "city_zh": "Zungukeni",
    "country": "Tanzania",
    "country_zh": "坦尚尼亞",
    "country_iso_code": "TZ",
    "timezone": "Africa/Dar_es_Salaam",
    "latitude": -6.05,
    "longitude": 39.25
  },
  {
    "city": "Zuiani",
    "city_zh": "Zuiani",
    "country": "Tanzania",
    "country_zh": "坦尚尼亞",
    "country_iso_code": "TZ",
    "timezone": "Africa/Dar_es_Salaam",
    "latitude": -5.4,
    "longitude": 39.68333
  },
  {
    "city": "Zuboro",
    "city_zh": "Zuboro",
    "country": "Tanzania",
    "country_zh": "坦尚尼亞",
    "country_iso_code": "TZ",
    "timezone": "Africa/Dar_es_Salaam",
    "latitude": -5.58333,
    "longitude": 35.16667
  },
  {
    "city": "Zozoichi",
    "city_zh": "Zozoichi",
    "country": "Tanzania",
    "country_zh": "坦尚尼亞",
    "country_iso_code": "TZ",
    "timezone": "Africa/Dar_es_Salaam",
    "latitude": -5.78333,
    "longitude": 35.5
  },
  {
    "city": "Zongomero",
    "city_zh": "Zongomero",
    "country": "Tanzania",
    "country_zh": "坦尚尼亞",
    "country_iso_code": "TZ",
    "timezone": "Africa/Dar_es_Salaam",
    "latitude": -7.45,
    "longitude": 37.55
  },
  {
    "city": "Zongomera",
    "city_zh": "Zongomera",
    "country": "Tanzania",
    "country_zh": "坦尚尼亞",
    "country_iso_code": "TZ",
    "timezone": "Africa/Dar_es_Salaam",
    "latitude": -3.86667,
    "longitude": 32.55
  },
  {
    "city": "Zombo",
    "city_zh": "Zombo",
    "country": "Tanzania",
    "country_zh": "坦尚尼亞",
    "country_iso_code": "TZ",
    "timezone": "Africa/Dar_es_Salaam",
    "latitude": -6.96667,
    "longitude": 36.9
  },
  {
    "city": "Zombe",
    "city_zh": "Zombe",
    "country": "Tanzania",
    "country_zh": "坦尚尼亞",
    "country_iso_code": "TZ",
    "timezone": "Africa/Dar_es_Salaam",
    "latitude": -7.80577,
    "longitude": 38.27047
  },
  {
    "city": "Zoissa",
    "city_zh": "Zoissa",
    "country": "Tanzania",
    "country_zh": "坦尚尼亞",
    "country_iso_code": "TZ",
    "timezone": "Africa/Dar_es_Salaam",
    "latitude": -5.68333,
    "longitude": 36.38333
  },
  {
    "city": "Ziwani",
    "city_zh": "Ziwani",
    "country": "Tanzania",
    "country_zh": "坦尚尼亞",
    "country_iso_code": "TZ",
    "timezone": "Africa/Dar_es_Salaam",
    "latitude": -6.31667,
    "longitude": 39.28333
  },
  {
    "city": "Ziwani",
    "city_zh": "Ziwani",
    "country": "Tanzania",
    "country_zh": "坦尚尼亞",
    "country_iso_code": "TZ",
    "timezone": "Africa/Dar_es_Salaam",
    "latitude": -5.96667,
    "longitude": 39.3
  },
  {
    "city": "Ziwani",
    "city_zh": "Ziwani",
    "country": "Tanzania",
    "country_zh": "坦尚尼亞",
    "country_iso_code": "TZ",
    "timezone": "Africa/Dar_es_Salaam",
    "latitude": -5.3,
    "longitude": 39.05
  },
  {
    "city": "Ziwani",
    "city_zh": "Ziwani",
    "country": "Tanzania",
    "country_zh": "坦尚尼亞",
    "country_iso_code": "TZ",
    "timezone": "Africa/Dar_es_Salaam",
    "latitude": -5.21667,
    "longitude": 39.83333
  },
  {
    "city": "Ziwani",
    "city_zh": "Ziwani",
    "country": "Tanzania",
    "country_zh": "坦尚尼亞",
    "country_iso_code": "TZ",
    "timezone": "Africa/Dar_es_Salaam",
    "latitude": -5.16667,
    "longitude": 39.76667
  },
  {
    "city": "Ziwani",
    "city_zh": "Ziwani",
    "country": "Tanzania",
    "country_zh": "坦尚尼亞",
    "country_iso_code": "TZ",
    "timezone": "Africa/Dar_es_Salaam",
    "latitude": -5.11667,
    "longitude": 39.81667
  },
  {
    "city": "Ziwani",
    "city_zh": "Ziwani",
    "country": "Tanzania",
    "country_zh": "坦尚尼亞",
    "country_iso_code": "TZ",
    "timezone": "Africa/Dar_es_Salaam",
    "latitude": -5.06667,
    "longitude": 39.81667
  },
  {
    "city": "Zitengeni",
    "city_zh": "Zitengeni",
    "country": "Tanzania",
    "country_zh": "坦尚尼亞",
    "country_iso_code": "TZ",
    "timezone": "Africa/Dar_es_Salaam",
    "latitude": -4.70355,
    "longitude": 39.12274
  },
  {
    "city": "Zira",
    "city_zh": "Zira",
    "country": "Tanzania",
    "country_zh": "坦尚尼亞",
    "country_iso_code": "TZ",
    "timezone": "Africa/Dar_es_Salaam",
    "latitude": -8.68333,
    "longitude": 33.23333
  },
  {
    "city": "Zipisa",
    "city_zh": "Zipisa",
    "country": "Tanzania",
    "country_zh": "坦尚尼亞",
    "country_iso_code": "TZ",
    "timezone": "Africa/Dar_es_Salaam",
    "latitude": -5.95,
    "longitude": 35.91667
  },
  {
    "city": "Zingwe Zingwe",
    "city_zh": "Zingwe Zingwe",
    "country": "Tanzania",
    "country_zh": "坦尚尼亞",
    "country_iso_code": "TZ",
    "timezone": "Africa/Dar_es_Salaam",
    "latitude": -6.01667,
    "longitude": 39.25
  },
  {
    "city": "Zingwe Zingwe",
    "city_zh": "Zingwe Zingwe",
    "country": "Tanzania",
    "country_zh": "坦尚尼亞",
    "country_iso_code": "TZ",
    "timezone": "Africa/Dar_es_Salaam",
    "latitude": -6.0,
    "longitude": 39.23333
  },
  {
    "city": "Zingwe Zingwe",
    "city_zh": "Zingwe Zingwe",
    "country": "Tanzania",
    "country_zh": "坦尚尼亞",
    "country_iso_code": "TZ",
    "timezone": "Africa/Dar_es_Salaam",
    "latitude": -6.0,
    "longitude": 39.21667
  },
  {
    "city": "Zingibaru",
    "city_zh": "Zingibaru",
    "country": "Tanzania",
    "country_zh": "坦尚尼亞",
    "country_iso_code": "TZ",
    "timezone": "Africa/Dar_es_Salaam",
    "latitude": -4.76667,
    "longitude": 39.16667
  },
  {
    "city": "Zingi",
    "city_zh": "Zingi",
    "country": "Tanzania",
    "country_zh": "坦尚尼亞",
    "country_iso_code": "TZ",
    "timezone": "Africa/Dar_es_Salaam",
    "latitude": -4.98333,
    "longitude": 38.75
  },
  {
    "city": "Zinga Ngahama",
    "city_zh": "Zinga Ngahama",
    "country": "Tanzania",
    "country_zh": "坦尚尼亞",
    "country_iso_code": "TZ",
    "timezone": "Africa/Dar_es_Salaam",
    "latitude": -9.0,
    "longitude": 38.8
  },
  {
    "city": "Zinga Nakingombe",
    "city_zh": "Zinga Nakingombe",
    "country": "Tanzania",
    "country_zh": "坦尚尼亞",
    "country_iso_code": "TZ",
    "timezone": "Africa/Dar_es_Salaam",
    "latitude": -8.9,
    "longitude": 38.83333
  },
  {
    "city": "Zinga Mulike",
    "city_zh": "Zinga Mulike",
    "country": "Tanzania",
    "country_zh": "坦尚尼亞",
    "country_iso_code": "TZ",
    "timezone": "Africa/Dar_es_Salaam",
    "latitude": -9.15,
    "longitude": 38.73333
  },
  {
    "city": "Zinga",
    "city_zh": "Zinga",
    "country": "Tanzania",
    "country_zh": "坦尚尼亞",
    "country_iso_code": "TZ",
    "timezone": "Africa/Dar_es_Salaam",
    "latitude": -6.51667,
    "longitude": 38.98333
  },
  {
    "city": "Zimtini",
    "city_zh": "Zimtini",
    "country": "Tanzania",
    "country_zh": "坦尚尼亞",
    "country_iso_code": "TZ",
    "timezone": "Africa/Dar_es_Salaam",
    "latitude": -5.4,
    "longitude": 39.7
  },
  {
    "city": "Zimhali",
    "city_zh": "Zimhali",
    "country": "Tanzania",
    "country_zh": "坦尚尼亞",
    "country_iso_code": "TZ",
    "timezone": "Africa/Dar_es_Salaam",
    "latitude": -4.93333,
    "longitude": 38.78333
  },
  {
    "city": "Zimbili",
    "city_zh": "Zimbili",
    "country": "Tanzania",
    "country_zh": "坦尚尼亞",
    "country_iso_code": "TZ",
    "timezone": "Africa/Dar_es_Salaam",
    "latitude": -5.35,
    "longitude": 38.96667
  },
  {
    "city": "Zimbili",
    "city_zh": "Zimbili",
    "country": "Tanzania",
    "country_zh": "坦尚尼亞",
    "country_iso_code": "TZ",
    "timezone": "Africa/Dar_es_Salaam",
    "latitude": -5.21667,
    "longitude": 38.71667
  },
  {
    "city": "Zimbili",
    "city_zh": "Zimbili",
    "country": "Tanzania",
    "country_zh": "坦尚尼亞",
    "country_iso_code": "TZ",
    "timezone": "Africa/Dar_es_Salaam",
    "latitude": -5.11667,
    "longitude": 38.71667
  },
  {
    "city": "Zimbili",
    "city_zh": "Zimbili",
    "country": "Tanzania",
    "country_zh": "坦尚尼亞",
    "country_iso_code": "TZ",
    "timezone": "Africa/Dar_es_Salaam",
    "latitude": -4.91667,
    "longitude": 38.96667
  },
  {
    "city": "Zimba",
    "city_zh": "Zimba",
    "country": "Tanzania",
    "country_zh": "坦尚尼亞",
    "country_iso_code": "TZ",
    "timezone": "Africa/Dar_es_Salaam",
    "latitude": -7.86667,
    "longitude": 31.81667
  },
  {
    "city": "Zigaya",
    "city_zh": "Zigaya",
    "country": "Tanzania",
    "country_zh": "坦尚尼亞",
    "country_iso_code": "TZ",
    "timezone": "Africa/Dar_es_Salaam",
    "latitude": -4.69832,
    "longitude": 39.11293
  },
  {
    "city": "Ziba",
    "city_zh": "Ziba",
    "country": "Tanzania",
    "country_zh": "坦尚尼亞",
    "country_iso_code": "TZ",
    "timezone": "Africa/Dar_es_Salaam",
    "latitude": -4.25,
    "longitude": 33.4
  },
  {
    "city": "Zawardini",
    "city_zh": "Zawardini",
    "country": "Tanzania",
    "country_zh": "坦尚尼亞",
    "country_iso_code": "TZ",
    "timezone": "Africa/Dar_es_Salaam",
    "latitude": -5.35,
    "longitude": 39.71667
  },
  {
    "city": "Zashe",
    "city_zh": "Zashe",
    "country": "Tanzania",
    "country_zh": "坦尚尼亞",
    "country_iso_code": "TZ",
    "timezone": "Africa/Dar_es_Salaam",
    "latitude": -4.51667,
    "longitude": 29.65
  },
  {
    "city": "Zanzibar",
    "city_zh": "桑给巴尔市",
    "country": "Tanzania",
    "country_zh": "坦尚尼亞",
    "country_iso_code": "TZ",
    "timezone": "Africa/Dar_es_Salaam",
    "latitude": -6.16394,
    "longitude": 39.19793
  },
  {
    "city": "Zangha",
    "city_zh": "Zangha",
    "country": "Tanzania",
    "country_zh": "坦尚尼亞",
    "country_iso_code": "TZ",
    "timezone": "Africa/Dar_es_Salaam",
    "latitude": -5.83333,
    "longitude": 35.76667
  },
  {
    "city": "Zangerawe",
    "city_zh": "Zangerawe",
    "country": "Tanzania",
    "country_zh": "坦尚尼亞",
    "country_iso_code": "TZ",
    "timezone": "Africa/Dar_es_Salaam",
    "latitude": -5.5,
    "longitude": 38.61667
  },
  {
    "city": "Zange",
    "city_zh": "Zange",
    "country": "Tanzania",
    "country_zh": "坦尚尼亞",
    "country_iso_code": "TZ",
    "timezone": "Africa/Dar_es_Salaam",
    "latitude": -4.03333,
    "longitude": 37.8
  },
  {
    "city": "Zanaki",
    "city_zh": "Zanaki",
    "country": "Tanzania",
    "country_zh": "坦尚尼亞",
    "country_iso_code": "TZ",
    "timezone": "Africa/Dar_es_Salaam",
    "latitude": -1.71667,
    "longitude": 33.98333
  },
  {
    "city": "Zaizo",
    "city_zh": "Zaizo",
    "country": "Tanzania",
    "country_zh": "坦尚尼亞",
    "country_iso_code": "TZ",
    "timezone": "Africa/Dar_es_Salaam",
    "latitude": -4.6,
    "longitude": 38.35
  },
  {
    "city": "Zagilwa",
    "city_zh": "Zagilwa",
    "country": "Tanzania",
    "country_zh": "坦尚尼亞",
    "country_iso_code": "TZ",
    "timezone": "Africa/Dar_es_Salaam",
    "latitude": -5.55,
    "longitude": 36.08333
  },
  {
    "city": "Zagayu",
    "city_zh": "Zagayu",
    "country": "Tanzania",
    "country_zh": "坦尚尼亞",
    "country_iso_code": "TZ",
    "timezone": "Africa/Dar_es_Salaam",
    "latitude": -2.95,
    "longitude": 33.75
  },
  {
    "city": "Yula",
    "city_zh": "Yula",
    "country": "Tanzania",
    "country_zh": "坦尚尼亞",
    "country_iso_code": "TZ",
    "timezone": "Africa/Dar_es_Salaam",
    "latitude": -9.05,
    "longitude": 33.11667
  },
  {
    "city": "Yombo",
    "city_zh": "Yombo",
    "country": "Tanzania",
    "country_zh": "坦尚尼亞",
    "country_iso_code": "TZ",
    "timezone": "Africa/Dar_es_Salaam",
    "latitude": -7.32268,
    "longitude": 38.72251
  },
  {
    "city": "Yombo",
    "city_zh": "Yombo",
    "country": "Tanzania",
    "country_zh": "坦尚尼亞",
    "country_iso_code": "TZ",
    "timezone": "Africa/Dar_es_Salaam",
    "latitude": -6.56667,
    "longitude": 38.85
  },
  {
    "city": "Yogelo",
    "city_zh": "Yogelo",
    "country": "Tanzania",
    "country_zh": "坦尚尼亞",
    "country_iso_code": "TZ",
    "timezone": "Africa/Dar_es_Salaam",
    "latitude": -4.16667,
    "longitude": 33.46667
  },
  {
    "city": "Yodzu",
    "city_zh": "Yodzu",
    "country": "Tanzania",
    "country_zh": "坦尚尼亞",
    "country_iso_code": "TZ",
    "timezone": "Africa/Dar_es_Salaam",
    "latitude": -2.56667,
    "longitude": 31.71667
  },
  {
    "city": "Yirihini",
    "city_zh": "Yirihini",
    "country": "Tanzania",
    "country_zh": "坦尚尼亞",
    "country_iso_code": "TZ",
    "timezone": "Africa/Dar_es_Salaam",
    "latitude": -4.95,
    "longitude": 38.91667
  },
  {
    "city": "Yibandeni",
    "city_zh": "Yibandeni",
    "country": "Tanzania",
    "country_zh": "坦尚尼亞",
    "country_iso_code": "TZ",
    "timezone": "Africa/Dar_es_Salaam",
    "latitude": -5.23333,
    "longitude": 38.76667
  },
  {
    "city": "Yelayela",
    "city_zh": "Yelayela",
    "country": "Tanzania",
    "country_zh": "坦尚尼亞",
    "country_iso_code": "TZ",
    "timezone": "Africa/Dar_es_Salaam",
    "latitude": -5.21667,
    "longitude": 32.41667
  },
  {
    "city": "Yasiro",
    "city_zh": "Yasiro",
    "country": "Tanzania",
    "country_zh": "坦尚尼亞",
    "country_iso_code": "TZ",
    "timezone": "Africa/Dar_es_Salaam",
    "latitude": -6.98333,
    "longitude": 37.65
  },
  {
    "city": "Yamba",
    "city_zh": "Yamba",
    "country": "Tanzania",
    "country_zh": "坦尚尼亞",
    "country_iso_code": "TZ",
    "timezone": "Africa/Dar_es_Salaam",
    "latitude": -4.78333,
    "longitude": 38.35
  },
  {
    "city": "Yala",
    "city_zh": "Yala",
    "country": "Tanzania",
    "country_zh": "坦尚尼亞",
    "country_iso_code": "TZ",
    "timezone": "Africa/Dar_es_Salaam",
    "latitude": -8.55,
    "longitude": 34.06667
  },
  {
    "city": "Yaira",
    "city_zh": "Yaira",
    "country": "Tanzania",
    "country_zh": "坦尚尼亞",
    "country_iso_code": "TZ",
    "timezone": "Africa/Dar_es_Salaam",
    "latitude": -5.35,
    "longitude": 38.96667
  },
  {
    "city": "Yaeda",
    "city_zh": "Yaeda",
    "country": "Tanzania",
    "country_zh": "坦尚尼亞",
    "country_iso_code": "TZ",
    "timezone": "Africa/Dar_es_Salaam",
    "latitude": -3.97255,
    "longitude": 35.17059
  },
  {
    "city": "Yagaba",
    "city_zh": "Yagaba",
    "country": "Tanzania",
    "country_zh": "坦尚尼亞",
    "country_iso_code": "TZ",
    "timezone": "Africa/Dar_es_Salaam",
    "latitude": -2.86667,
    "longitude": 30.46667
  },
  {
    "city": "Wulala",
    "city_zh": "Wulala",
    "country": "Tanzania",
    "country_zh": "坦尚尼亞",
    "country_iso_code": "TZ",
    "timezone": "Africa/Dar_es_Salaam",
    "latitude": -5.41667,
    "longitude": 38.46667
  },
  {
    "city": "Wota",
    "city_zh": "Wota",
    "country": "Tanzania",
    "country_zh": "坦尚尼亞",
    "country_iso_code": "TZ",
    "timezone": "Africa/Dar_es_Salaam",
    "latitude": -6.68333,
    "longitude": 36.3
  },
  {
    "city": "Winza",
    "city_zh": "Winza",
    "country": "Tanzania",
    "country_zh": "坦尚尼亞",
    "country_iso_code": "TZ",
    "timezone": "Africa/Dar_es_Salaam",
    "latitude": -7.01378,
    "longitude": 36.38628
  },
  {
    "city": "Wino",
    "city_zh": "Wino",
    "country": "Tanzania",
    "country_zh": "坦尚尼亞",
    "country_iso_code": "TZ",
    "timezone": "Africa/Dar_es_Salaam",
    "latitude": -9.78333,
    "longitude": 35.3
  },
  {
    "city": "Mwino",
    "city_zh": "Mwino",
    "country": "Tanzania",
    "country_zh": "坦尚尼亞",
    "country_iso_code": "TZ",
    "timezone": "Africa/Dar_es_Salaam",
    "latitude": -7.42225,
    "longitude": 36.22721
  },
  {
    "city": "Wingwi",
    "city_zh": "Wingwi",
    "country": "Tanzania",
    "country_zh": "坦尚尼亞",
    "country_iso_code": "TZ",
    "timezone": "Africa/Dar_es_Salaam",
    "latitude": -5.0,
    "longitude": 39.83333
  },
  {
    "city": "Winenekeza",
    "city_zh": "Winenekeza",
    "country": "Tanzania",
    "country_zh": "坦尚尼亞",
    "country_iso_code": "TZ",
    "timezone": "Africa/Dar_es_Salaam",
    "latitude": -3.05,
    "longitude": 32.88333
  },
  {
    "city": "Wikongwe",
    "city_zh": "Wikongwe",
    "country": "Tanzania",
    "country_zh": "坦尚尼亞",
    "country_iso_code": "TZ",
    "timezone": "Africa/Dar_es_Salaam",
    "latitude": -6.05,
    "longitude": 30.91667
  },
  {
    "city": "Wewe",
    "city_zh": "Wewe",
    "country": "Tanzania",
    "country_zh": "坦尚尼亞",
    "country_iso_code": "TZ",
    "timezone": "Africa/Dar_es_Salaam",
    "latitude": -4.98333,
    "longitude": 39.75
  },
  {
    "city": "Wete",
    "city_zh": "Wete",
    "country": "Tanzania",
    "country_zh": "坦尚尼亞",
    "country_iso_code": "TZ",
    "timezone": "Africa/Dar_es_Salaam",
    "latitude": -5.05589,
    "longitude": 39.72938
  },
  {
    "city": "Wesha",
    "city_zh": "Wesha",
    "country": "Tanzania",
    "country_zh": "坦尚尼亞",
    "country_iso_code": "TZ",
    "timezone": "Africa/Dar_es_Salaam",
    "latitude": -5.23333,
    "longitude": 39.73333
  },
  {
    "city": "Weru Weru",
    "city_zh": "Weru Weru",
    "country": "Tanzania",
    "country_zh": "坦尚尼亞",
    "country_iso_code": "TZ",
    "timezone": "Africa/Dar_es_Salaam",
    "latitude": -3.31667,
    "longitude": 37.25
  },
  {
    "city": "Weru",
    "city_zh": "Weru",
    "country": "Tanzania",
    "country_zh": "坦尚尼亞",
    "country_iso_code": "TZ",
    "timezone": "Africa/Dar_es_Salaam",
    "latitude": -7.85,
    "longitude": 35.5
  },
  {
    "city": "Weno",
    "city_zh": "Weno",
    "country": "Tanzania",
    "country_zh": "坦尚尼亞",
    "country_iso_code": "TZ",
    "timezone": "Africa/Dar_es_Salaam",
    "latitude": -7.45,
    "longitude": 35.9
  },
  {
    "city": "Wena",
    "city_zh": "Wena",
    "country": "Tanzania",
    "country_zh": "坦尚尼亞",
    "country_iso_code": "TZ",
    "timezone": "Africa/Dar_es_Salaam",
    "latitude": -4.86667,
    "longitude": 38.45
  },
  {
    "city": "Weleni",
    "city_zh": "Weleni",
    "country": "Tanzania",
    "country_zh": "坦尚尼亞",
    "country_iso_code": "TZ",
    "timezone": "Africa/Dar_es_Salaam",
    "latitude": -5.36667,
    "longitude": 39.65
  },
  {
    "city": "Welene",
    "city_zh": "Welene",
    "country": "Tanzania",
    "country_zh": "坦尚尼亞",
    "country_iso_code": "TZ",
    "timezone": "Africa/Dar_es_Salaam",
    "latitude": -5.26667,
    "longitude": 39.8
  },
  {
    "city": "Wegero",
    "city_zh": "Wegero",
    "country": "Tanzania",
    "country_zh": "坦尚尼亞",
    "country_iso_code": "TZ",
    "timezone": "Africa/Dar_es_Salaam",
    "latitude": -1.6,
    "longitude": 34.2
  },
  {
    "city": "Weani",
    "city_zh": "Weani",
    "country": "Tanzania",
    "country_zh": "坦尚尼亞",
    "country_iso_code": "TZ",
    "timezone": "Africa/Dar_es_Salaam",
    "latitude": -5.06667,
    "longitude": 39.78333
  },
  {
    "city": "Wawi",
    "city_zh": "Wawi",
    "country": "Tanzania",
    "country_zh": "坦尚尼亞",
    "country_iso_code": "TZ",
    "timezone": "Africa/Dar_es_Salaam",
    "latitude": -5.25,
    "longitude": 39.8
  },
  {
    "city": "Watu",
    "city_zh": "Watu",
    "country": "Tanzania",
    "country_zh": "坦尚尼亞",
    "country_iso_code": "TZ",
    "timezone": "Africa/Dar_es_Salaam",
    "latitude": -5.7,
    "longitude": 38.4
  },
  {
    "city": "Wasso",
    "city_zh": "Wasso",
    "country": "Tanzania",
    "country_zh": "坦尚尼亞",
    "country_iso_code": "TZ",
    "timezone": "Africa/Dar_es_Salaam",
    "latitude": -2.06667,
    "longitude": 35.53333
  },
  {
    "city": "Wasini",
    "city_zh": "Wasini",
    "country": "Tanzania",
    "country_zh": "坦尚尼亞",
    "country_iso_code": "TZ",
    "timezone": "Africa/Dar_es_Salaam",
    "latitude": -5.1,
    "longitude": 39.8
  },
  {
    "city": "Wasimbani",
    "city_zh": "Wasimbani",
    "country": "Tanzania",
    "country_zh": "坦尚尼亞",
    "country_iso_code": "TZ",
    "timezone": "Africa/Dar_es_Salaam",
    "latitude": -5.18333,
    "longitude": 38.76667
  },
  {
    "city": "Wasa",
    "city_zh": "Wasa",
    "country": "Tanzania",
    "country_zh": "坦尚尼亞",
    "country_iso_code": "TZ",
    "timezone": "Africa/Dar_es_Salaam",
    "latitude": -8.11667,
    "longitude": 35.2
  },
  {
    "city": "Wapape",
    "city_zh": "Wapape",
    "country": "Tanzania",
    "country_zh": "坦尚尼亞",
    "country_iso_code": "TZ",
    "timezone": "Africa/Dar_es_Salaam",
    "latitude": -4.91667,
    "longitude": 39.75
  },
  {
    "city": "Wanyungu",
    "city_zh": "Wanyungu",
    "country": "Tanzania",
    "country_zh": "坦尚尼亞",
    "country_iso_code": "TZ",
    "timezone": "Africa/Dar_es_Salaam",
    "latitude": -5.0,
    "longitude": 39.06667
  },
  {
    "city": "Wantindi",
    "city_zh": "Wantindi",
    "country": "Tanzania",
    "country_zh": "坦尚尼亞",
    "country_iso_code": "TZ",
    "timezone": "Africa/Dar_es_Salaam",
    "latitude": -6.23646,
    "longitude": 30.56491
  },
  {
    "city": "Wani",
    "city_zh": "Wani",
    "country": "Tanzania",
    "country_zh": "坦尚尼亞",
    "country_iso_code": "TZ",
    "timezone": "Africa/Dar_es_Salaam",
    "latitude": -5.33333,
    "longitude": 39.78333
  },
  {
    "city": "Wangingombe",
    "city_zh": "Wangingombe",
    "country": "Tanzania",
    "country_zh": "坦尚尼亞",
    "country_iso_code": "TZ",
    "timezone": "Africa/Dar_es_Salaam",
    "latitude": -8.85,
    "longitude": 34.63333
  },
  {
    "city": "Wangama",
    "city_zh": "Wangama",
    "country": "Tanzania",
    "country_zh": "坦尚尼亞",
    "country_iso_code": "TZ",
    "timezone": "Africa/Dar_es_Salaam",
    "latitude": -6.93333,
    "longitude": 34.31667
  },
  {
    "city": "Wanga",
    "city_zh": "Wanga",
    "country": "Tanzania",
    "country_zh": "坦尚尼亞",
    "country_iso_code": "TZ",
    "timezone": "Africa/Dar_es_Salaam",
    "latitude": -5.2,
    "longitude": 39.06667
  },
  {
    "city": "Wanembe",
    "city_zh": "Wanembe",
    "country": "Tanzania",
    "country_zh": "坦尚尼亞",
    "country_iso_code": "TZ",
    "timezone": "Africa/Dar_es_Salaam",
    "latitude": -3.05,
    "longitude": 32.8
  },
  {
    "city": "Wampembe",
    "city_zh": "Wampembe",
    "country": "Tanzania",
    "country_zh": "坦尚尼亞",
    "country_iso_code": "TZ",
    "timezone": "Africa/Dar_es_Salaam",
    "latitude": -7.9,
    "longitude": 30.83333
  },
  {
    "city": "Wamikonko",
    "city_zh": "Wamikonko",
    "country": "Tanzania",
    "country_zh": "坦尚尼亞",
    "country_iso_code": "TZ",
    "timezone": "Africa/Dar_es_Salaam",
    "latitude": -8.25,
    "longitude": 31.36667
  },
  {
    "city": "Wami",
    "city_zh": "Wami",
    "country": "Tanzania",
    "country_zh": "坦尚尼亞",
    "country_iso_code": "TZ",
    "timezone": "Africa/Dar_es_Salaam",
    "latitude": -3.6,
    "longitude": 33.53333
  },
  {
    "city": "Walezo",
    "city_zh": "Walezo",
    "country": "Tanzania",
    "country_zh": "坦尚尼亞",
    "country_iso_code": "TZ",
    "timezone": "Africa/Dar_es_Salaam",
    "latitude": -6.16667,
    "longitude": 39.23333
  },
  {
    "city": "Walezo",
    "city_zh": "Walezo",
    "country": "Tanzania",
    "country_zh": "坦尚尼亞",
    "country_iso_code": "TZ",
    "timezone": "Africa/Dar_es_Salaam",
    "latitude": -6.15,
    "longitude": 39.23333
  },
  {
    "city": "Waleni",
    "city_zh": "Waleni",
    "country": "Tanzania",
    "country_zh": "坦尚尼亞",
    "country_iso_code": "TZ",
    "timezone": "Africa/Dar_es_Salaam",
    "latitude": -5.3,
    "longitude": 39.68333
  },
  {
    "city": "Wala",
    "city_zh": "Wala",
    "country": "Tanzania",
    "country_zh": "坦尚尼亞",
    "country_iso_code": "TZ",
    "timezone": "Africa/Dar_es_Salaam",
    "latitude": -4.21667,
    "longitude": 34.25
  },
  {
    "city": "Waida",
    "city_zh": "Waida",
    "country": "Tanzania",
    "country_zh": "坦尚尼亞",
    "country_iso_code": "TZ",
    "timezone": "Africa/Dar_es_Salaam",
    "latitude": -5.03333,
    "longitude": 35.9
  },
  {
    "city": "Wageni",
    "city_zh": "Wageni",
    "country": "Tanzania",
    "country_zh": "坦尚尼亞",
    "country_iso_code": "TZ",
    "timezone": "Africa/Dar_es_Salaam",
    "latitude": -5.15,
    "longitude": 39.76667
  },
  {
    "city": "Waga",
    "city_zh": "Waga",
    "country": "Tanzania",
    "country_zh": "坦尚尼亞",
    "country_iso_code": "TZ",
    "timezone": "Africa/Dar_es_Salaam",
    "latitude": -8.15,
    "longitude": 34.98333
  },
  {
    "city": "Vyogoloni",
    "city_zh": "Vyogoloni",
    "country": "Tanzania",
    "country_zh": "坦尚尼亞",
    "country_iso_code": "TZ",
    "timezone": "Africa/Dar_es_Salaam",
    "latitude": -4.72769,
    "longitude": 39.07235
  },
  {
    "city": "Vyeru",
    "city_zh": "Vyeru",
    "country": "Tanzania",
    "country_zh": "坦尚尼亞",
    "country_iso_code": "TZ",
    "timezone": "Africa/Dar_es_Salaam",
    "latitude": -4.95,
    "longitude": 39.13333
  },
  {
    "city": "Vwembi",
    "city_zh": "Vwembi",
    "country": "Tanzania",
    "country_zh": "坦尚尼亞",
    "country_iso_code": "TZ",
    "timezone": "Africa/Dar_es_Salaam",
    "latitude": -8.68333,
    "longitude": 33.2
  },
  {
    "city": "Vwawa",
    "city_zh": "Vwawa",
    "country": "Tanzania",
    "country_zh": "坦尚尼亞",
    "country_iso_code": "TZ",
    "timezone": "Africa/Dar_es_Salaam",
    "latitude": -9.10806,
    "longitude": 32.93472
  },
  {
    "city": "Vwawa",
    "city_zh": "Vwawa",
    "country": "Tanzania",
    "country_zh": "坦尚尼亞",
    "country_iso_code": "TZ",
    "timezone": "Africa/Dar_es_Salaam",
    "latitude": -8.96667,
    "longitude": 32.1
  },
  {
    "city": "Vuo",
    "city_zh": "Vuo",
    "country": "Tanzania",
    "country_zh": "坦尚尼亞",
    "country_iso_code": "TZ",
    "timezone": "Africa/Dar_es_Salaam",
    "latitude": -4.8,
    "longitude": 39.15
  },
  {
    "city": "Vunta",
    "city_zh": "Vunta",
    "country": "Tanzania",
    "country_zh": "坦尚尼亞",
    "country_iso_code": "TZ",
    "timezone": "Africa/Dar_es_Salaam",
    "latitude": -4.56667,
    "longitude": 37.98333
  },
  {
    "city": "Vungwi",
    "city_zh": "Vungwi",
    "country": "Tanzania",
    "country_zh": "坦尚尼亞",
    "country_iso_code": "TZ",
    "timezone": "Africa/Dar_es_Salaam",
    "latitude": -5.91667,
    "longitude": 39.2
  },
  {
    "city": "Vungwa",
    "city_zh": "Vungwa",
    "country": "Tanzania",
    "country_zh": "坦尚尼亞",
    "country_iso_code": "TZ",
    "timezone": "Africa/Dar_es_Salaam",
    "latitude": -8.31667,
    "longitude": 33.5
  },
  {
    "city": "Vumbu",
    "city_zh": "Vumbu",
    "country": "Tanzania",
    "country_zh": "坦尚尼亞",
    "country_iso_code": "TZ",
    "timezone": "Africa/Dar_es_Salaam",
    "latitude": -5.38333,
    "longitude": 39.01667
  },
  {
    "city": "Vumba",
    "city_zh": "Vumba",
    "country": "Tanzania",
    "country_zh": "坦尚尼亞",
    "country_iso_code": "TZ",
    "timezone": "Africa/Dar_es_Salaam",
    "latitude": -5.23333,
    "longitude": 39.83333
  },
  {
    "city": "Vumba",
    "city_zh": "Vumba",
    "country": "Tanzania",
    "country_zh": "坦尚尼亞",
    "country_iso_code": "TZ",
    "timezone": "Africa/Dar_es_Salaam",
    "latitude": -5.16667,
    "longitude": 39.83333
  },
  {
    "city": "Vumba",
    "city_zh": "Vumba",
    "country": "Tanzania",
    "country_zh": "坦尚尼亞",
    "country_iso_code": "TZ",
    "timezone": "Africa/Dar_es_Salaam",
    "latitude": -5.11667,
    "longitude": 39.8
  },
  {
    "city": "Vumawimbi",
    "city_zh": "Vumawimbi",
    "country": "Tanzania",
    "country_zh": "坦尚尼亞",
    "country_iso_code": "TZ",
    "timezone": "Africa/Dar_es_Salaam",
    "latitude": -5.38333,
    "longitude": 39.7
  },
  {
    "city": "Vulehi",
    "city_zh": "Vulehi",
    "country": "Tanzania",
    "country_zh": "坦尚尼亞",
    "country_iso_code": "TZ",
    "timezone": "Africa/Dar_es_Salaam",
    "latitude": -5.31667,
    "longitude": 39.75
  },
  {
    "city": "Vugiri",
    "city_zh": "Vugiri",
    "country": "Tanzania",
    "country_zh": "坦尚尼亞",
    "country_iso_code": "TZ",
    "timezone": "Africa/Dar_es_Salaam",
    "latitude": -5.06667,
    "longitude": 38.45
  },
  {
    "city": "Vuga",
    "city_zh": "Vuga",
    "country": "Tanzania",
    "country_zh": "坦尚尼亞",
    "country_iso_code": "TZ",
    "timezone": "Africa/Dar_es_Salaam",
    "latitude": -4.91667,
    "longitude": 38.96667
  },
  {
    "city": "Vuga",
    "city_zh": "Vuga",
    "country": "Tanzania",
    "country_zh": "坦尚尼亞",
    "country_iso_code": "TZ",
    "timezone": "Africa/Dar_es_Salaam",
    "latitude": -4.88333,
    "longitude": 38.33333
  },
  {
    "city": "Vuga",
    "city_zh": "Vuga",
    "country": "Tanzania",
    "country_zh": "坦尚尼亞",
    "country_iso_code": "TZ",
    "timezone": "Africa/Dar_es_Salaam",
    "latitude": -4.8,
    "longitude": 38.78333
  },
  {
    "city": "Vizuke",
    "city_zh": "Vizuke",
    "country": "Tanzania",
    "country_zh": "坦尚尼亞",
    "country_iso_code": "TZ",
    "timezone": "Africa/Dar_es_Salaam",
    "latitude": -5.38333,
    "longitude": 39.75
  },
  {
    "city": "Vitongoji",
    "city_zh": "Vitongoji",
    "country": "Tanzania",
    "country_zh": "坦尚尼亞",
    "country_iso_code": "TZ",
    "timezone": "Africa/Dar_es_Salaam",
    "latitude": -5.23105,
    "longitude": 39.82055
  },
  {
    "city": "Vitonga",
    "city_zh": "Vitonga",
    "country": "Tanzania",
    "country_zh": "坦尚尼亞",
    "country_iso_code": "TZ",
    "timezone": "Africa/Dar_es_Salaam",
    "latitude": -6.91667,
    "longitude": 37.58333
  },
  {
    "city": "Visiga",
    "city_zh": "Visiga",
    "country": "Tanzania",
    "country_zh": "坦尚尼亞",
    "country_iso_code": "TZ",
    "timezone": "Africa/Dar_es_Salaam",
    "latitude": -6.73333,
    "longitude": 38.78333
  },
  {
    "city": "Visaraka",
    "city_zh": "Visaraka",
    "country": "Tanzania",
    "country_zh": "坦尚尼亞",
    "country_iso_code": "TZ",
    "timezone": "Africa/Dar_es_Salaam",
    "latitude": -6.83333,
    "longitude": 38.18333
  },
  {
    "city": "Vingo",
    "city_zh": "Vingo",
    "country": "Tanzania",
    "country_zh": "坦尚尼亞",
    "country_iso_code": "TZ",
    "timezone": "Africa/Dar_es_Salaam",
    "latitude": -5.03333,
    "longitude": 38.5
  },
  {
    "city": "Vikrouti",
    "city_zh": "Vikrouti",
    "country": "Tanzania",
    "country_zh": "坦尚尼亞",
    "country_iso_code": "TZ",
    "timezone": "Africa/Dar_es_Salaam",
    "latitude": -6.68333,
    "longitude": 38.75
  },
  {
    "city": "Vikongoro",
    "city_zh": "Vikongoro",
    "country": "Tanzania",
    "country_zh": "坦尚尼亞",
    "country_iso_code": "TZ",
    "timezone": "Africa/Dar_es_Salaam",
    "latitude": -6.98333,
    "longitude": 39.1
  },
  {
    "city": "Vikole",
    "city_zh": "Vikole",
    "country": "Tanzania",
    "country_zh": "坦尚尼亞",
    "country_iso_code": "TZ",
    "timezone": "Africa/Dar_es_Salaam",
    "latitude": -6.6,
    "longitude": 38.6
  },
  {
    "city": "Vikindu",
    "city_zh": "Vikindu",
    "country": "Tanzania",
    "country_zh": "坦尚尼亞",
    "country_iso_code": "TZ",
    "timezone": "Africa/Dar_es_Salaam",
    "latitude": -7.00667,
    "longitude": 39.29849
  },
  {
    "city": "Vihingo",
    "city_zh": "Vihingo",
    "country": "Tanzania",
    "country_zh": "坦尚尼亞",
    "country_iso_code": "TZ",
    "timezone": "Africa/Dar_es_Salaam",
    "latitude": -6.88333,
    "longitude": 38.7
  },
  {
    "city": "Vigwasa",
    "city_zh": "Vigwasa",
    "country": "Tanzania",
    "country_zh": "坦尚尼亞",
    "country_iso_code": "TZ",
    "timezone": "Africa/Dar_es_Salaam",
    "latitude": -6.68333,
    "longitude": 38.65
  },
  {
    "city": "Vidunda",
    "city_zh": "Vidunda",
    "country": "Tanzania",
    "country_zh": "坦尚尼亞",
    "country_iso_code": "TZ",
    "timezone": "Africa/Dar_es_Salaam",
    "latitude": -7.58333,
    "longitude": 37.03333
  },
  {
    "city": "Vibura",
    "city_zh": "Vibura",
    "country": "Tanzania",
    "country_zh": "坦尚尼亞",
    "country_iso_code": "TZ",
    "timezone": "Africa/Dar_es_Salaam",
    "latitude": -7.02768,
    "longitude": 39.26818
  },
  {
    "city": "Vibambani",
    "city_zh": "Vibambani",
    "country": "Tanzania",
    "country_zh": "坦尚尼亞",
    "country_iso_code": "TZ",
    "timezone": "Africa/Dar_es_Salaam",
    "latitude": -4.85,
    "longitude": 39.15
  },
  {
    "city": "Verani",
    "city_zh": "Verani",
    "country": "Tanzania",
    "country_zh": "坦尚尼亞",
    "country_iso_code": "TZ",
    "timezone": "Africa/Dar_es_Salaam",
    "latitude": -4.91667,
    "longitude": 39.68333
  },
  {
    "city": "Uzongwe",
    "city_zh": "Uzongwe",
    "country": "Tanzania",
    "country_zh": "坦尚尼亞",
    "country_iso_code": "TZ",
    "timezone": "Africa/Dar_es_Salaam",
    "latitude": -4.98333,
    "longitude": 31.25
  },
  {
    "city": "Uzini",
    "city_zh": "Uzini",
    "country": "Tanzania",
    "country_zh": "坦尚尼亞",
    "country_iso_code": "TZ",
    "timezone": "Africa/Dar_es_Salaam",
    "latitude": -6.08333,
    "longitude": 39.33333
  },
  {
    "city": "Uzingwi",
    "city_zh": "Uzingwi",
    "country": "Tanzania",
    "country_zh": "坦尚尼亞",
    "country_iso_code": "TZ",
    "timezone": "Africa/Dar_es_Salaam",
    "latitude": -6.18333,
    "longitude": 39.36667
  },
  {
    "city": "Uzinga",
    "city_zh": "Uzinga",
    "country": "Tanzania",
    "country_zh": "坦尚尼亞",
    "country_iso_code": "TZ",
    "timezone": "Africa/Dar_es_Salaam",
    "latitude": -2.51667,
    "longitude": 32.71667
  },
  {
    "city": "Uzima",
    "city_zh": "Uzima",
    "country": "Tanzania",
    "country_zh": "坦尚尼亞",
    "country_iso_code": "TZ",
    "timezone": "Africa/Dar_es_Salaam",
    "latitude": -3.38333,
    "longitude": 32.36667
  },
  {
    "city": "Uzi",
    "city_zh": "Uzi",
    "country": "Tanzania",
    "country_zh": "坦尚尼亞",
    "country_iso_code": "TZ",
    "timezone": "Africa/Dar_es_Salaam",
    "latitude": -6.33333,
    "longitude": 39.4
  },
  {
    "city": "Uyuyi",
    "city_zh": "Uyuyi",
    "country": "Tanzania",
    "country_zh": "坦尚尼亞",
    "country_iso_code": "TZ",
    "timezone": "Africa/Dar_es_Salaam",
    "latitude": -4.91667,
    "longitude": 32.83333
  },
  {
    "city": "Uyumbu",
    "city_zh": "Uyumbu",
    "country": "Tanzania",
    "country_zh": "坦尚尼亞",
    "country_iso_code": "TZ",
    "timezone": "Africa/Dar_es_Salaam",
    "latitude": -5.25,
    "longitude": 32.23333
  },
  {
    "city": "Uyulo",
    "city_zh": "Uyulo",
    "country": "Tanzania",
    "country_zh": "坦尚尼亞",
    "country_iso_code": "TZ",
    "timezone": "Africa/Dar_es_Salaam",
    "latitude": -8.79971,
    "longitude": 34.1325
  },
  {
    "city": "Uyowa",
    "city_zh": "Uyowa",
    "country": "Tanzania",
    "country_zh": "坦尚尼亞",
    "country_iso_code": "TZ",
    "timezone": "Africa/Dar_es_Salaam",
    "latitude": -4.49806,
    "longitude": 31.96306
  },
  {
    "city": "Uyovu",
    "city_zh": "Uyovu",
    "country": "Tanzania",
    "country_zh": "坦尚尼亞",
    "country_iso_code": "TZ",
    "timezone": "Africa/Dar_es_Salaam",
    "latitude": -3.28333,
    "longitude": 31.52583
  },
  {
    "city": "Uyole",
    "city_zh": "Uyole",
    "country": "Tanzania",
    "country_zh": "坦尚尼亞",
    "country_iso_code": "TZ",
    "timezone": "Africa/Dar_es_Salaam",
    "latitude": -8.91667,
    "longitude": 33.56667
  },
  {
    "city": "Uyogo",
    "city_zh": "Uyogo",
    "country": "Tanzania",
    "country_zh": "坦尚尼亞",
    "country_iso_code": "TZ",
    "timezone": "Africa/Dar_es_Salaam",
    "latitude": -4.23333,
    "longitude": 32.33333
  },
  {
    "city": "Uyaule",
    "city_zh": "Uyaule",
    "country": "Tanzania",
    "country_zh": "坦尚尼亞",
    "country_iso_code": "TZ",
    "timezone": "Africa/Dar_es_Salaam",
    "latitude": -8.48333,
    "longitude": 33.95
  },
  {
    "city": "Uyanzi",
    "city_zh": "Uyanzi",
    "country": "Tanzania",
    "country_zh": "坦尚尼亞",
    "country_iso_code": "TZ",
    "timezone": "Africa/Dar_es_Salaam",
    "latitude": -6.06667,
    "longitude": 34.65
  },
  {
    "city": "Uyagu",
    "city_zh": "Uyagu",
    "country": "Tanzania",
    "country_zh": "坦尚尼亞",
    "country_iso_code": "TZ",
    "timezone": "Africa/Dar_es_Salaam",
    "latitude": -5.88333,
    "longitude": 39.28333
  },
  {
    "city": "Uwondwe",
    "city_zh": "Uwondwe",
    "country": "Tanzania",
    "country_zh": "坦尚尼亞",
    "country_iso_code": "TZ",
    "timezone": "Africa/Dar_es_Salaam",
    "latitude": -5.08333,
    "longitude": 39.71667
  },
  {
    "city": "Uwindi",
    "city_zh": "Uwindi",
    "country": "Tanzania",
    "country_zh": "坦尚尼亞",
    "country_iso_code": "TZ",
    "timezone": "Africa/Dar_es_Salaam",
    "latitude": -7.95,
    "longitude": 35.81667
  },
  {
    "city": "Uwelini",
    "city_zh": "Uwelini",
    "country": "Tanzania",
    "country_zh": "坦尚尼亞",
    "country_iso_code": "TZ",
    "timezone": "Africa/Dar_es_Salaam",
    "latitude": -5.4,
    "longitude": 39.68333
  },
  {
    "city": "Uwanza",
    "city_zh": "Uwanza",
    "country": "Tanzania",
    "country_zh": "坦尚尼亞",
    "country_iso_code": "TZ",
    "timezone": "Africa/Dar_es_Salaam",
    "latitude": -4.36667,
    "longitude": 34.48333
  },
  {
    "city": "Uwani",
    "city_zh": "Uwani",
    "country": "Tanzania",
    "country_zh": "坦尚尼亞",
    "country_iso_code": "TZ",
    "timezone": "Africa/Dar_es_Salaam",
    "latitude": -5.23333,
    "longitude": 39.78333
  },
  {
    "city": "Uwandani",
    "city_zh": "Uwandani",
    "country": "Tanzania",
    "country_zh": "坦尚尼亞",
    "country_iso_code": "TZ",
    "timezone": "Africa/Dar_es_Salaam",
    "latitude": -6.0,
    "longitude": 39.18333
  },
  {
    "city": "Uwaani",
    "city_zh": "Uwaani",
    "country": "Tanzania",
    "country_zh": "坦尚尼亞",
    "country_iso_code": "TZ",
    "timezone": "Africa/Dar_es_Salaam",
    "latitude": -4.96667,
    "longitude": 39.78333
  },
  {
    "city": "Uwa",
    "city_zh": "Uwa",
    "country": "Tanzania",
    "country_zh": "坦尚尼亞",
    "country_iso_code": "TZ",
    "timezone": "Africa/Dar_es_Salaam",
    "latitude": -8.35,
    "longitude": 31.28333
  },
  {
    "city": "Uvumbi",
    "city_zh": "Uvumbi",
    "country": "Tanzania",
    "country_zh": "坦尚尼亞",
    "country_iso_code": "TZ",
    "timezone": "Africa/Dar_es_Salaam",
    "latitude": -5.25,
    "longitude": 39.76667
  },
  {
    "city": "Uvinza",
    "city_zh": "Uvinza",
    "country": "Tanzania",
    "country_zh": "坦尚尼亞",
    "country_iso_code": "TZ",
    "timezone": "Africa/Dar_es_Salaam",
    "latitude": -5.10361,
    "longitude": 30.39111
  },
  {
    "city": "Uvinje",
    "city_zh": "Uvinje",
    "country": "Tanzania",
    "country_zh": "坦尚尼亞",
    "country_iso_code": "TZ",
    "timezone": "Africa/Dar_es_Salaam",
    "latitude": -5.11667,
    "longitude": 39.63333
  },
  {
    "city": "Utyatya",
    "city_zh": "Utyatya",
    "country": "Tanzania",
    "country_zh": "坦尚尼亞",
    "country_iso_code": "TZ",
    "timezone": "Africa/Dar_es_Salaam",
    "latitude": -5.63333,
    "longitude": 32.88333
  },
  {
    "city": "Utwigu",
    "city_zh": "Utwigu",
    "country": "Tanzania",
    "country_zh": "坦尚尼亞",
    "country_iso_code": "TZ",
    "timezone": "Africa/Dar_es_Salaam",
    "latitude": -4.33333,
    "longitude": 33.15
  },
  {
    "city": "Utuya",
    "city_zh": "Utuya",
    "country": "Tanzania",
    "country_zh": "坦尚尼亞",
    "country_iso_code": "TZ",
    "timezone": "Africa/Dar_es_Salaam",
    "latitude": -8.41667,
    "longitude": 34.16667
  },
  {
    "city": "Dutwa",
    "city_zh": "Dutwa",
    "country": "Tanzania",
    "country_zh": "坦尚尼亞",
    "country_iso_code": "TZ",
    "timezone": "Africa/Dar_es_Salaam",
    "latitude": -2.51667,
    "longitude": 33.96667
  },
  {
    "city": "Uturo",
    "city_zh": "Uturo",
    "country": "Tanzania",
    "country_zh": "坦尚尼亞",
    "country_iso_code": "TZ",
    "timezone": "Africa/Dar_es_Salaam",
    "latitude": -8.51667,
    "longitude": 34.05
  },
  {
    "city": "Utungwa",
    "city_zh": "Utungwa",
    "country": "Tanzania",
    "country_zh": "坦尚尼亞",
    "country_iso_code": "TZ",
    "timezone": "Africa/Dar_es_Salaam",
    "latitude": -9.26667,
    "longitude": 34.7
  },
  {
    "city": "Utinta",
    "city_zh": "Utinta",
    "country": "Tanzania",
    "country_zh": "坦尚尼亞",
    "country_iso_code": "TZ",
    "timezone": "Africa/Dar_es_Salaam",
    "latitude": -7.13333,
    "longitude": 30.51667
  },
  {
    "city": "Utindwa",
    "city_zh": "Utindwa",
    "country": "Tanzania",
    "country_zh": "坦尚尼亞",
    "country_iso_code": "TZ",
    "timezone": "Africa/Dar_es_Salaam",
    "latitude": -4.73333,
    "longitude": 31.91667
  },
  {
    "city": "Utiego",
    "city_zh": "Utiego",
    "country": "Tanzania",
    "country_zh": "坦尚尼亞",
    "country_iso_code": "TZ",
    "timezone": "Africa/Dar_es_Salaam",
    "latitude": -8.65,
    "longitude": 34.33333
  },
  {
    "city": "Utete",
    "city_zh": "Utete",
    "country": "Tanzania",
    "country_zh": "坦尚尼亞",
    "country_iso_code": "TZ",
    "timezone": "Africa/Dar_es_Salaam",
    "latitude": -7.98598,
    "longitude": 38.75795
  },
  {
    "city": "Utengule",
    "city_zh": "Utengule",
    "country": "Tanzania",
    "country_zh": "坦尚尼亞",
    "country_iso_code": "TZ",
    "timezone": "Africa/Dar_es_Salaam",
    "latitude": -8.95,
    "longitude": 35.83333
  },
  {
    "city": "Utengule",
    "city_zh": "Utengule",
    "country": "Tanzania",
    "country_zh": "坦尚尼亞",
    "country_iso_code": "TZ",
    "timezone": "Africa/Dar_es_Salaam",
    "latitude": -8.9,
    "longitude": 33.33333
  },
  {
    "city": "Utengule",
    "city_zh": "Utengule",
    "country": "Tanzania",
    "country_zh": "坦尚尼亞",
    "country_iso_code": "TZ",
    "timezone": "Africa/Dar_es_Salaam",
    "latitude": -8.68333,
    "longitude": 33.86667
  },
  {
    "city": "Utendesia",
    "city_zh": "Utendesia",
    "country": "Tanzania",
    "country_zh": "坦尚尼亞",
    "country_iso_code": "TZ",
    "timezone": "Africa/Dar_es_Salaam",
    "latitude": -6.47004,
    "longitude": 31.38995
  },
  {
    "city": "Utembe",
    "city_zh": "Utembe",
    "country": "Tanzania",
    "country_zh": "坦尚尼亞",
    "country_iso_code": "TZ",
    "timezone": "Africa/Dar_es_Salaam",
    "latitude": -5.18333,
    "longitude": 39.8
  },
  {
    "city": "Utegi",
    "city_zh": "Utegi",
    "country": "Tanzania",
    "country_zh": "坦尚尼亞",
    "country_iso_code": "TZ",
    "timezone": "Africa/Dar_es_Salaam",
    "latitude": -1.31667,
    "longitude": 34.21667
  },
  {
    "city": "Utchwa Jua",
    "city_zh": "Utchwa Jua",
    "country": "Tanzania",
    "country_zh": "坦尚尼亞",
    "country_iso_code": "TZ",
    "timezone": "Africa/Dar_es_Salaam",
    "latitude": -5.73333,
    "longitude": 39.3
  },
  {
    "city": "Uta wa Limani",
    "city_zh": "Uta wa Limani",
    "country": "Tanzania",
    "country_zh": "坦尚尼亞",
    "country_iso_code": "TZ",
    "timezone": "Africa/Dar_es_Salaam",
    "latitude": -5.1,
    "longitude": 39.73333
  },
  {
    "city": "Utambalila",
    "city_zh": "Utambalila",
    "country": "Tanzania",
    "country_zh": "坦尚尼亞",
    "country_iso_code": "TZ",
    "timezone": "Africa/Dar_es_Salaam",
    "latitude": -8.7,
    "longitude": 33.03333
  },
  {
    "city": "Utambalia",
    "city_zh": "Utambalia",
    "country": "Tanzania",
    "country_zh": "坦尚尼亞",
    "country_iso_code": "TZ",
    "timezone": "Africa/Dar_es_Salaam",
    "latitude": -8.75,
    "longitude": 32.7
  },
  {
    "city": "Utaga",
    "city_zh": "Utaga",
    "country": "Tanzania",
    "country_zh": "坦尚尼亞",
    "country_iso_code": "TZ",
    "timezone": "Africa/Dar_es_Salaam",
    "latitude": -4.58333,
    "longitude": 33.25
  },
  {
    "city": "Utaani",
    "city_zh": "Utaani",
    "country": "Tanzania",
    "country_zh": "坦尚尼亞",
    "country_iso_code": "TZ",
    "timezone": "Africa/Dar_es_Salaam",
    "latitude": -5.36667,
    "longitude": 39.78333
  },
  {
    "city": "Utaani",
    "city_zh": "Utaani",
    "country": "Tanzania",
    "country_zh": "坦尚尼亞",
    "country_iso_code": "TZ",
    "timezone": "Africa/Dar_es_Salaam",
    "latitude": -5.36667,
    "longitude": 39.71667
  },
  {
    "city": "Utaani",
    "city_zh": "Utaani",
    "country": "Tanzania",
    "country_zh": "坦尚尼亞",
    "country_iso_code": "TZ",
    "timezone": "Africa/Dar_es_Salaam",
    "latitude": -5.25,
    "longitude": 39.78333
  },
  {
    "city": "Utaani",
    "city_zh": "Utaani",
    "country": "Tanzania",
    "country_zh": "坦尚尼亞",
    "country_iso_code": "TZ",
    "timezone": "Africa/Dar_es_Salaam",
    "latitude": -5.21667,
    "longitude": 39.78333
  },
  {
    "city": "Utaani",
    "city_zh": "Utaani",
    "country": "Tanzania",
    "country_zh": "坦尚尼亞",
    "country_iso_code": "TZ",
    "timezone": "Africa/Dar_es_Salaam",
    "latitude": -5.2,
    "longitude": 39.71667
  },
  {
    "city": "Utaani",
    "city_zh": "Utaani",
    "country": "Tanzania",
    "country_zh": "坦尚尼亞",
    "country_iso_code": "TZ",
    "timezone": "Africa/Dar_es_Salaam",
    "latitude": -5.15,
    "longitude": 39.73333
  },
  {
    "city": "Utaani",
    "city_zh": "Utaani",
    "country": "Tanzania",
    "country_zh": "坦尚尼亞",
    "country_iso_code": "TZ",
    "timezone": "Africa/Dar_es_Salaam",
    "latitude": -5.13333,
    "longitude": 39.71667
  },
  {
    "city": "Utaani",
    "city_zh": "Utaani",
    "country": "Tanzania",
    "country_zh": "坦尚尼亞",
    "country_iso_code": "TZ",
    "timezone": "Africa/Dar_es_Salaam",
    "latitude": -5.13333,
    "longitude": 39.68333
  },
  {
    "city": "Utaani",
    "city_zh": "Utaani",
    "country": "Tanzania",
    "country_zh": "坦尚尼亞",
    "country_iso_code": "TZ",
    "timezone": "Africa/Dar_es_Salaam",
    "latitude": -5.1,
    "longitude": 39.7
  },
  {
    "city": "Utaani",
    "city_zh": "Utaani",
    "country": "Tanzania",
    "country_zh": "坦尚尼亞",
    "country_iso_code": "TZ",
    "timezone": "Africa/Dar_es_Salaam",
    "latitude": -5.08333,
    "longitude": 39.71667
  },
  {
    "city": "Utaani",
    "city_zh": "Utaani",
    "country": "Tanzania",
    "country_zh": "坦尚尼亞",
    "country_iso_code": "TZ",
    "timezone": "Africa/Dar_es_Salaam",
    "latitude": -5.06667,
    "longitude": 39.78333
  },
  {
    "city": "Utaani",
    "city_zh": "Utaani",
    "country": "Tanzania",
    "country_zh": "坦尚尼亞",
    "country_iso_code": "TZ",
    "timezone": "Africa/Dar_es_Salaam",
    "latitude": -5.06667,
    "longitude": 39.73333
  },
  {
    "city": "Utaani",
    "city_zh": "Utaani",
    "country": "Tanzania",
    "country_zh": "坦尚尼亞",
    "country_iso_code": "TZ",
    "timezone": "Africa/Dar_es_Salaam",
    "latitude": -5.05,
    "longitude": 39.75
  },
  {
    "city": "Utaani",
    "city_zh": "Utaani",
    "country": "Tanzania",
    "country_zh": "坦尚尼亞",
    "country_iso_code": "TZ",
    "timezone": "Africa/Dar_es_Salaam",
    "latitude": -5.0,
    "longitude": 39.76667
  },
  {
    "city": "Utaani",
    "city_zh": "Utaani",
    "country": "Tanzania",
    "country_zh": "坦尚尼亞",
    "country_iso_code": "TZ",
    "timezone": "Africa/Dar_es_Salaam",
    "latitude": -4.98333,
    "longitude": 39.7
  },
  {
    "city": "Utaani",
    "city_zh": "Utaani",
    "country": "Tanzania",
    "country_zh": "坦尚尼亞",
    "country_iso_code": "TZ",
    "timezone": "Africa/Dar_es_Salaam",
    "latitude": -4.96667,
    "longitude": 39.71667
  },
  {
    "city": "Uswaa",
    "city_zh": "Uswaa",
    "country": "Tanzania",
    "country_zh": "坦尚尼亞",
    "country_iso_code": "TZ",
    "timezone": "Africa/Dar_es_Salaam",
    "latitude": -3.26667,
    "longitude": 37.21667
  },
  {
    "city": "Usungu",
    "city_zh": "Usungu",
    "country": "Tanzania",
    "country_zh": "坦尚尼亞",
    "country_iso_code": "TZ",
    "timezone": "Africa/Dar_es_Salaam",
    "latitude": -4.96667,
    "longitude": 32.45
  },
  {
    "city": "Usule",
    "city_zh": "Usule",
    "country": "Tanzania",
    "country_zh": "坦尚尼亞",
    "country_iso_code": "TZ",
    "timezone": "Africa/Dar_es_Salaam",
    "latitude": -7.53333,
    "longitude": 33.6
  },
  {
    "city": "Busule",
    "city_zh": "Busule",
    "country": "Tanzania",
    "country_zh": "坦尚尼亞",
    "country_iso_code": "TZ",
    "timezone": "Africa/Dar_es_Salaam",
    "latitude": -3.76652,
    "longitude": 33.19517
  },
  {
    "city": "Usuhilo",
    "city_zh": "Usuhilo",
    "country": "Tanzania",
    "country_zh": "坦尚尼亞",
    "country_iso_code": "TZ",
    "timezone": "Africa/Dar_es_Salaam",
    "latitude": -6.4,
    "longitude": 33.93333
  },
  {
    "city": "Ussure",
    "city_zh": "Ussure",
    "country": "Tanzania",
    "country_zh": "坦尚尼亞",
    "country_iso_code": "TZ",
    "timezone": "Africa/Dar_es_Salaam",
    "latitude": -4.65,
    "longitude": 34.38333
  },
  {
    "city": "Ussenye",
    "city_zh": "Ussenye",
    "country": "Tanzania",
    "country_zh": "坦尚尼亞",
    "country_iso_code": "TZ",
    "timezone": "Africa/Dar_es_Salaam",
    "latitude": -5.36667,
    "longitude": 31.55
  },
  {
    "city": "Usongore",
    "city_zh": "Usongore",
    "country": "Tanzania",
    "country_zh": "坦尚尼亞",
    "country_iso_code": "TZ",
    "timezone": "Africa/Dar_es_Salaam",
    "latitude": -1.3,
    "longitude": 30.81667
  },
  {
    "city": "Usoke",
    "city_zh": "Usoke",
    "country": "Tanzania",
    "country_zh": "坦尚尼亞",
    "country_iso_code": "TZ",
    "timezone": "Africa/Dar_es_Salaam",
    "latitude": -5.16667,
    "longitude": 32.35
  },
  {
    "city": "Usoke",
    "city_zh": "Usoke",
    "country": "Tanzania",
    "country_zh": "坦尚尼亞",
    "country_iso_code": "TZ",
    "timezone": "Africa/Dar_es_Salaam",
    "latitude": -5.1,
    "longitude": 32.33333
  },
  {
    "city": "Usogore",
    "city_zh": "Usogore",
    "country": "Tanzania",
    "country_zh": "坦尚尼亞",
    "country_iso_code": "TZ",
    "timezone": "Africa/Dar_es_Salaam",
    "latitude": -3.6,
    "longitude": 33.46667
  },
  {
    "city": "Usiya",
    "city_zh": "Usiya",
    "country": "Tanzania",
    "country_zh": "坦尚尼亞",
    "country_iso_code": "TZ",
    "timezone": "Africa/Dar_es_Salaam",
    "latitude": -3.96667,
    "longitude": 33.13333
  },
  {
    "city": "Usinge",
    "city_zh": "Usinge",
    "country": "Tanzania",
    "country_zh": "坦尚尼亞",
    "country_iso_code": "TZ",
    "timezone": "Africa/Dar_es_Salaam",
    "latitude": -5.09722,
    "longitude": 31.305
  },
  {
    "city": "Usine",
    "city_zh": "Usine",
    "country": "Tanzania",
    "country_zh": "坦尚尼亞",
    "country_iso_code": "TZ",
    "timezone": "Africa/Dar_es_Salaam",
    "latitude": -6.47455,
    "longitude": 39.49645
  },
  {
    "city": "Usimbe",
    "city_zh": "Usimbe",
    "country": "Tanzania",
    "country_zh": "坦尚尼亞",
    "country_iso_code": "TZ",
    "timezone": "Africa/Dar_es_Salaam",
    "latitude": -8.01685,
    "longitude": 39.27894
  },
  {
    "city": "Usia",
    "city_zh": "Usia",
    "country": "Tanzania",
    "country_zh": "坦尚尼亞",
    "country_iso_code": "TZ",
    "timezone": "Africa/Dar_es_Salaam",
    "latitude": -7.71667,
    "longitude": 31.6
  },
  {
    "city": "Ushora",
    "city_zh": "Ushora",
    "country": "Tanzania",
    "country_zh": "坦尚尼亞",
    "country_iso_code": "TZ",
    "timezone": "Africa/Dar_es_Salaam",
    "latitude": -4.68333,
    "longitude": 34.25
  },
  {
    "city": "Ushongo Mtoni",
    "city_zh": "Ushongo Mtoni",
    "country": "Tanzania",
    "country_zh": "坦尚尼亞",
    "country_iso_code": "TZ",
    "timezone": "Africa/Dar_es_Salaam",
    "latitude": -5.51667,
    "longitude": 38.96667
  },
  {
    "city": "Ushongo",
    "city_zh": "Ushongo",
    "country": "Tanzania",
    "country_zh": "坦尚尼亞",
    "country_iso_code": "TZ",
    "timezone": "Africa/Dar_es_Salaam",
    "latitude": -5.52684,
    "longitude": 38.9741
  },
  {
    "city": "Ushirombo",
    "city_zh": "Ushirombo",
    "country": "Tanzania",
    "country_zh": "坦尚尼亞",
    "country_iso_code": "TZ",
    "timezone": "Africa/Dar_es_Salaam",
    "latitude": -3.49194,
    "longitude": 31.96389
  },
  {
    "city": "Ushetu",
    "city_zh": "Ushetu",
    "country": "Tanzania",
    "country_zh": "坦尚尼亞",
    "country_iso_code": "TZ",
    "timezone": "Africa/Dar_es_Salaam",
    "latitude": -4.16667,
    "longitude": 32.26667
  },
  {
    "city": "Ushashi",
    "city_zh": "Ushashi",
    "country": "Tanzania",
    "country_zh": "坦尚尼亞",
    "country_iso_code": "TZ",
    "timezone": "Africa/Dar_es_Salaam",
    "latitude": -2.0,
    "longitude": 33.95
  },
  {
    "city": "Usevia",
    "city_zh": "Usevia",
    "country": "Tanzania",
    "country_zh": "坦尚尼亞",
    "country_iso_code": "TZ",
    "timezone": "Africa/Dar_es_Salaam",
    "latitude": -7.1,
    "longitude": 31.23333
  },
  {
    "city": "Usensula",
    "city_zh": "Usensula",
    "country": "Tanzania",
    "country_zh": "坦尚尼亞",
    "country_iso_code": "TZ",
    "timezone": "Africa/Dar_es_Salaam",
    "latitude": -7.5,
    "longitude": 30.6
  },
  {
    "city": "Useko",
    "city_zh": "Useko",
    "country": "Tanzania",
    "country_zh": "坦尚尼亞",
    "country_iso_code": "TZ",
    "timezone": "Africa/Dar_es_Salaam",
    "latitude": -5.11667,
    "longitude": 32.51667
  },
  {
    "city": "Usega",
    "city_zh": "Usega",
    "country": "Tanzania",
    "country_zh": "坦尚尼亞",
    "country_iso_code": "TZ",
    "timezone": "Africa/Dar_es_Salaam",
    "latitude": -2.41667,
    "longitude": 33.73333
  },
  {
    "city": "Usawanga",
    "city_zh": "Usawanga",
    "country": "Tanzania",
    "country_zh": "坦尚尼亞",
    "country_iso_code": "TZ",
    "timezone": "Africa/Dar_es_Salaam",
    "latitude": -6.53333,
    "longitude": 35.28333
  },
  {
    "city": "Usasi",
    "city_zh": "Usasi",
    "country": "Tanzania",
    "country_zh": "坦尚尼亞",
    "country_iso_code": "TZ",
    "timezone": "Africa/Dar_es_Salaam",
    "latitude": -4.73333,
    "longitude": 34.1
  },
  {
    "city": "Usase",
    "city_zh": "Usase",
    "country": "Tanzania",
    "country_zh": "坦尚尼亞",
    "country_iso_code": "TZ",
    "timezone": "Africa/Dar_es_Salaam",
    "latitude": -4.91667,
    "longitude": 33.5
  },
  {
    "city": "Usango",
    "city_zh": "Usango",
    "country": "Tanzania",
    "country_zh": "坦尚尼亞",
    "country_iso_code": "TZ",
    "timezone": "Africa/Dar_es_Salaam",
    "latitude": -9.28333,
    "longitude": 33.45
  },
  {
    "city": "Usangi",
    "city_zh": "Usangi",
    "country": "Tanzania",
    "country_zh": "坦尚尼亞",
    "country_iso_code": "TZ",
    "timezone": "Africa/Dar_es_Salaam",
    "latitude": -3.7,
    "longitude": 37.66667
  },
  {
    "city": "Usamila",
    "city_zh": "Usamila",
    "country": "Tanzania",
    "country_zh": "坦尚尼亞",
    "country_iso_code": "TZ",
    "timezone": "Africa/Dar_es_Salaam",
    "latitude": -4.33333,
    "longitude": 34.26667
  },
  {
    "city": "Usambuzi",
    "city_zh": "Usambuzi",
    "country": "Tanzania",
    "country_zh": "坦尚尼亞",
    "country_iso_code": "TZ",
    "timezone": "Africa/Dar_es_Salaam",
    "latitude": -8.38333,
    "longitude": 35.7
  },
  {
    "city": "Usagari",
    "city_zh": "Usagari",
    "country": "Tanzania",
    "country_zh": "坦尚尼亞",
    "country_iso_code": "TZ",
    "timezone": "Africa/Dar_es_Salaam",
    "latitude": -4.88333,
    "longitude": 32.48333
  },
  {
    "city": "Usagara",
    "city_zh": "Usagara",
    "country": "Tanzania",
    "country_zh": "坦尚尼亞",
    "country_iso_code": "TZ",
    "timezone": "Africa/Dar_es_Salaam",
    "latitude": -5.08333,
    "longitude": 39.11667
  },
  {
    "city": "Usagara",
    "city_zh": "Usagara",
    "country": "Tanzania",
    "country_zh": "坦尚尼亞",
    "country_iso_code": "TZ",
    "timezone": "Africa/Dar_es_Salaam",
    "latitude": -2.68333,
    "longitude": 33.0
  },
  {
    "city": "Usa River",
    "city_zh": "Usa River",
    "country": "Tanzania",
    "country_zh": "坦尚尼亞",
    "country_iso_code": "TZ",
    "timezone": "Africa/Dar_es_Salaam",
    "latitude": -3.36667,
    "longitude": 36.85
  },
  {
    "city": "Uruwira",
    "city_zh": "Uruwira",
    "country": "Tanzania",
    "country_zh": "坦尚尼亞",
    "country_iso_code": "TZ",
    "timezone": "Africa/Dar_es_Salaam",
    "latitude": -6.45012,
    "longitude": 31.35986
  },
  {
    "city": "Urunda",
    "city_zh": "Urunda",
    "country": "Tanzania",
    "country_zh": "坦尚尼亞",
    "country_iso_code": "TZ",
    "timezone": "Africa/Dar_es_Salaam",
    "latitude": -8.65,
    "longitude": 34.3
  },
  {
    "city": "Uruma",
    "city_zh": "Uruma",
    "country": "Tanzania",
    "country_zh": "坦尚尼亞",
    "country_iso_code": "TZ",
    "timezone": "Africa/Dar_es_Salaam",
    "latitude": -5.16667,
    "longitude": 32.75
  },
  {
    "city": "Urugu",
    "city_zh": "Urugu",
    "country": "Tanzania",
    "country_zh": "坦尚尼亞",
    "country_iso_code": "TZ",
    "timezone": "Africa/Dar_es_Salaam",
    "latitude": -4.65,
    "longitude": 34.2
  },
  {
    "city": "Uru East",
    "city_zh": "Uru East",
    "country": "Tanzania",
    "country_zh": "坦尚尼亞",
    "country_iso_code": "TZ",
    "timezone": "Africa/Dar_es_Salaam",
    "latitude": -3.28333,
    "longitude": 37.38333
  },
  {
    "city": "Uru",
    "city_zh": "Uru",
    "country": "Tanzania",
    "country_zh": "坦尚尼亞",
    "country_iso_code": "TZ",
    "timezone": "Africa/Dar_es_Salaam",
    "latitude": -3.28333,
    "longitude": 37.35
  },
  {
    "city": "Uroa",
    "city_zh": "Uroa",
    "country": "Tanzania",
    "country_zh": "坦尚尼亞",
    "country_iso_code": "TZ",
    "timezone": "Africa/Dar_es_Salaam",
    "latitude": -6.1,
    "longitude": 39.41667
  },
  {
    "city": "Uribe",
    "city_zh": "Uribe",
    "country": "Tanzania",
    "country_zh": "坦尚尼亞",
    "country_iso_code": "TZ",
    "timezone": "Africa/Dar_es_Salaam",
    "latitude": -5.16667,
    "longitude": 39.8
  },
  {
    "city": "Urangi",
    "city_zh": "Urangi",
    "country": "Tanzania",
    "country_zh": "坦尚尼亞",
    "country_iso_code": "TZ",
    "timezone": "Africa/Dar_es_Salaam",
    "latitude": -5.16667,
    "longitude": 39.71667
  },
  {
    "city": "Urambo",
    "city_zh": "Urambo",
    "country": "Tanzania",
    "country_zh": "坦尚尼亞",
    "country_iso_code": "TZ",
    "timezone": "Africa/Dar_es_Salaam",
    "latitude": -5.06667,
    "longitude": 32.05
  },
  {
    "city": "Upuni",
    "city_zh": "Upuni",
    "country": "Tanzania",
    "country_zh": "坦尚尼亞",
    "country_iso_code": "TZ",
    "timezone": "Africa/Dar_es_Salaam",
    "latitude": -4.35,
    "longitude": 37.51667
  },
  {
    "city": "Upuge",
    "city_zh": "Upuge",
    "country": "Tanzania",
    "country_zh": "坦尚尼亞",
    "country_iso_code": "TZ",
    "timezone": "Africa/Dar_es_Salaam",
    "latitude": -4.88333,
    "longitude": 33.01667
  },
  {
    "city": "Upesa",
    "city_zh": "Upesa",
    "country": "Tanzania",
    "country_zh": "坦尚尼亞",
    "country_iso_code": "TZ",
    "timezone": "Africa/Dar_es_Salaam",
    "latitude": -5.9,
    "longitude": 30.58333
  },
  {
    "city": "Upenja",
    "city_zh": "Upenja",
    "country": "Tanzania",
    "country_zh": "坦尚尼亞",
    "country_iso_code": "TZ",
    "timezone": "Africa/Dar_es_Salaam",
    "latitude": -5.98333,
    "longitude": 39.33333
  },
  {
    "city": "Upale",
    "city_zh": "Upale",
    "country": "Tanzania",
    "country_zh": "坦尚尼亞",
    "country_iso_code": "TZ",
    "timezone": "Africa/Dar_es_Salaam",
    "latitude": -5.08333,
    "longitude": 38.85
  },
  {
    "city": "Uondwe",
    "city_zh": "Uondwe",
    "country": "Tanzania",
    "country_zh": "坦尚尼亞",
    "country_iso_code": "TZ",
    "timezone": "Africa/Dar_es_Salaam",
    "latitude": -4.98333,
    "longitude": 39.78333
  },
  {
    "city": "Unyanyembe",
    "city_zh": "Unyanyembe",
    "country": "Tanzania",
    "country_zh": "坦尚尼亞",
    "country_iso_code": "TZ",
    "timezone": "Africa/Dar_es_Salaam",
    "latitude": -3.6,
    "longitude": 33.75
  },
  {
    "city": "Unyamhanda",
    "city_zh": "Unyamhanda",
    "country": "Tanzania",
    "country_zh": "坦尚尼亞",
    "country_iso_code": "TZ",
    "timezone": "Africa/Dar_es_Salaam",
    "latitude": -2.61667,
    "longitude": 33.03333
  },
  {
    "city": "Unguja Ukuu Pwani",
    "city_zh": "Unguja Ukuu Pwani",
    "country": "Tanzania",
    "country_zh": "坦尚尼亞",
    "country_iso_code": "TZ",
    "timezone": "Africa/Dar_es_Salaam",
    "latitude": -6.31667,
    "longitude": 39.36667
  },
  {
    "city": "Unguja Ukuu",
    "city_zh": "Unguja Ukuu",
    "country": "Tanzania",
    "country_zh": "坦尚尼亞",
    "country_iso_code": "TZ",
    "timezone": "Africa/Dar_es_Salaam",
    "latitude": -6.31667,
    "longitude": 39.38333
  },
  {
    "city": "Ungi",
    "city_zh": "Ungi",
    "country": "Tanzania",
    "country_zh": "坦尚尼亞",
    "country_iso_code": "TZ",
    "timezone": "Africa/Dar_es_Salaam",
    "latitude": -4.91667,
    "longitude": 39.73333
  },
  {
    "city": "Ungenza",
    "city_zh": "Ungenza",
    "country": "Tanzania",
    "country_zh": "坦尚尼亞",
    "country_iso_code": "TZ",
    "timezone": "Africa/Dar_es_Salaam",
    "latitude": -8.38333,
    "longitude": 34.96667
  },
  {
    "city": "Umungani",
    "city_zh": "Umungani",
    "country": "Tanzania",
    "country_zh": "坦尚尼亞",
    "country_iso_code": "TZ",
    "timezone": "Africa/Dar_es_Salaam",
    "latitude": -5.23333,
    "longitude": 39.81667
  },
  {
    "city": "Umbuji",
    "city_zh": "Umbuji",
    "country": "Tanzania",
    "country_zh": "坦尚尼亞",
    "country_iso_code": "TZ",
    "timezone": "Africa/Dar_es_Salaam",
    "latitude": -6.33333,
    "longitude": 39.55
  },
  {
    "city": "Umbuji",
    "city_zh": "Umbuji",
    "country": "Tanzania",
    "country_zh": "坦尚尼亞",
    "country_iso_code": "TZ",
    "timezone": "Africa/Dar_es_Salaam",
    "latitude": -6.11667,
    "longitude": 39.36667
  },
  {
    "city": "Umbamba",
    "city_zh": "Umbamba",
    "country": "Tanzania",
    "country_zh": "坦尚尼亞",
    "country_iso_code": "TZ",
    "timezone": "Africa/Dar_es_Salaam",
    "latitude": -8.26667,
    "longitude": 35.7
  },
  {
    "city": "Umba",
    "city_zh": "Umba",
    "country": "Tanzania",
    "country_zh": "坦尚尼亞",
    "country_iso_code": "TZ",
    "timezone": "Africa/Dar_es_Salaam",
    "latitude": -5.16667,
    "longitude": 38.86667
  },
  {
    "city": "Ulyankulu",
    "city_zh": "Ulyankulu",
    "country": "Tanzania",
    "country_zh": "坦尚尼亞",
    "country_iso_code": "TZ",
    "timezone": "Africa/Dar_es_Salaam",
    "latitude": -4.75479,
    "longitude": 32.32143
  },
  {
    "city": "Ulyampiti",
    "city_zh": "Ulyampiti",
    "country": "Tanzania",
    "country_zh": "坦尚尼亞",
    "country_iso_code": "TZ",
    "timezone": "Africa/Dar_es_Salaam",
    "latitude": -5.2,
    "longitude": 34.78333
  },
  {
    "city": "Uluwani",
    "city_zh": "Uluwani",
    "country": "Tanzania",
    "country_zh": "坦尚尼亞",
    "country_iso_code": "TZ",
    "timezone": "Africa/Dar_es_Salaam",
    "latitude": -8.16667,
    "longitude": 34.98333
  },
  {
    "city": "Ulunga",
    "city_zh": "Ulunga",
    "country": "Tanzania",
    "country_zh": "坦尚尼亞",
    "country_iso_code": "TZ",
    "timezone": "Africa/Dar_es_Salaam",
    "latitude": -5.35,
    "longitude": 31.6
  },
  {
    "city": "Ulumi",
    "city_zh": "Ulumi",
    "country": "Tanzania",
    "country_zh": "坦尚尼亞",
    "country_iso_code": "TZ",
    "timezone": "Africa/Dar_es_Salaam",
    "latitude": -8.73333,
    "longitude": 31.73333
  },
  {
    "city": "Ululu",
    "city_zh": "Ululu",
    "country": "Tanzania",
    "country_zh": "坦尚尼亞",
    "country_iso_code": "TZ",
    "timezone": "Africa/Dar_es_Salaam",
    "latitude": -7.35,
    "longitude": 37.51667
  },
  {
    "city": "Bulombola",
    "city_zh": "Bulombola",
    "country": "Tanzania",
    "country_zh": "坦尚尼亞",
    "country_iso_code": "TZ",
    "timezone": "Africa/Dar_es_Salaam",
    "latitude": -5.04056,
    "longitude": 29.77444
  },
  {
    "city": "Ulomba",
    "city_zh": "Ulomba",
    "country": "Tanzania",
    "country_zh": "坦尚尼亞",
    "country_iso_code": "TZ",
    "timezone": "Africa/Dar_es_Salaam",
    "latitude": -8.68333,
    "longitude": 34.2
  },
  {
    "city": "Ulimakafu",
    "city_zh": "Ulimakafu",
    "country": "Tanzania",
    "country_zh": "坦尚尼亞",
    "country_iso_code": "TZ",
    "timezone": "Africa/Dar_es_Salaam",
    "latitude": -4.85,
    "longitude": 33.18333
  },
  {
    "city": "Ulila",
    "city_zh": "Ulila",
    "country": "Tanzania",
    "country_zh": "坦尚尼亞",
    "country_iso_code": "TZ",
    "timezone": "Africa/Dar_es_Salaam",
    "latitude": -8.6,
    "longitude": 34.85
  },
  {
    "city": "Ulewe",
    "city_zh": "Ulewe",
    "country": "Tanzania",
    "country_zh": "坦尚尼亞",
    "country_iso_code": "TZ",
    "timezone": "Africa/Dar_es_Salaam",
    "latitude": -4.03333,
    "longitude": 32.1
  },
  {
    "city": "Ulevi",
    "city_zh": "Ulevi",
    "country": "Tanzania",
    "country_zh": "坦尚尼亞",
    "country_iso_code": "TZ",
    "timezone": "Africa/Dar_es_Salaam",
    "latitude": -8.06667,
    "longitude": 36.0
  },
  {
    "city": "Ulete",
    "city_zh": "Ulete",
    "country": "Tanzania",
    "country_zh": "坦尚尼亞",
    "country_iso_code": "TZ",
    "timezone": "Africa/Dar_es_Salaam",
    "latitude": -8.11667,
    "longitude": 35.41667
  },
  {
    "city": "Ulenje",
    "city_zh": "Ulenje",
    "country": "Tanzania",
    "country_zh": "坦尚尼亞",
    "country_iso_code": "TZ",
    "timezone": "Africa/Dar_es_Salaam",
    "latitude": -8.93333,
    "longitude": 33.68333
  },
  {
    "city": "Uleni",
    "city_zh": "Uleni",
    "country": "Tanzania",
    "country_zh": "坦尚尼亞",
    "country_iso_code": "TZ",
    "timezone": "Africa/Dar_es_Salaam",
    "latitude": -5.28333,
    "longitude": 39.75
  },
  {
    "city": "Ulenge",
    "city_zh": "Ulenge",
    "country": "Tanzania",
    "country_zh": "坦尚尼亞",
    "country_iso_code": "TZ",
    "timezone": "Africa/Dar_es_Salaam",
    "latitude": -5.41667,
    "longitude": 39.65
  },
  {
    "city": "Ulemo",
    "city_zh": "Ulemo",
    "country": "Tanzania",
    "country_zh": "坦尚尼亞",
    "country_iso_code": "TZ",
    "timezone": "Africa/Dar_es_Salaam",
    "latitude": -4.4,
    "longitude": 34.4
  },
  {
    "city": "Uleia",
    "city_zh": "Uleia",
    "country": "Tanzania",
    "country_zh": "坦尚尼亞",
    "country_iso_code": "TZ",
    "timezone": "Africa/Dar_es_Salaam",
    "latitude": -8.1,
    "longitude": 32.61667
  },
  {
    "city": "Ulaya",
    "city_zh": "Ulaya",
    "country": "Tanzania",
    "country_zh": "坦尚尼亞",
    "country_iso_code": "TZ",
    "timezone": "Africa/Dar_es_Salaam",
    "latitude": -7.05644,
    "longitude": 36.9
  },
  {
    "city": "Ulaya",
    "city_zh": "Ulaya",
    "country": "Tanzania",
    "country_zh": "坦尚尼亞",
    "country_iso_code": "TZ",
    "timezone": "Africa/Dar_es_Salaam",
    "latitude": -4.38333,
    "longitude": 33.41667
  },
  {
    "city": "Ulanga",
    "city_zh": "Ulanga",
    "country": "Tanzania",
    "country_zh": "坦尚尼亞",
    "country_iso_code": "TZ",
    "timezone": "Africa/Dar_es_Salaam",
    "latitude": -8.35,
    "longitude": 34.3
  },
  {
    "city": "Ulanga",
    "city_zh": "Ulanga",
    "country": "Tanzania",
    "country_zh": "坦尚尼亞",
    "country_iso_code": "TZ",
    "timezone": "Africa/Dar_es_Salaam",
    "latitude": -7.29511,
    "longitude": 36.92491
  },
  {
    "city": "Ulambo",
    "city_zh": "Ulambo",
    "country": "Tanzania",
    "country_zh": "坦尚尼亞",
    "country_iso_code": "TZ",
    "timezone": "Africa/Dar_es_Salaam",
    "latitude": -8.98333,
    "longitude": 35.9
  },
  {
    "city": "Ukwawila",
    "city_zh": "Ukwawila",
    "country": "Tanzania",
    "country_zh": "坦尚尼亞",
    "country_iso_code": "TZ",
    "timezone": "Africa/Dar_es_Salaam",
    "latitude": -8.68333,
    "longitude": 34.15
  },
  {
    "city": "Ukwama",
    "city_zh": "Ukwama",
    "country": "Tanzania",
    "country_zh": "坦尚尼亞",
    "country_iso_code": "TZ",
    "timezone": "Africa/Dar_es_Salaam",
    "latitude": -9.45,
    "longitude": 34.21667
  },
  {
    "city": "Ukwama",
    "city_zh": "Ukwama",
    "country": "Tanzania",
    "country_zh": "坦尚尼亞",
    "country_iso_code": "TZ",
    "timezone": "Africa/Dar_es_Salaam",
    "latitude": -7.64857,
    "longitude": 36.48999
  },
  {
    "city": "Ukwaheri",
    "city_zh": "Ukwaheri",
    "country": "Tanzania",
    "country_zh": "坦尚尼亞",
    "country_iso_code": "TZ",
    "timezone": "Africa/Dar_es_Salaam",
    "latitude": -8.48333,
    "longitude": 33.98333
  },
  {
    "city": "Ukutini",
    "city_zh": "Ukutini",
    "country": "Tanzania",
    "country_zh": "坦尚尼亞",
    "country_iso_code": "TZ",
    "timezone": "Africa/Dar_es_Salaam",
    "latitude": -5.35,
    "longitude": 39.76667
  },
  {
    "city": "Ukutani",
    "city_zh": "Ukutani",
    "country": "Tanzania",
    "country_zh": "坦尚尼亞",
    "country_iso_code": "TZ",
    "timezone": "Africa/Dar_es_Salaam",
    "latitude": -5.08333,
    "longitude": 39.76667
  },
  {
    "city": "Ukutani",
    "city_zh": "Ukutani",
    "country": "Tanzania",
    "country_zh": "坦尚尼亞",
    "country_iso_code": "TZ",
    "timezone": "Africa/Dar_es_Salaam",
    "latitude": -5.05,
    "longitude": 39.7
  },
  {
    "city": "Ukutani",
    "city_zh": "Ukutani",
    "country": "Tanzania",
    "country_zh": "坦尚尼亞",
    "country_iso_code": "TZ",
    "timezone": "Africa/Dar_es_Salaam",
    "latitude": -5.01667,
    "longitude": 39.7
  },
  {
    "city": "Ukunjwi",
    "city_zh": "Ukunjwi",
    "country": "Tanzania",
    "country_zh": "坦尚尼亞",
    "country_iso_code": "TZ",
    "timezone": "Africa/Dar_es_Salaam",
    "latitude": -5.05,
    "longitude": 39.68333
  },
  {
    "city": "Ukune",
    "city_zh": "Ukune",
    "country": "Tanzania",
    "country_zh": "坦尚尼亞",
    "country_iso_code": "TZ",
    "timezone": "Africa/Dar_es_Salaam",
    "latitude": -4.03333,
    "longitude": 32.51667
  },
  {
    "city": "Ukuli",
    "city_zh": "Ukuli",
    "country": "Tanzania",
    "country_zh": "坦尚尼亞",
    "country_iso_code": "TZ",
    "timezone": "Africa/Dar_es_Salaam",
    "latitude": -8.95024,
    "longitude": 39.31065
  },
  {
    "city": "Ukubwa-wa-bure",
    "city_zh": "Ukubwa-wa-bure",
    "country": "Tanzania",
    "country_zh": "坦尚尼亞",
    "country_iso_code": "TZ",
    "timezone": "Africa/Dar_es_Salaam",
    "latitude": -5.26667,
    "longitude": 39.75
  },
  {
    "city": "Ukoroso",
    "city_zh": "Ukoroso",
    "country": "Tanzania",
    "country_zh": "坦尚尼亞",
    "country_iso_code": "TZ",
    "timezone": "Africa/Dar_es_Salaam",
    "latitude": -3.9,
    "longitude": 32.75
  },
  {
    "city": "Ukongoroni",
    "city_zh": "Ukongoroni",
    "country": "Tanzania",
    "country_zh": "坦尚尼亞",
    "country_iso_code": "TZ",
    "timezone": "Africa/Dar_es_Salaam",
    "latitude": -6.2,
    "longitude": 39.48333
  },
  {
    "city": "Ukonga",
    "city_zh": "Ukonga",
    "country": "Tanzania",
    "country_zh": "坦尚尼亞",
    "country_iso_code": "TZ",
    "timezone": "Africa/Dar_es_Salaam",
    "latitude": -6.86667,
    "longitude": 39.18333
  },
  {
    "city": "Ukolo",
    "city_zh": "Ukolo",
    "country": "Tanzania",
    "country_zh": "坦尚尼亞",
    "country_iso_code": "TZ",
    "timezone": "Africa/Dar_es_Salaam",
    "latitude": -7.53333,
    "longitude": 31.25
  },
  {
    "city": "Ukiriguru",
    "city_zh": "Ukiriguru",
    "country": "Tanzania",
    "country_zh": "坦尚尼亞",
    "country_iso_code": "TZ",
    "timezone": "Africa/Dar_es_Salaam",
    "latitude": -2.71667,
    "longitude": 33.01667
  },
  {
    "city": "Ukimbu",
    "city_zh": "Ukimbu",
    "country": "Tanzania",
    "country_zh": "坦尚尼亞",
    "country_iso_code": "TZ",
    "timezone": "Africa/Dar_es_Salaam",
    "latitude": -5.93333,
    "longitude": 34.16667
  },
  {
    "city": "Ukia",
    "city_zh": "Ukia",
    "country": "Tanzania",
    "country_zh": "坦尚尼亞",
    "country_iso_code": "TZ",
    "timezone": "Africa/Dar_es_Salaam",
    "latitude": -7.73333,
    "longitude": 31.78333
  },
  {
    "city": "Ukereni",
    "city_zh": "Ukereni",
    "country": "Tanzania",
    "country_zh": "坦尚尼亞",
    "country_iso_code": "TZ",
    "timezone": "Africa/Dar_es_Salaam",
    "latitude": -5.0,
    "longitude": 39.01667
  },
  {
    "city": "Ukenyenge",
    "city_zh": "Ukenyenge",
    "country": "Tanzania",
    "country_zh": "坦尚尼亞",
    "country_iso_code": "TZ",
    "timezone": "Africa/Dar_es_Salaam",
    "latitude": -3.68333,
    "longitude": 33.66667
  },
  {
    "city": "Ukaranga",
    "city_zh": "Ukaranga",
    "country": "Tanzania",
    "country_zh": "坦尚尼亞",
    "country_iso_code": "TZ",
    "timezone": "Africa/Dar_es_Salaam",
    "latitude": -2.91667,
    "longitude": 32.25
  },
  {
    "city": "Ukando",
    "city_zh": "Ukando",
    "country": "Tanzania",
    "country_zh": "坦尚尼亞",
    "country_iso_code": "TZ",
    "timezone": "Africa/Dar_es_Salaam",
    "latitude": -5.15,
    "longitude": 39.78333
  },
  {
    "city": "Ukami",
    "city_zh": "Ukami",
    "country": "Tanzania",
    "country_zh": "坦尚尼亞",
    "country_iso_code": "TZ",
    "timezone": "Africa/Dar_es_Salaam",
    "latitude": -8.5,
    "longitude": 35.73333
  },
  {
    "city": "Ukamba",
    "city_zh": "Ukamba",
    "country": "Tanzania",
    "country_zh": "坦尚尼亞",
    "country_iso_code": "TZ",
    "timezone": "Africa/Dar_es_Salaam",
    "latitude": -3.93333,
    "longitude": 32.58333
  },
  {
    "city": "Ujola",
    "city_zh": "Ujola",
    "country": "Tanzania",
    "country_zh": "坦尚尼亞",
    "country_iso_code": "TZ",
    "timezone": "Africa/Dar_es_Salaam",
    "latitude": -8.66667,
    "longitude": 33.91667
  },
  {
    "city": "Ujinga",
    "city_zh": "Ujinga",
    "country": "Tanzania",
    "country_zh": "坦尚尼亞",
    "country_iso_code": "TZ",
    "timezone": "Africa/Dar_es_Salaam",
    "latitude": -5.23333,
    "longitude": 39.78333
  },
  {
    "city": "Ujiji",
    "city_zh": "烏吉吉",
    "country": "Tanzania",
    "country_zh": "坦尚尼亞",
    "country_iso_code": "TZ",
    "timezone": "Africa/Dar_es_Salaam",
    "latitude": -4.90556,
    "longitude": 29.67611
  },
  {
    "city": "Uita",
    "city_zh": "Uita",
    "country": "Tanzania",
    "country_zh": "坦尚尼亞",
    "country_iso_code": "TZ",
    "timezone": "Africa/Dar_es_Salaam",
    "latitude": -2.55,
    "longitude": 33.05
  },
  {
    "city": "Uhominyi",
    "city_zh": "Uhominyi",
    "country": "Tanzania",
    "country_zh": "坦尚尼亞",
    "country_iso_code": "TZ",
    "timezone": "Africa/Dar_es_Salaam",
    "latitude": -7.56667,
    "longitude": 36.1
  },
  {
    "city": "Ugweno",
    "city_zh": "Ugweno",
    "country": "Tanzania",
    "country_zh": "坦尚尼亞",
    "country_iso_code": "TZ",
    "timezone": "Africa/Dar_es_Salaam",
    "latitude": -3.65,
    "longitude": 37.65
  },
  {
    "city": "Ugwana",
    "city_zh": "Ugwana",
    "country": "Tanzania",
    "country_zh": "坦尚尼亞",
    "country_iso_code": "TZ",
    "timezone": "Africa/Dar_es_Salaam",
    "latitude": -4.83333,
    "longitude": 33.76667
  },
  {
    "city": "Ugowa",
    "city_zh": "Ugowa",
    "country": "Tanzania",
    "country_zh": "坦尚尼亞",
    "country_iso_code": "TZ",
    "timezone": "Africa/Dar_es_Salaam",
    "latitude": -7.65,
    "longitude": 36.3
  },
  {
    "city": "Ugolole",
    "city_zh": "Ugolole",
    "country": "Tanzania",
    "country_zh": "坦尚尼亞",
    "country_iso_code": "TZ",
    "timezone": "Africa/Dar_es_Salaam",
    "latitude": -5.20306,
    "longitude": 30.61083
  },
  {
    "city": "Ugara",
    "city_zh": "Ugara",
    "country": "Tanzania",
    "country_zh": "坦尚尼亞",
    "country_iso_code": "TZ",
    "timezone": "Africa/Dar_es_Salaam",
    "latitude": -3.88333,
    "longitude": 33.05
  },
  {
    "city": "Uganda",
    "city_zh": "Uganda",
    "country": "Tanzania",
    "country_zh": "坦尚尼亞",
    "country_iso_code": "TZ",
    "timezone": "Africa/Dar_es_Salaam",
    "latitude": -6.05,
    "longitude": 39.26667
  },
  {
    "city": "Uganda",
    "city_zh": "Uganda",
    "country": "Tanzania",
    "country_zh": "坦尚尼亞",
    "country_iso_code": "TZ",
    "timezone": "Africa/Dar_es_Salaam",
    "latitude": -4.65,
    "longitude": 34.33333
  },
  {
    "city": "Ugalla",
    "city_zh": "Ugalla",
    "country": "Tanzania",
    "country_zh": "坦尚尼亞",
    "country_iso_code": "TZ",
    "timezone": "Africa/Dar_es_Salaam",
    "latitude": -5.78333,
    "longitude": 31.15
  },
  {
    "city": "Ufune",
    "city_zh": "Ufune",
    "country": "Tanzania",
    "country_zh": "坦尚尼亞",
    "country_iso_code": "TZ",
    "timezone": "Africa/Dar_es_Salaam",
    "latitude": -6.25,
    "longitude": 39.23333
  },
  {
    "city": "Uflaga",
    "city_zh": "Uflaga",
    "country": "Tanzania",
    "country_zh": "坦尚尼亞",
    "country_iso_code": "TZ",
    "timezone": "Africa/Dar_es_Salaam",
    "latitude": -4.7,
    "longitude": 31.58333
  },
  {
    "city": "Ufinga",
    "city_zh": "Ufinga",
    "country": "Tanzania",
    "country_zh": "坦尚尼亞",
    "country_iso_code": "TZ",
    "timezone": "Africa/Dar_es_Salaam",
    "latitude": -5.08333,
    "longitude": 38.71667
  },
  {
    "city": "Ufina",
    "city_zh": "Ufina",
    "country": "Tanzania",
    "country_zh": "坦尚尼亞",
    "country_iso_code": "TZ",
    "timezone": "Africa/Dar_es_Salaam",
    "latitude": -6.3,
    "longitude": 32.35
  },
  {
    "city": "Ufana",
    "city_zh": "Ufana",
    "country": "Tanzania",
    "country_zh": "坦尚尼亞",
    "country_iso_code": "TZ",
    "timezone": "Africa/Dar_es_Salaam",
    "latitude": -4.25,
    "longitude": 35.35
  },
  {
    "city": "Udungungkitu",
    "city_zh": "Udungungkitu",
    "country": "Tanzania",
    "country_zh": "坦尚尼亞",
    "country_iso_code": "TZ",
    "timezone": "Africa/Dar_es_Salaam",
    "latitude": -5.33333,
    "longitude": 39.71667
  },
  {
    "city": "Udekwa",
    "city_zh": "Udekwa",
    "country": "Tanzania",
    "country_zh": "坦尚尼亞",
    "country_iso_code": "TZ",
    "timezone": "Africa/Dar_es_Salaam",
    "latitude": -7.63333,
    "longitude": 36.41667
  },
  {
    "city": "Uchunga",
    "city_zh": "Uchunga",
    "country": "Tanzania",
    "country_zh": "坦尚尼亞",
    "country_iso_code": "TZ",
    "timezone": "Africa/Dar_es_Salaam",
    "latitude": -3.86667,
    "longitude": 33.11667
  },
  {
    "city": "Uchozini",
    "city_zh": "Uchozini",
    "country": "Tanzania",
    "country_zh": "坦尚尼亞",
    "country_iso_code": "TZ",
    "timezone": "Africa/Dar_es_Salaam",
    "latitude": -5.06667,
    "longitude": 39.71667
  },
  {
    "city": "Uchembe",
    "city_zh": "Uchembe",
    "country": "Tanzania",
    "country_zh": "坦尚尼亞",
    "country_iso_code": "TZ",
    "timezone": "Africa/Dar_es_Salaam",
    "latitude": -7.63124,
    "longitude": 39.12201
  },
  {
    "city": "Uchangani",
    "city_zh": "Uchangani",
    "country": "Tanzania",
    "country_zh": "坦尚尼亞",
    "country_iso_code": "TZ",
    "timezone": "Africa/Dar_es_Salaam",
    "latitude": -5.21667,
    "longitude": 39.71667
  },
  {
    "city": "Ubwari",
    "city_zh": "Ubwari",
    "country": "Tanzania",
    "country_zh": "坦尚尼亞",
    "country_iso_code": "TZ",
    "timezone": "Africa/Dar_es_Salaam",
    "latitude": -5.16667,
    "longitude": 38.78333
  },
  {
    "city": "Uburungu",
    "city_zh": "Uburungu",
    "country": "Tanzania",
    "country_zh": "坦尚尼亞",
    "country_iso_code": "TZ",
    "timezone": "Africa/Dar_es_Salaam",
    "latitude": -5.18333,
    "longitude": 38.78333
  },
  {
    "city": "Ubungo",
    "city_zh": "Ubungo",
    "country": "Tanzania",
    "country_zh": "坦尚尼亞",
    "country_iso_code": "TZ",
    "timezone": "Africa/Dar_es_Salaam",
    "latitude": -6.78333,
    "longitude": 39.2
  },
  {
    "city": "Ubenazomozi",
    "city_zh": "Ubenazomozi",
    "country": "Tanzania",
    "country_zh": "坦尚尼亞",
    "country_iso_code": "TZ",
    "timezone": "Africa/Dar_es_Salaam",
    "latitude": -6.63333,
    "longitude": 38.16667
  },
  {
    "city": "Ubago",
    "city_zh": "Ubago",
    "country": "Tanzania",
    "country_zh": "坦尚尼亞",
    "country_iso_code": "TZ",
    "timezone": "Africa/Dar_es_Salaam",
    "latitude": -6.15,
    "longitude": 39.3
  },
  {
    "city": "Ubada",
    "city_zh": "Ubada",
    "country": "Tanzania",
    "country_zh": "坦尚尼亞",
    "country_iso_code": "TZ",
    "timezone": "Africa/Dar_es_Salaam",
    "latitude": -5.11667,
    "longitude": 33.4
  },
  {
    "city": "Tyeme",
    "city_zh": "Tyeme",
    "country": "Tanzania",
    "country_zh": "坦尚尼亞",
    "country_iso_code": "TZ",
    "timezone": "Africa/Dar_es_Salaam",
    "latitude": -4.43333,
    "longitude": 34.21667
  },
  {
    "city": "Tuvaila",
    "city_zh": "Tuvaila",
    "country": "Tanzania",
    "country_zh": "坦尚尼亞",
    "country_iso_code": "TZ",
    "timezone": "Africa/Dar_es_Salaam",
    "latitude": -3.36667,
    "longitude": 36.9
  },
  {
    "city": "Tutubu",
    "city_zh": "Tutubu",
    "country": "Tanzania",
    "country_zh": "坦尚尼亞",
    "country_iso_code": "TZ",
    "timezone": "Africa/Dar_es_Salaam",
    "latitude": -5.5,
    "longitude": 32.68333
  },
  {
    "city": "Tutu",
    "city_zh": "Tutu",
    "country": "Tanzania",
    "country_zh": "坦尚尼亞",
    "country_iso_code": "TZ",
    "timezone": "Africa/Dar_es_Salaam",
    "latitude": -4.3,
    "longitude": 34.45
  },
  {
    "city": "Turisanani",
    "city_zh": "Turisanani",
    "country": "Tanzania",
    "country_zh": "坦尚尼亞",
    "country_iso_code": "TZ",
    "timezone": "Africa/Dar_es_Salaam",
    "latitude": -5.21667,
    "longitude": 39.76667
  },
  {
    "city": "Turiani",
    "city_zh": "Turiani",
    "country": "Tanzania",
    "country_zh": "坦尚尼亞",
    "country_iso_code": "TZ",
    "timezone": "Africa/Dar_es_Salaam",
    "latitude": -6.14956,
    "longitude": 37.59762
  },
  {
    "city": "Tura",
    "city_zh": "Tura",
    "country": "Tanzania",
    "country_zh": "坦尚尼亞",
    "country_iso_code": "TZ",
    "timezone": "Africa/Dar_es_Salaam",
    "latitude": -5.51667,
    "longitude": 33.83333
  },
  {
    "city": "Tungwi",
    "city_zh": "Tungwi",
    "country": "Tanzania",
    "country_zh": "坦尚尼亞",
    "country_iso_code": "TZ",
    "timezone": "Africa/Dar_es_Salaam",
    "latitude": -5.06667,
    "longitude": 39.7
  },
  {
    "city": "Tungwa",
    "city_zh": "Tungwa",
    "country": "Tanzania",
    "country_zh": "坦尚尼亞",
    "country_iso_code": "TZ",
    "timezone": "Africa/Dar_es_Salaam",
    "latitude": -8.63333,
    "longitude": 32.48333
  },
  {
    "city": "Tunguu",
    "city_zh": "Tunguu",
    "country": "Tanzania",
    "country_zh": "坦尚尼亞",
    "country_iso_code": "TZ",
    "timezone": "Africa/Dar_es_Salaam",
    "latitude": -6.2,
    "longitude": 39.31667
  },
  {
    "city": "Tunguli",
    "city_zh": "Tunguli",
    "country": "Tanzania",
    "country_zh": "坦尚尼亞",
    "country_iso_code": "TZ",
    "timezone": "Africa/Dar_es_Salaam",
    "latitude": -5.91667,
    "longitude": 37.31667
  },
  {
    "city": "Tungamarenga",
    "city_zh": "Tungamarenga",
    "country": "Tanzania",
    "country_zh": "坦尚尼亞",
    "country_iso_code": "TZ",
    "timezone": "Africa/Dar_es_Salaam",
    "latitude": -7.76667,
    "longitude": 35.0
  },
  {
    "city": "Tungamaa",
    "city_zh": "Tungamaa",
    "country": "Tanzania",
    "country_zh": "坦尚尼亞",
    "country_iso_code": "TZ",
    "timezone": "Africa/Dar_es_Salaam",
    "latitude": -5.06667,
    "longitude": 39.75
  },
  {
    "city": "Tundwa",
    "city_zh": "Tundwa",
    "country": "Tanzania",
    "country_zh": "坦尚尼亞",
    "country_iso_code": "TZ",
    "timezone": "Africa/Dar_es_Salaam",
    "latitude": -5.13333,
    "longitude": 39.76667
  },
  {
    "city": "Tunduni",
    "city_zh": "Tunduni",
    "country": "Tanzania",
    "country_zh": "坦尚尼亞",
    "country_iso_code": "TZ",
    "timezone": "Africa/Dar_es_Salaam",
    "latitude": -6.05,
    "longitude": 39.33333
  },
  {
    "city": "Tunduni",
    "city_zh": "Tunduni",
    "country": "Tanzania",
    "country_zh": "坦尚尼亞",
    "country_iso_code": "TZ",
    "timezone": "Africa/Dar_es_Salaam",
    "latitude": -5.96667,
    "longitude": 39.3
  },
  {
    "city": "Tunduma",
    "city_zh": "Tunduma",
    "country": "Tanzania",
    "country_zh": "坦尚尼亞",
    "country_iso_code": "TZ",
    "timezone": "Africa/Dar_es_Salaam",
    "latitude": -9.3,
    "longitude": 32.76667
  },
  {
    "city": "Tundaua",
    "city_zh": "Tundaua",
    "country": "Tanzania",
    "country_zh": "坦尚尼亞",
    "country_iso_code": "TZ",
    "timezone": "Africa/Dar_es_Salaam",
    "latitude": -5.25,
    "longitude": 39.7
  },
  {
    "city": "Tundaua",
    "city_zh": "Tundaua",
    "country": "Tanzania",
    "country_zh": "坦尚尼亞",
    "country_iso_code": "TZ",
    "timezone": "Africa/Dar_es_Salaam",
    "latitude": -5.23333,
    "longitude": 39.05
  },
  {
    "city": "Tunda",
    "city_zh": "Tunda",
    "country": "Tanzania",
    "country_zh": "坦尚尼亞",
    "country_iso_code": "TZ",
    "timezone": "Africa/Dar_es_Salaam",
    "latitude": -5.13333,
    "longitude": 39.78333
  },
  {
    "city": "Tumuli",
    "city_zh": "Tumuli",
    "country": "Tanzania",
    "country_zh": "坦尚尼亞",
    "country_iso_code": "TZ",
    "timezone": "Africa/Dar_es_Salaam",
    "latitude": -4.55,
    "longitude": 34.55
  },
  {
    "city": "Tumbini",
    "city_zh": "Tumbini",
    "country": "Tanzania",
    "country_zh": "坦尚尼亞",
    "country_iso_code": "TZ",
    "timezone": "Africa/Dar_es_Salaam",
    "latitude": -5.33333,
    "longitude": 39.76667
  },
  {
    "city": "Tumbili",
    "city_zh": "Tumbili",
    "country": "Tanzania",
    "country_zh": "坦尚尼亞",
    "country_iso_code": "TZ",
    "timezone": "Africa/Dar_es_Salaam",
    "latitude": -5.48333,
    "longitude": 32.83333
  },
  {
    "city": "Tumbili",
    "city_zh": "Tumbili",
    "country": "Tanzania",
    "country_zh": "坦尚尼亞",
    "country_iso_code": "TZ",
    "timezone": "Africa/Dar_es_Salaam",
    "latitude": -4.05,
    "longitude": 34.7
  },
  {
    "city": "Tumbi",
    "city_zh": "Tumbi",
    "country": "Tanzania",
    "country_zh": "坦尚尼亞",
    "country_iso_code": "TZ",
    "timezone": "Africa/Dar_es_Salaam",
    "latitude": -5.06667,
    "longitude": 32.73333
  },
  {
    "city": "Tumbelo",
    "city_zh": "Tumbelo",
    "country": "Tanzania",
    "country_zh": "坦尚尼亞",
    "country_iso_code": "TZ",
    "timezone": "Africa/Dar_es_Salaam",
    "latitude": -4.85,
    "longitude": 35.76667
  },
  {
    "city": "Tumbe",
    "city_zh": "Tumbe",
    "country": "Tanzania",
    "country_zh": "坦尚尼亞",
    "country_iso_code": "TZ",
    "timezone": "Africa/Dar_es_Salaam",
    "latitude": -4.95,
    "longitude": 39.78333
  },
  {
    "city": "Tumbatu",
    "city_zh": "Tumbatu",
    "country": "Tanzania",
    "country_zh": "坦尚尼亞",
    "country_iso_code": "TZ",
    "timezone": "Africa/Dar_es_Salaam",
    "latitude": -5.21667,
    "longitude": 39.76667
  },
  {
    "city": "Tumbakose",
    "city_zh": "Tumbakose",
    "country": "Tanzania",
    "country_zh": "坦尚尼亞",
    "country_iso_code": "TZ",
    "timezone": "Africa/Dar_es_Salaam",
    "latitude": -5.45,
    "longitude": 35.66667
  },
  {
    "city": "Tumba",
    "city_zh": "Tumba",
    "country": "Tanzania",
    "country_zh": "坦尚尼亞",
    "country_iso_code": "TZ",
    "timezone": "Africa/Dar_es_Salaam",
    "latitude": -7.51667,
    "longitude": 31.66667
  },
  {
    "city": "Tumba",
    "city_zh": "Tumba",
    "country": "Tanzania",
    "country_zh": "坦尚尼亞",
    "country_iso_code": "TZ",
    "timezone": "Africa/Dar_es_Salaam",
    "latitude": -7.11667,
    "longitude": 31.16667
  },
  {
    "city": "Tuloli",
    "city_zh": "Tuloli",
    "country": "Tanzania",
    "country_zh": "坦尚尼亞",
    "country_iso_code": "TZ",
    "timezone": "Africa/Dar_es_Salaam",
    "latitude": -4.03333,
    "longitude": 32.58333
  },
  {
    "city": "Tulo",
    "city_zh": "Tulo",
    "country": "Tanzania",
    "country_zh": "坦尚尼亞",
    "country_iso_code": "TZ",
    "timezone": "Africa/Dar_es_Salaam",
    "latitude": -7.23754,
    "longitude": 37.92196
  },
  {
    "city": "Tuliani",
    "city_zh": "Tuliani",
    "country": "Tanzania",
    "country_zh": "坦尚尼亞",
    "country_iso_code": "TZ",
    "timezone": "Africa/Dar_es_Salaam",
    "latitude": -5.0,
    "longitude": 39.7
  },
  {
    "city": "Tulia",
    "city_zh": "Tulia",
    "country": "Tanzania",
    "country_zh": "坦尚尼亞",
    "country_iso_code": "TZ",
    "timezone": "Africa/Dar_es_Salaam",
    "latitude": -4.11667,
    "longitude": 34.33333
  },
  {
    "city": "Tuli",
    "city_zh": "Tuli",
    "country": "Tanzania",
    "country_zh": "坦尚尼亞",
    "country_iso_code": "TZ",
    "timezone": "Africa/Dar_es_Salaam",
    "latitude": -5.41667,
    "longitude": 39.73333
  },
  {
    "city": "Tulasimba",
    "city_zh": "Tulasimba",
    "country": "Tanzania",
    "country_zh": "坦尚尼亞",
    "country_iso_code": "TZ",
    "timezone": "Africa/Dar_es_Salaam",
    "latitude": -7.13333,
    "longitude": 35.73333
  },
  {
    "city": "Tukuyu",
    "city_zh": "Tukuyu",
    "country": "Tanzania",
    "country_zh": "坦尚尼亞",
    "country_iso_code": "TZ",
    "timezone": "Africa/Dar_es_Salaam",
    "latitude": -9.25,
    "longitude": 33.65
  },
  {
    "city": "Tuima",
    "city_zh": "Tuima",
    "country": "Tanzania",
    "country_zh": "坦尚尼亞",
    "country_iso_code": "TZ",
    "timezone": "Africa/Dar_es_Salaam",
    "latitude": -4.53333,
    "longitude": 33.26667
  },
  {
    "city": "Tubugwe",
    "city_zh": "Tubugwe",
    "country": "Tanzania",
    "country_zh": "坦尚尼亞",
    "country_iso_code": "TZ",
    "timezone": "Africa/Dar_es_Salaam",
    "latitude": -6.33333,
    "longitude": 36.61667
  },
  {
    "city": "Tubugwe",
    "city_zh": "Tubugwe",
    "country": "Tanzania",
    "country_zh": "坦尚尼亞",
    "country_iso_code": "TZ",
    "timezone": "Africa/Dar_es_Salaam",
    "latitude": -5.68333,
    "longitude": 37.5
  },
  {
    "city": "Toza",
    "city_zh": "Toza",
    "country": "Tanzania",
    "country_zh": "坦尚尼亞",
    "country_iso_code": "TZ",
    "timezone": "Africa/Dar_es_Salaam",
    "latitude": -4.27167,
    "longitude": 31.19056
  },
  {
    "city": "Tovukuu",
    "city_zh": "Tovukuu",
    "country": "Tanzania",
    "country_zh": "坦尚尼亞",
    "country_iso_code": "TZ",
    "timezone": "Africa/Dar_es_Salaam",
    "latitude": -5.4,
    "longitude": 39.65
  },
  {
    "city": "Totoe",
    "city_zh": "Totoe",
    "country": "Tanzania",
    "country_zh": "坦尚尼亞",
    "country_iso_code": "TZ",
    "timezone": "Africa/Dar_es_Salaam",
    "latitude": -8.51667,
    "longitude": 32.88333
  },
  {
    "city": "Toronto",
    "city_zh": "Toronto",
    "country": "Tanzania",
    "country_zh": "坦尚尼亞",
    "country_iso_code": "TZ",
    "timezone": "Africa/Dar_es_Salaam",
    "latitude": -4.9,
    "longitude": 38.1
  },
  {
    "city": "Topeni",
    "city_zh": "Topeni",
    "country": "Tanzania",
    "country_zh": "坦尚尼亞",
    "country_iso_code": "TZ",
    "timezone": "Africa/Dar_es_Salaam",
    "latitude": -5.35,
    "longitude": 39.68333
  },
  {
    "city": "Tonto",
    "city_zh": "Tonto",
    "country": "Tanzania",
    "country_zh": "坦尚尼亞",
    "country_iso_code": "TZ",
    "timezone": "Africa/Dar_es_Salaam",
    "latitude": -4.3,
    "longitude": 37.9
  },
  {
    "city": "Tongwe",
    "city_zh": "Tongwe",
    "country": "Tanzania",
    "country_zh": "坦尚尼亞",
    "country_iso_code": "TZ",
    "timezone": "Africa/Dar_es_Salaam",
    "latitude": -5.53333,
    "longitude": 38.65
  },
  {
    "city": "Tongwe",
    "city_zh": "Tongwe",
    "country": "Tanzania",
    "country_zh": "坦尚尼亞",
    "country_iso_code": "TZ",
    "timezone": "Africa/Dar_es_Salaam",
    "latitude": -5.11667,
    "longitude": 38.71667
  },
  {
    "city": "Tongora",
    "city_zh": "Tongora",
    "country": "Tanzania",
    "country_zh": "坦尚尼亞",
    "country_iso_code": "TZ",
    "timezone": "Africa/Dar_es_Salaam",
    "latitude": -8.35,
    "longitude": 36.1
  },
  {
    "city": "Tongoni",
    "city_zh": "Tongoni",
    "country": "Tanzania",
    "country_zh": "坦尚尼亞",
    "country_iso_code": "TZ",
    "timezone": "Africa/Dar_es_Salaam",
    "latitude": -6.38333,
    "longitude": 39.55
  },
  {
    "city": "Tongoni",
    "city_zh": "Tongoni",
    "country": "Tanzania",
    "country_zh": "坦尚尼亞",
    "country_iso_code": "TZ",
    "timezone": "Africa/Dar_es_Salaam",
    "latitude": -5.35,
    "longitude": 39.66667
  },
  {
    "city": "Tongoni",
    "city_zh": "Tongoni",
    "country": "Tanzania",
    "country_zh": "坦尚尼亞",
    "country_iso_code": "TZ",
    "timezone": "Africa/Dar_es_Salaam",
    "latitude": -5.21686,
    "longitude": 39.06292
  },
  {
    "city": "Tongoi",
    "city_zh": "Tongoi",
    "country": "Tanzania",
    "country_zh": "坦尚尼亞",
    "country_iso_code": "TZ",
    "timezone": "Africa/Dar_es_Salaam",
    "latitude": -4.81667,
    "longitude": 38.75
  },
  {
    "city": "Tongoani",
    "city_zh": "Tongoani",
    "country": "Tanzania",
    "country_zh": "坦尚尼亞",
    "country_iso_code": "TZ",
    "timezone": "Africa/Dar_es_Salaam",
    "latitude": -5.01667,
    "longitude": 39.81667
  },
  {
    "city": "Tondooni",
    "city_zh": "Tondooni",
    "country": "Tanzania",
    "country_zh": "坦尚尼亞",
    "country_iso_code": "TZ",
    "timezone": "Africa/Dar_es_Salaam",
    "latitude": -5.41667,
    "longitude": 39.68333
  },
  {
    "city": "Tondooni",
    "city_zh": "Tondooni",
    "country": "Tanzania",
    "country_zh": "坦尚尼亞",
    "country_iso_code": "TZ",
    "timezone": "Africa/Dar_es_Salaam",
    "latitude": -5.31667,
    "longitude": 39.68333
  },
  {
    "city": "Tondooni",
    "city_zh": "Tondooni",
    "country": "Tanzania",
    "country_zh": "坦尚尼亞",
    "country_iso_code": "TZ",
    "timezone": "Africa/Dar_es_Salaam",
    "latitude": -5.3,
    "longitude": 39.8
  },
  {
    "city": "Tondooni",
    "city_zh": "Tondooni",
    "country": "Tanzania",
    "country_zh": "坦尚尼亞",
    "country_iso_code": "TZ",
    "timezone": "Africa/Dar_es_Salaam",
    "latitude": -5.25,
    "longitude": 39.8
  },
  {
    "city": "Tondooni",
    "city_zh": "Tondooni",
    "country": "Tanzania",
    "country_zh": "坦尚尼亞",
    "country_iso_code": "TZ",
    "timezone": "Africa/Dar_es_Salaam",
    "latitude": -5.06667,
    "longitude": 39.76667
  },
  {
    "city": "Tondoni",
    "city_zh": "Tondoni",
    "country": "Tanzania",
    "country_zh": "坦尚尼亞",
    "country_iso_code": "TZ",
    "timezone": "Africa/Dar_es_Salaam",
    "latitude": -5.25,
    "longitude": 39.71667
  },
  {
    "city": "Tondoni",
    "city_zh": "Tondoni",
    "country": "Tanzania",
    "country_zh": "坦尚尼亞",
    "country_iso_code": "TZ",
    "timezone": "Africa/Dar_es_Salaam",
    "latitude": -5.15,
    "longitude": 39.8
  },
  {
    "city": "Tondoni",
    "city_zh": "Tondoni",
    "country": "Tanzania",
    "country_zh": "坦尚尼亞",
    "country_iso_code": "TZ",
    "timezone": "Africa/Dar_es_Salaam",
    "latitude": -5.15,
    "longitude": 39.71667
  },
  {
    "city": "Tondoni",
    "city_zh": "Tondoni",
    "country": "Tanzania",
    "country_zh": "坦尚尼亞",
    "country_iso_code": "TZ",
    "timezone": "Africa/Dar_es_Salaam",
    "latitude": -5.11667,
    "longitude": 39.78333
  },
  {
    "city": "Tondoni",
    "city_zh": "Tondoni",
    "country": "Tanzania",
    "country_zh": "坦尚尼亞",
    "country_iso_code": "TZ",
    "timezone": "Africa/Dar_es_Salaam",
    "latitude": -5.11667,
    "longitude": 39.7
  },
  {
    "city": "Tondoni",
    "city_zh": "Tondoni",
    "country": "Tanzania",
    "country_zh": "坦尚尼亞",
    "country_iso_code": "TZ",
    "timezone": "Africa/Dar_es_Salaam",
    "latitude": -5.1,
    "longitude": 39.78333
  },
  {
    "city": "Tondoni",
    "city_zh": "Tondoni",
    "country": "Tanzania",
    "country_zh": "坦尚尼亞",
    "country_iso_code": "TZ",
    "timezone": "Africa/Dar_es_Salaam",
    "latitude": -5.01667,
    "longitude": 39.78333
  },
  {
    "city": "Tondoni",
    "city_zh": "Tondoni",
    "country": "Tanzania",
    "country_zh": "坦尚尼亞",
    "country_iso_code": "TZ",
    "timezone": "Africa/Dar_es_Salaam",
    "latitude": -5.0,
    "longitude": 39.73333
  },
  {
    "city": "Tondo",
    "city_zh": "Tondo",
    "country": "Tanzania",
    "country_zh": "坦尚尼亞",
    "country_iso_code": "TZ",
    "timezone": "Africa/Dar_es_Salaam",
    "latitude": -5.4,
    "longitude": 39.76667
  },
  {
    "city": "Toncolo",
    "city_zh": "Toncolo",
    "country": "Tanzania",
    "country_zh": "坦尚尼亞",
    "country_iso_code": "TZ",
    "timezone": "Africa/Dar_es_Salaam",
    "latitude": -5.28333,
    "longitude": 35.3
  },
  {
    "city": "Tomota",
    "city_zh": "Tomota",
    "country": "Tanzania",
    "country_zh": "坦尚尼亞",
    "country_iso_code": "TZ",
    "timezone": "Africa/Dar_es_Salaam",
    "latitude": -4.93333,
    "longitude": 38.5
  },
  {
    "city": "Tomondwe",
    "city_zh": "Tomondwe",
    "country": "Tanzania",
    "country_zh": "坦尚尼亞",
    "country_iso_code": "TZ",
    "timezone": "Africa/Dar_es_Salaam",
    "latitude": -5.36667,
    "longitude": 39.75
  },
  {
    "city": "Tomondo",
    "city_zh": "Tomondo",
    "country": "Tanzania",
    "country_zh": "坦尚尼亞",
    "country_iso_code": "TZ",
    "timezone": "Africa/Dar_es_Salaam",
    "latitude": -6.2,
    "longitude": 39.23333
  },
  {
    "city": "Tomali",
    "city_zh": "Tomali",
    "country": "Tanzania",
    "country_zh": "坦尚尼亞",
    "country_iso_code": "TZ",
    "timezone": "Africa/Dar_es_Salaam",
    "latitude": -4.6,
    "longitude": 38.26667
  },
  {
    "city": "Toieya",
    "city_zh": "Toieya",
    "country": "Tanzania",
    "country_zh": "坦尚尼亞",
    "country_iso_code": "TZ",
    "timezone": "Africa/Dar_es_Salaam",
    "latitude": -3.71667,
    "longitude": 37.8
  },
  {
    "city": "Tobugwe",
    "city_zh": "Tobugwe",
    "country": "Tanzania",
    "country_zh": "坦尚尼亞",
    "country_iso_code": "TZ",
    "timezone": "Africa/Dar_es_Salaam",
    "latitude": -5.25,
    "longitude": 38.78333
  },
  {
    "city": "Tlawi",
    "city_zh": "Tlawi",
    "country": "Tanzania",
    "country_zh": "坦尚尼亞",
    "country_iso_code": "TZ",
    "timezone": "Africa/Dar_es_Salaam",
    "latitude": -3.91667,
    "longitude": 35.48333
  },
  {
    "city": "Tiwuka",
    "city_zh": "Tiwuka",
    "country": "Tanzania",
    "country_zh": "坦尚尼亞",
    "country_iso_code": "TZ",
    "timezone": "Africa/Dar_es_Salaam",
    "latitude": -6.53333,
    "longitude": 34.98333
  },
  {
    "city": "Titu",
    "city_zh": "Titu",
    "country": "Tanzania",
    "country_zh": "坦尚尼亞",
    "country_iso_code": "TZ",
    "timezone": "Africa/Dar_es_Salaam",
    "latitude": -7.39483,
    "longitude": 38.70842
  },
  {
    "city": "Tiron",
    "city_zh": "Tiron",
    "country": "Tanzania",
    "country_zh": "坦尚尼亞",
    "country_iso_code": "TZ",
    "timezone": "Africa/Dar_es_Salaam",
    "latitude": -5.35,
    "longitude": 39.68333
  },
  {
    "city": "Tiriti",
    "city_zh": "Tiriti",
    "country": "Tanzania",
    "country_zh": "坦尚尼亞",
    "country_iso_code": "TZ",
    "timezone": "Africa/Dar_es_Salaam",
    "latitude": -4.38333,
    "longitude": 37.63333
  },
  {
    "city": "Tiribeni",
    "city_zh": "Tiribeni",
    "country": "Tanzania",
    "country_zh": "坦尚尼亞",
    "country_iso_code": "TZ",
    "timezone": "Africa/Dar_es_Salaam",
    "latitude": -5.43333,
    "longitude": 38.7
  },
  {
    "city": "Tingatinga",
    "city_zh": "Tingatinga",
    "country": "Tanzania",
    "country_zh": "坦尚尼亞",
    "country_iso_code": "TZ",
    "timezone": "Africa/Dar_es_Salaam",
    "latitude": -2.98333,
    "longitude": 36.96667
  },
  {
    "city": "Tindini",
    "city_zh": "Tindini",
    "country": "Tanzania",
    "country_zh": "坦尚尼亞",
    "country_iso_code": "TZ",
    "timezone": "Africa/Dar_es_Salaam",
    "latitude": -6.3,
    "longitude": 39.36667
  },
  {
    "city": "Tinde",
    "city_zh": "Tinde",
    "country": "Tanzania",
    "country_zh": "坦尚尼亞",
    "country_iso_code": "TZ",
    "timezone": "Africa/Dar_es_Salaam",
    "latitude": -3.88333,
    "longitude": 33.2
  },
  {
    "city": "Timbwa",
    "city_zh": "Timbwa",
    "country": "Tanzania",
    "country_zh": "坦尚尼亞",
    "country_iso_code": "TZ",
    "timezone": "Africa/Dar_es_Salaam",
    "latitude": -4.35,
    "longitude": 34.26667
  },
  {
    "city": "Themi",
    "city_zh": "Themi",
    "country": "Tanzania",
    "country_zh": "坦尚尼亞",
    "country_iso_code": "TZ",
    "timezone": "Africa/Dar_es_Salaam",
    "latitude": -3.51667,
    "longitude": 36.76667
  },
  {
    "city": "Thangu",
    "city_zh": "Thangu",
    "country": "Tanzania",
    "country_zh": "坦尚尼亞",
    "country_iso_code": "TZ",
    "timezone": "Africa/Dar_es_Salaam",
    "latitude": -8.7,
    "longitude": 33.3
  },
  {
    "city": "Tgarukiru",
    "city_zh": "Tgarukiru",
    "country": "Tanzania",
    "country_zh": "坦尚尼亞",
    "country_iso_code": "TZ",
    "timezone": "Africa/Dar_es_Salaam",
    "latitude": -7.15,
    "longitude": 31.13333
  },